mavpackettype,time_boot_ms,port,chan1_raw,chan2_raw,chan3_raw,chan4_raw,chan5_raw,chan6_raw,chan7_raw,chan8_raw,rssi,time_usec,xacc,yacc,zacc,xgyro,ygyro,zgyro,xmag,ymag,zmag,id,temperature,chan1_scaled,chan2_scaled,chan3_scaled,chan4_scaled,chan5_scaled,chan6_scaled,chan7_scaled,chan8_scaled,fix_type,lat,lon,alt,eph,epv,vel,cog,satellites_visible,alt_ellipsoid,h_acc,v_acc,vel_acc,hdg_acc,yaw,type,autopilot,base_mode,custom_mode,system_status,mavlink_version
RAW_IMU,172951,0,172,992,1149,1232,172,172,172,1811,255,172951146,1924,-1932,25223,-123,428,162,-63,69,-312,0,-1040,1340,1167,32,1648,-1,-1,-1,-1,3,369603640,-1220327568,0,65535,65535,128,2547,255,0,0,0,0,0,0,10,0,192,0,3,3
RC_CHANNELS_SCALED,172951,1,172,992,1149,1232,172,172,172,1811,255,172951146,1924,-1932,25223,-123,428,162,-63,69,-312,0,-1040,1116,1238,15,1686,-1,-1,-1,-1,3,369603640,-1220327568,0,65535,65535,128,2547,255,0,0,0,0,0,0,10,0,192,0,3,3
GPS_RAW_INT,172951,1,172,992,1149,1232,172,172,172,1811,255,172961007,1924,-1932,25223,-123,428,162,-63,69,-312,0,-1040,1116,1238,15,1686,-1,-1,-1,-1,3,369603651,-1220327570,0,65535,65535,122,1823,255,0,0,0,0,0,0,10,0,192,0,3,3
RC_CHANNELS_RAW,172971,0,172,992,1148,1260,172,172,172,1811,255,172961007,1924,-1932,25223,-123,428,162,-63,69,-312,0,-1040,1116,1238,15,1686,-1,-1,-1,-1,3,369603651,-1220327570,0,65535,65535,122,1823,255,0,0,0,0,0,0,10,0,192,0,3,3
RAW_IMU,172971,0,172,992,1148,1260,172,172,172,1811,255,172971146,-11126,16475,10825,-180,190,56,-46,72,-314,0,-976,1116,1238,15,1686,-1,-1,-1,-1,3,369603651,-1220327570,0,65535,65535,122,1823,255,0,0,0,0,0,0,10,0,192,0,3,3
RC_CHANNELS_SCALED,172971,1,172,992,1148,1260,172,172,172,1811,255,172971146,-11126,16475,10825,-180,190,56,-46,72,-314,0,-976,1098,1087,24,1748,-1,-1,-1,-1,3,369603651,-1220327570,0,65535,65535,122,1823,255,0,0,0,0,0,0,10,0,192,0,3,3
RC_CHANNELS_RAW,172991,0,172,992,1148,1294,172,172,172,1811,255,172971146,-11126,16475,10825,-180,190,56,-46,72,-314,0,-976,1098,1087,24,1748,-1,-1,-1,-1,3,369603651,-1220327570,0,65535,65535,122,1823,255,0,0,0,0,0,0,10,0,192,0,3,3
RAW_IMU,172991,0,172,992,1148,1294,172,172,172,1811,255,172991141,-2120,3920,22089,-668,54,-781,-39,75,-321,0,-912,1098,1087,24,1748,-1,-1,-1,-1,3,369603651,-1220327570,0,65535,65535,122,1823,255,0,0,0,0,0,0,10,0,192,0,3,3
RC_CHANNELS_SCALED,172991,1,172,992,1148,1294,172,172,172,1811,255,172991141,-2120,3920,22089,-668,54,-781,-39,75,-321,0,-912,1304,1105,29,1796,-1,-1,-1,-1,3,369603651,-1220327570,0,65535,65535,122,1823,255,0,0,0,0,0,0,10,0,192,0,3,3
HEARTBEAT,172991,1,172,992,1148,1294,172,172,172,1811,255,172991141,-2120,3920,22089,-668,54,-781,-39,75,-321,0,-912,1304,1105,29,1796,-1,-1,-1,-1,3,369603651,-1220327570,0,65535,65535,122,1823,255,0,0,0,0,0,0,10,0,192,0,3,3
RC_CHANNELS_RAW,173011,0,172,992,1148,1297,172,172,172,251,255,172991141,-2120,3920,22089,-668,54,-781,-39,75,-321,0,-912,1304,1105,29,1796,-1,-1,-1,-1,3,369603651,-1220327570,0,65535,65535,122,1823,255,0,0,0,0,0,0,10,0,192,0,3,3
RAW_IMU,173011,0,172,992,1148,1297,172,172,172,251,255,173011141,5466,2473,10118,-920,-190,-989,-41,67,-336,0,-928,1304,1105,29,1796,-1,-1,-1,-1,3,369603651,-1220327570,0,65535,65535,122,1823,255,0,0,0,0,0,0,10,0,192,0,3,3
RC_CHANNELS_SCALED,173011,1,172,992,1148,1297,172,172,172,251,255,173011141,5466,2473,10118,-920,-190,-989,-41,67,-336,0,-928,1189,1273,24,1843,-1,-1,-1,-1,3,369603651,-1220327570,0,65535,65535,122,1823,255,0,0,0,0,0,0,10,0,192,0,3,3
RC_CHANNELS_RAW,173031,0,172,992,1147,1325,172,172,172,1811,255,173011141,5466,2473,10118,-920,-190,-989,-41,67,-336,0,-928,1189,1273,24,1843,-1,-1,-1,-1,3,369603651,-1220327570,0,65535,65535,122,1823,255,0,0,0,0,0,0,10,0,192,0,3,3
RAW_IMU,173031,0,172,992,1147,1325,172,172,172,1811,255,173031147,-2252,3373,23815,130,558,-1457,-41,72,-340,0,-928,1189,1273,24,1843,-1,-1,-1,-1,3,369603651,-1220327570,0,65535,65535,122,1823,255,0,0,0,0,0,0,10,0,192,0,3,3
RC_CHANNELS_SCALED,173031,1,172,992,1147,1325,172,172,172,1811,255,173031147,-2252,3373,23815,130,558,-1457,-41,72,-340,0,-928,1068,1254,23,1882,-1,-1,-1,-1,3,369603651,-1220327570,0,65535,65535,122,1823,255,0,0,0,0,0,0,10,0,192,0,3,3
RC_CHANNELS_RAW,173051,0,172,992,1147,1326,172,172,172,1811,255,173031147,-2252,3373,23815,130,558,-1457,-41,72,-340,0,-928,1068,1254,23,1882,-1,-1,-1,-1,3,369603651,-1220327570,0,65535,65535,122,1823,255,0,0,0,0,0,0,10,0,192,0,3,3
RAW_IMU,173051,0,172,992,1147,1326,172,172,172,1811,255,173051144,2602,-2587,18771,-638,617,-1384,-52,67,-333,0,-976,1068,1254,23,1882,-1,-1,-1,-1,3,369603651,-1220327570,0,65535,65535,122,1823,255,0,0,0,0,0,0,10,0,192,0,3,3
RC_CHANNELS_SCALED,173051,1,172,992,1147,1326,172,172,172,1811,255,173051144,2602,-2587,18771,-638,617,-1384,-52,67,-333,0,-976,1232,1080,33,1936,-1,-1,-1,-1,3,369603651,-1220327570,0,65535,65535,122,1823,255,0,0,0,0,0,0,10,0,192,0,3,3
GPS_RAW_INT,173051,1,172,992,1147,1326,172,172,172,1811,255,173062008,2602,-2587,18771,-638,617,-1384,-52,67,-333,0,-976,1232,1080,33,1936,-1,-1,-1,-1,3,369603665,-1220327571,0,65535,65535,127,1153,255,0,0,0,0,0,0,10,0,192,0,3,3
RC_CHANNELS_RAW,173071,0,172,992,1146,1329,172,172,172,1811,255,173062008,2602,-2587,18771,-638,617,-1384,-52,67,-333,0,-976,1232,1080,33,1936,-1,-1,-1,-1,3,369603665,-1220327571,0,65535,65535,127,1153,255,0,0,0,0,0,0,10,0,192,0,3,3
RAW_IMU,173071,0,172,992,1146,1329,172,172,172,1811,255,173071146,-6587,-3829,15876,-431,1248,-1947,-56,69,-320,0,-1040,1232,1080,33,1936,-1,-1,-1,-1,3,369603665,-1220327571,0,65535,65535,127,1153,255,0,0,0,0,0,0,10,0,192,0,3,3
RC_CHANNELS_SCALED,173071,1,172,992,1146,1329,172,172,172,1811,255,173071146,-6587,-3829,15876,-431,1248,-1947,-56,69,-320,0,-1040,1332,1107,28,2006,-1,-1,-1,-1,3,369603665,-1220327571,0,65535,65535,127,1153,255,0,0,0,0,0,0,10,0,192,0,3,3
RC_CHANNELS_RAW,173091,0,172,992,1145,1342,172,172,172,1811,255,173071146,-6587,-3829,15876,-431,1248,-1947,-56,69,-320,0,-1040,1332,1107,28,2006,-1,-1,-1,-1,3,369603665,-1220327571,0,65535,65535,127,1153,255,0,0,0,0,0,0,10,0,192,0,3,3
RAW_IMU,173091,0,172,992,1145,1342,172,172,172,1811,255,173091144,7622,13860,15052,25,436,-2349,-52,70,-316,0,-1040,1332,1107,28,2006,-1,-1,-1,-1,3,369603665,-1220327571,0,65535,65535,127,1153,255,0,0,0,0,0,0,10,0,192,0,3,3
RC_CHANNELS_SCALED,173091,1,172,992,1145,1342,172,172,172,1811,255,173091144,7622,13860,15052,25,436,-2349,-52,70,-316,0,-1040,1110,1178,27,2048,-1,-1,-1,-1,3,369603665,-1220327571,0,65535,65535,127,1153,255,0,0,0,0,0,0,10,0,192,0,3,3
RC_CHANNELS_RAW,173111,0,172,992,1145,1345,172,172,172,1811,255,173091144,7622,13860,15052,25,436,-2349,-52,70,-316,0,-1040,1110,1178,27,2048,-1,-1,-1,-1,3,369603665,-1220327571,0,65535,65535,127,1153,255,0,0,0,0,0,0,10,0,192,0,3,3
RAW_IMU,173111,0,172,992,1145,1345,172,172,172,1811,255,173111142,1894,9165,21015,-407,564,-2567,-48,64,-298,0,-960,1110,1178,27,2048,-1,-1,-1,-1,3,369603665,-1220327571,0,65535,65535,127,1153,255,0,0,0,0,0,0,10,0,192,0,3,3
RC_CHANNELS_SCALED,173111,1,172,992,1145,1345,172,172,172,1811,255,173111142,1894,9165,21015,-407,564,-2567,-48,64,-298,0,-960,1118,1036,18,2090,-1,-1,-1,-1,3,369603665,-1220327571,0,65535,65535,127,1153,255,0,0,0,0,0,0,10,0,192,0,3,3
RC_CHANNELS_RAW,173131,0,172,992,1145,1346,172,172,172,1811,255,173111142,1894,9165,21015,-407,564,-2567,-48,64,-298,0,-960,1118,1036,18,2090,-1,-1,-1,-1,3,369603665,-1220327571,0,65535,65535,127,1153,255,0,0,0,0,0,0,10,0,192,0,3,3
RAW_IMU,173131,0,172,992,1145,1346,172,172,172,1811,255,173131147,3548,5194,15198,169,492,-3260,-40,69,-312,0,-928,1118,1036,18,2090,-1,-1,-1,-1,3,369603665,-1220327571,0,65535,65535,127,1153,255,0,0,0,0,0,0,10,0,192,0,3,3
RC_CHANNELS_SCALED,173131,1,172,992,1145,1346,172,172,172,1811,255,173131147,3548,5194,15198,169,492,-3260,-40,69,-312,0,-928,1321,1026,31,2160,-1,-1,-1,-1,3,369603665,-1220327571,0,65535,65535,127,1153,255,0,0,0,0,0,0,10,0,192,0,3,3
RC_CHANNELS_RAW,173151,0,172,992,1145,1348,172,172,172,1811,255,173131147,3548,5194,15198,169,492,-3260,-40,69,-312,0,-928,1321,1026,31,2160,-1,-1,-1,-1,3,369603665,-1220327571,0,65535,65535,127,1153,255,0,0,0,0,0,0,10,0,192,0,3,3
RAW_IMU,173151,0,172,992,1145,1348,172,172,172,1811,255,173151145,140,739,14245,-814,81,-3375,-31,70,-326,0,-912,1321,1026,31,2160,-1,-1,-1,-1,3,369603665,-1220327571,0,65535,65535,127,1153,255,0,0,0,0,0,0,10,0,192,0,3,3
RC_CHANNELS_SCALED,173151,1,172,992,1145,1348,172,172,172,1811,255,173151145,140,739,14245,-814,81,-3375,-31,70,-326,0,-912,1155,1182,21,2204,-1,-1,-1,-1,3,369603665,-1220327571,0,65535,65535,127,1153,255,0,0,0,0,0,0,10,0,192,0,3,3
GPS_RAW_INT,173151,1,172,992,1145,1348,172,172,172,1811,255,173163008,140,739,14245,-814,81,-3375,-31,70,-326,0,-912,1155,1182,21,2204,-1,-1,-1,-1,3,369603678,-1220327573,0,65535,65535,129,655,255,0,0,0,0,0,0,10,0,192,0,3,3
RC_CHANNELS_RAW,173171,0,172,992,1146,1349,172,172,172,1811,255,173163008,140,739,14245,-814,81,-3375,-31,70,-326,0,-912,1155,1182,21,2204,-1,-1,-1,-1,3,369603678,-1220327573,0,65535,65535,129,655,255,0,0,0,0,0,0,10,0,192,0,3,3
RAW_IMU,173171,0,172,992,1146,1349,172,172,172,1811,255,173171152,-1633,549,27048,-176,233,-4180,-40,69,-339,0,-912,1155,1182,21,2204,-1,-1,-1,-1,3,369603678,-1220327573,0,65535,65535,129,655,255,0,0,0,0,0,0,10,0,192,0,3,3
RC_CHANNELS_SCALED,173171,1,172,992,1146,1349,172,172,172,1811,255,173171152,-1633,549,27048,-176,233,-4180,-40,69,-339,0,-912,1066,1217,10,2236,-1,-1,-1,-1,3,369603678,-1220327573,0,65535,65535,129,655,255,0,0,0,0,0,0,10,0,192,0,3,3
RC_CHANNELS_RAW,173191,0,172,992,1146,1350,172,172,172,1811,255,173171152,-1633,549,27048,-176,233,-4180,-40,69,-339,0,-912,1066,1217,10,2236,-1,-1,-1,-1,3,369603678,-1220327573,0,65535,65535,129,655,255,0,0,0,0,0,0,10,0,192,0,3,3
RAW_IMU,173191,0,172,992,1146,1350,172,172,172,1811,255,173191142,3401,2327,20256,-780,-315,-4382,-43,71,-342,0,-912,1066,1217,10,2236,-1,-1,-1,-1,3,369603678,-1220327573,0,65535,65535,129,655,255,0,0,0,0,0,0,10,0,192,0,3,3
RC_CHANNELS_SCALED,173191,1,172,992,1146,1350,172,172,172,1811,255,173191142,3401,2327,20256,-780,-315,-4382,-43,71,-342,0,-912,1247,1061,14,2258,-1,-1,-1,-1,3,369603678,-1220327573,0,65535,65535,129,655,255,0,0,0,0,0,0,10,0,192,0,3,3
RC_CHANNELS_RAW,173211,0,172,992,1147,1350,172,172,172,1811,255,173191142,3401,2327,20256,-780,-315,-4382,-43,71,-342,0,-912,1247,1061,14,2258,-1,-1,-1,-1,3,369603678,-1220327573,0,65535,65535,129,655,255,0,0,0,0,0,0,10,0,192,0,3,3
RAW_IMU,173211,0,172,992,1147,1350,172,172,172,1811,255,173211144,783,-4835,14153,538,595,-4634,-60,58,-336,0,-928,1247,1061,14,2258,-1,-1,-1,-1,3,369603678,-1220327573,0,65535,65535,129,655,255,0,0,0,0,0,0,10,0,192,0,3,3
RC_CHANNELS_SCALED,173211,1,172,992,1147,1350,172,172,172,1811,255,173211144,783,-4835,14153,538,595,-4634,-60,58,-336,0,-928,1300,1029,26,2302,-1,-1,-1,-1,3,369603678,-1220327573,0,65535,65535,129,655,255,0,0,0,0,0,0,10,0,192,0,3,3
RC_CHANNELS_RAW,173231,0,172,992,1147,1351,172,172,172,1811,255,173211144,783,-4835,14153,538,595,-4634,-60,58,-336,0,-928,1300,1029,26,2302,-1,-1,-1,-1,3,369603678,-1220327573,0,65535,65535,129,655,255,0,0,0,0,0,0,10,0,192,0,3,3
RAW_IMU,173231,0,172,992,1147,1351,172,172,172,1811,255,173231141,-1497,2341,21043,152,-352,-4644,-58,49,-312,0,-976,1300,1029,26,2302,-1,-1,-1,-1,3,369603678,-1220327573,0,65535,65535,129,655,255,0,0,0,0,0,0,10,0,192,0,3,3
RC_CHANNELS_SCALED,173231,1,172,992,1147,1351,172,172,172,1811,255,173231141,-1497,2341,21043,152,-352,-4644,-58,49,-312,0,-976,1095,1105,15,2332,-1,-1,-1,-1,3,369603678,-1220327573,0,65535,65535,129,655,255,0,0,0,0,0,0,10,0,192,0,3,3
RC_CHANNELS_RAW,173251,0,172,992,1147,1352,172,172,172,1811,255,173231141,-1497,2341,21043,152,-352,-4644,-58,49,-312,0,-976,1095,1105,15,2332,-1,-1,-1,-1,3,369603678,-1220327573,0,65535,65535,129,655,255,0,0,0,0,0,0,10,0,192,0,3,3
RAW_IMU,173251,0,172,992,1147,1352,172,172,172,1811,255,173251146,-3880,4691,16821,-615,-122,-4626,-45,54,-307,0,-1024,1095,1105,15,2332,-1,-1,-1,-1,3,369603678,-1220327573,0,65535,65535,129,655,255,0,0,0,0,0,0,10,0,192,0,3,3
RC_CHANNELS_SCALED,173251,1,172,992,1147,1352,172,172,172,1811,255,173251146,-3880,4691,16821,-615,-122,-4626,-45,54,-307,0,-1024,1141,1058,7,2348,-1,-1,-1,-1,3,369603678,-1220327573,0,65535,65535,129,655,255,0,0,0,0,0,0,10,0,192,0,3,3
GPS_RAW_INT,173251,1,172,992,1147,1352,172,172,172,1811,255,173264008,-3880,4691,16821,-615,-122,-4626,-45,54,-307,0,-1024,1141,1058,7,2348,-1,-1,-1,-1,3,369603693,-1220327585,0,65535,65535,140,35954,255,0,0,0,0,0,0,10,0,192,0,3,3
RC_CHANNELS_RAW,173271,0,172,992,1147,1355,172,172,172,1811,255,173264008,-3880,4691,16821,-615,-122,-4626,-45,54,-307,0,-1024,1141,1058,7,2348,-1,-1,-1,-1,3,369603693,-1220327585,0,65535,65535,140,35954,255,0,0,0,0,0,0,10,0,192,0,3,3
RAW_IMU,173271,0,172,992,1147,1355,172,172,172,1811,255,173271148,2466,7489,17181,-891,-755,-4973,-36,48,-321,0,-1040,1141,1058,7,2348,-1,-1,-1,-1,3,369603693,-1220327585,0,65535,65535,140,35954,255,0,0,0,0,0,0,10,0,192,0,3,3
RC_CHANNELS_SCALED,173271,1,172,992,1147,1355,172,172,172,1811,255,173271148,2466,7489,17181,-891,-755,-4973,-36,48,-321,0,-1040,1332,945,18,2386,-1,-1,-1,-1,3,369603693,-1220327585,0,65535,65535,140,35954,255,0,0,0,0,0,0,10,0,192,0,3,3
RC_CHANNELS_RAW,173291,0,172,992,1147,1356,172,172,172,1811,255,173271148,2466,7489,17181,-891,-755,-4973,-36,48,-321,0,-1040,1332,945,18,2386,-1,-1,-1,-1,3,369603693,-1220327585,0,65535,65535,140,35954,255,0,0,0,0,0,0,10,0,192,0,3,3
RAW_IMU,173291,0,172,992,1147,1356,172,172,172,1811,255,173291147,553,-1033,18997,-700,-741,-5001,-39,53,-314,0,-912,1332,945,18,2386,-1,-1,-1,-1,3,369603693,-1220327585,0,65535,65535,140,35954,255,0,0,0,0,0,0,10,0,192,0,3,3
RC_CHANNELS_SCALED,173291,1,172,992,1147,1356,172,172,172,1811,255,173291147,553,-1033,18997,-700,-741,-5001,-39,53,-314,0,-912,1146,1032,7,2403,-1,-1,-1,-1,3,369603693,-1220327585,0,65535,65535,140,35954,255,0,0,0,0,0,0,10,0,192,0,3,3
RC_CHANNELS_RAW,173311,0,172,992,1147,1356,172,172,172,1811,255,173291147,553,-1033,18997,-700,-741,-5001,-39,53,-314,0,-912,1146,1032,7,2403,-1,-1,-1,-1,3,369603693,-1220327585,0,65535,65535,140,35954,255,0,0,0,0,0,0,10,0,192,0,3,3
RAW_IMU,173311,0,172,992,1147,1356,172,172,172,1811,255,173311142,2504,5535,13399,-975,216,-5201,-43,56,-361,0,-912,1146,1032,7,2403,-1,-1,-1,-1,3,369603693,-1220327585,0,65535,65535,140,35954,255,0,0,0,0,0,0,10,0,192,0,3,3
RC_CHANNELS_SCALED,173311,1,172,992,1147,1356,172,172,172,1811,255,173311142,2504,5535,13399,-975,216,-5201,-43,56,-361,0,-912,1092,1175,10,2416,-1,-1,-1,-1,3,369603693,-1220327585,0,65535,65535,140,35954,255,0,0,0,0,0,0,10,0,192,0,3,3
RC_CHANNELS_RAW,173331,0,172,992,1148,1355,172,172,172,1811,255,173311142,2504,5535,13399,-975,216,-5201,-43,56,-361,0,-912,1092,1175,10,2416,-1,-1,-1,-1,3,369603693,-1220327585,0,65535,65535,140,35954,255,0,0,0,0,0,0,10,0,192,0,3,3
RAW_IMU,173331,0,172,992,1148,1355,172,172,172,1811,255,173331145,4765,8963,17429,-1260,-372,-4818,-75,46,-345,0,-976,1092,1175,10,2416,-1,-1,-1,-1,3,369603693,-1220327585,0,65535,65535,140,35954,255,0,0,0,0,0,0,10,0,192,0,3,3
RC_CHANNELS_SCALED,173331,1,172,992,1148,1355,172,172,172,1811,255,173331145,4765,8963,17429,-1260,-372,-4818,-75,46,-345,0,-976,1302,1170,1,2418,-1,-1,-1,-1,3,369603693,-1220327585,0,65535,65535,140,35954,255,0,0,0,0,0,0,10,0,192,0,3,3
RC_CHANNELS_RAW,173351,0,172,992,1148,1354,172,172,172,1811,255,173331145,4765,8963,17429,-1260,-372,-4818,-75,46,-345,0,-976,1302,1170,1,2418,-1,-1,-1,-1,3,369603693,-1220327585,0,65535,65535,140,35954,255,0,0,0,0,0,0,10,0,192,0,3,3
RAW_IMU,173351,0,172,992,1148,1354,172,172,172,1811,255,173351143,-586,1720,14727,643,740,-4786,-74,52,-337,0,-976,1302,1170,1,2418,-1,-1,-1,-1,3,369603693,-1220327585,0,65535,65535,140,35954,255,0,0,0,0,0,0,10,0,192,0,3,3
RC_CHANNELS_SCALED,173351,1,172,992,1148,1354,172,172,172,1811,255,173351143,-586,1720,14727,643,740,-4786,-74,52,-337,0,-976,1291,1013,-2,2423,-1,-1,-1,-1,3,369603693,-1220327585,0,65535,65535,140,35954,255,0,0,0,0,0,0,10,0,192,0,3,3
GPS_RAW_INT,173351,1,172,992,1148,1354,172,172,172,1811,255,173365007,-586,1720,14727,643,740,-4786,-74,52,-337,0,-976,1291,1013,-2,2423,-1,-1,-1,-1,3,369603705,-1220327581,0,65535,65535,141,35938,255,0,0,0,0,0,0,10,0,192,0,3,3
RC_CHANNELS_RAW,173371,0,172,992,1148,1352,172,172,172,1811,255,173365007,-586,1720,14727,643,740,-4786,-74,52,-337,0,-976,1291,1013,-2,2423,-1,-1,-1,-1,3,369603705,-1220327581,0,65535,65535,141,35938,255,0,0,0,0,0,0,10,0,192,0,3,3
RAW_IMU,173371,0,172,992,1148,1352,172,172,172,1811,255,173371146,476,7886,18034,712,-891,-4685,-79,30,-305,0,-1056,1291,1013,-2,2423,-1,-1,-1,-1,3,369603705,-1220327581,0,65535,65535,141,35938,255,0,0,0,0,0,0,10,0,192,0,3,3
RC_CHANNELS_SCALED,173371,1,172,992,1148,1352,172,172,172,1811,255,173371146,476,7886,18034,712,-891,-4685,-79,30,-305,0,-1056,1095,1067,-9,2413,-1,-1,-1,-1,3,369603705,-1220327581,0,65535,65535,141,35938,255,0,0,0,0,0,0,10,0,192,0,3,3
RC_CHANNELS_RAW,173391,0,172,992,1149,1350,172,172,172,1811,255,173371146,476,7886,18034,712,-891,-4685,-79,30,-305,0,-1056,1095,1067,-9,2413,-1,-1,-1,-1,3,369603705,-1220327581,0,65535,65535,141,35938,255,0,0,0,0,0,0,10,0,192,0,3,3
RAW_IMU,173391,0,172,992,1149,1350,172,172,172,1811,255,173391145,6871,8464,16340,-705,998,-5298,-62,31,-291,0,-928,1095,1067,-9,2413,-1,-1,-1,-1,3,369603705,-1220327581,0,65535,65535,141,35938,255,0,0,0,0,0,0,10,0,192,0,3,3
RC_CHANNELS_SCALED,173391,1,172,992,1149,1350,172,172,172,1811,255,173391145,6871,8464,16340,-705,998,-5298,-62,31,-291,0,-928,1199,1183,5,2418,-1,-1,-1,-1,3,369603705,-1220327581,0,65535,65535,141,35938,255,0,0,0,0,0,0,10,0,192,0,3,3
RC_CHANNELS_RAW,173411,0,172,992,1150,1349,172,172,172,1811,255,173391145,6871,8464,16340,-705,998,-5298,-62,31,-291,0,-928,1199,1183,5,2418,-1,-1,-1,-1,3,369603705,-1220327581,0,65535,65535,141,35938,255,0,0,0,0,0,0,10,0,192,0,3,3
RAW_IMU,173411,0,172,992,1150,1349,172,172,172,1811,255,173411147,-7550,3827,14834,-613,267,-4592,-60,26,-304,0,-1024,1199,1183,5,2418,-1,-1,-1,-1,3,369603705,-1220327581,0,65535,65535,141,35938,255,0,0,0,0,0,0,10,0,192,0,3,3
RC_CHANNELS_SCALED,173411,1,172,992,1150,1349,172,172,172,1811,255,173411147,-7550,3827,14834,-613,267,-4592,-60,26,-304,0,-1024,1327,1022,-2,2420,-1,-1,-1,-1,3,369603705,-1220327581,0,65535,65535,141,35938,255,0,0,0,0,0,0,10,0,192,0,3,3
RC_CHANNELS_RAW,173431,0,172,992,1150,1348,172,172,172,1811,255,173411147,-7550,3827,14834,-613,267,-4592,-60,26,-304,0,-1024,1327,1022,-2,2420,-1,-1,-1,-1,3,369603705,-1220327581,0,65535,65535,141,35938,255,0,0,0,0,0,0,10,0,192,0,3,3
RAW_IMU,173431,0,172,992,1150,1348,172,172,172,1811,255,173431143,4666,-4510,20469,898,509,-5196,-40,27,-322,0,-1024,1327,1022,-2,2420,-1,-1,-1,-1,3,369603705,-1220327581,0,65535,65535,141,35938,255,0,0,0,0,0,0,10,0,192,0,3,3
RC_CHANNELS_SCALED,173431,1,172,992,1150,1348,172,172,172,1811,255,173431143,4666,-4510,20469,898,509,-5196,-40,27,-322,0,-1024,1134,998,-2,2415,-1,-1,-1,-1,3,369603705,-1220327581,0,65535,65535,141,35938,255,0,0,0,0,0,0,10,0,192,0,3,3
RC_CHANNELS_RAW,173451,0,172,992,1152,1346,172,172,172,1811,255,173431143,4666,-4510,20469,898,509,-5196,-40,27,-322,0,-1024,1134,998,-2,2415,-1,-1,-1,-1,3,369603705,-1220327581,0,65535,65535,141,35938,255,0,0,0,0,0,0,10,0,192,0,3,3
RAW_IMU,173451,0,172,992,1152,1346,172,172,172,1811,255,173451142,1335,-3621,14909,463,694,-5179,-44,29,-350,0,-912,1134,998,-2,2415,-1,-1,-1,-1,3,369603705,-1220327581,0,65535,65535,141,35938,255,0,0,0,0,0,0,10,0,192,0,3,3
RC_CHANNELS_SCALED,173451,1,172,992,1152,1346,172,172,172,1811,255,173451142,1335,-3621,14909,463,694,-5179,-44,29,-350,0,-912,1139,1135,4,2419,-1,-1,-1,-1,3,369603705,-1220327581,0,65535,65535,141,35938,255,0,0,0,0,0,0,10,0,192,0,3,3
GPS_RAW_INT,173451,1,172,992,1152,1346,172,172,172,1811,255,173466009,1335,-3621,14909,463,694,-5179,-44,29,-350,0,-912,1139,1135,4,2419,-1,-1,-1,-1,3,369603718,-1220327585,0,65535,65535,135,35854,255,0,0,0,0,0,0,10,0,192,0,3,3
RC_CHANNELS_RAW,173471,0,172,992,1152,1344,172,172,172,1811,255,173466009,1335,-3621,14909,463,694,-5179,-44,29,-350,0,-912,1139,1135,4,2419,-1,-1,-1,-1,3,369603718,-1220327585,0,65535,65535,135,35854,255,0,0,0,0,0,0,10,0,192,0,3,3
RAW_IMU,173471,0,172,992,1152,1344,172,172,172,1811,255,173471147,5736,-10208,18301,489,224,-4785,-65,21,-355,0,-928,1139,1135,4,2419,-1,-1,-1,-1,3,369603718,-1220327585,0,65535,65535,135,35854,255,0,0,0,0,0,0,10,0,192,0,3,3
RC_CHANNELS_SCALED,173471,1,172,992,1152,1344,172,172,172,1811,255,173471147,5736,-10208,18301,489,224,-4785,-65,21,-355,0,-928,1384,1226,0,2419,-1,-1,-1,-1,3,369603718,-1220327585,0,65535,65535,135,35854,255,0,0,0,0,0,0,10,0,192,0,3,3
RC_CHANNELS_RAW,173491,0,172,992,1153,1341,172,172,172,1811,255,173471147,5736,-10208,18301,489,224,-4785,-65,21,-355,0,-928,1384,1226,0,2419,-1,-1,-1,-1,3,369603718,-1220327585,0,65535,65535,135,35854,255,0,0,0,0,0,0,10,0,192,0,3,3
RAW_IMU,173491,0,172,992,1153,1341,172,172,172,1811,255,173491142,-3636,14883,22526,-118,-653,-4659,-82,23,-334,0,-976,1384,1226,0,2419,-1,-1,-1,-1,3,369603718,-1220327585,0,65535,65535,135,35854,255,0,0,0,0,0,0,10,0,192,0,3,3
RC_CHANNELS_SCALED,173491,1,172,992,1153,1341,172,172,172,1811,255,173491142,-3636,14883,22526,-118,-653,-4659,-82,23,-334,0,-976,1248,1088,0,2415,-1,-1,-1,-1,3,369603718,-1220327585,0,65535,65535,135,35854,255,0,0,0,0,0,0,10,0,192,0,3,3
RC_CHANNELS_RAW,173511,0,172,992,1154,1339,172,172,172,1811,255,173491142,-3636,14883,22526,-118,-653,-4659,-82,23,-334,0,-976,1248,1088,0,2415,-1,-1,-1,-1,3,369603718,-1220327585,0,65535,65535,135,35854,255,0,0,0,0,0,0,10,0,192,0,3,3
RAW_IMU,173511,0,172,992,1154,1339,172,172,172,1811,255,173511148,-3270,12940,21255,438,69,-5069,-78,4,-314,0,-1040,1248,1088,0,2415,-1,-1,-1,-1,3,369603718,-1220327585,0,65535,65535,135,35854,255,0,0,0,0,0,0,10,0,192,0,3,3
RC_CHANNELS_SCALED,173511,1,172,992,1154,1339,172,172,172,1811,255,173511148,-3270,12940,21255,438,69,-5069,-78,4,-314,0,-1040,1111,1036,5,2416,-1,-1,-1,-1,3,369603718,-1220327585,0,65535,65535,135,35854,255,0,0,0,0,0,0,10,0,192,0,3,3
RC_CHANNELS_RAW,173531,0,172,992,1155,1337,172,172,172,1811,255,173511148,-3270,12940,21255,438,69,-5069,-78,4,-314,0,-1040,1111,1036,5,2416,-1,-1,-1,-1,3,369603718,-1220327585,0,65535,65535,135,35854,255,0,0,0,0,0,0,10,0,192,0,3,3
RAW_IMU,173531,0,172,992,1155,1337,172,172,172,1811,255,173531146,17308,5957,21253,-1099,886,-5364,-78,9,-294,0,-976,1111,1036,5,2416,-1,-1,-1,-1,3,369603718,-1220327585,0,65535,65535,135,35854,255,0,0,0,0,0,0,10,0,192,0,3,3
RC_CHANNELS_SCALED,173531,1,172,992,1155,1337,172,172,172,1811,255,173531146,17308,5957,21253,-1099,886,-5364,-78,9,-294,0,-976,1290,1162,-31,2373,-1,-1,-1,-1,3,369603718,-1220327585,0,65535,65535,135,35854,255,0,0,0,0,0,0,10,0,192,0,3,3
RC_CHANNELS_RAW,173551,0,172,992,1156,1336,172,172,172,1811,255,173531146,17308,5957,21253,-1099,886,-5364,-78,9,-294,0,-976,1290,1162,-31,2373,-1,-1,-1,-1,3,369603718,-1220327585,0,65535,65535,135,35854,255,0,0,0,0,0,0,10,0,192,0,3,3
RAW_IMU,173551,0,172,992,1156,1336,172,172,172,1811,255,173551147,-8959,-2983,23148,-738,3191,-4685,-65,9,-296,0,-960,1290,1162,-31,2373,-1,-1,-1,-1,3,369603718,-1220327585,0,65535,65535,135,35854,255,0,0,0,0,0,0,10,0,192,0,3,3
RC_CHANNELS_SCALED,173551,1,172,992,1156,1336,172,172,172,1811,255,173551147,-8959,-2983,23148,-738,3191,-4685,-65,9,-296,0,-960,1283,1078,40,2422,-1,-1,-1,-1,3,369603718,-1220327585,0,65535,65535,135,35854,255,0,0,0,0,0,0,10,0,192,0,3,3
GPS_RAW_INT,173551,1,172,992,1156,1336,172,172,172,1811,255,173567007,-8959,-2983,23148,-738,3191,-4685,-65,9,-296,0,-960,1283,1078,40,2422,-1,-1,-1,-1,3,369603730,-1220327580,0,65535,65535,145,35967,255,0,0,0,0,0,0,10,0,192,0,3,3
RC_CHANNELS_RAW,173571,0,172,992,1156,1335,172,172,172,1811,255,173567007,-8959,-2983,23148,-738,3191,-4685,-65,9,-296,0,-960,1283,1078,40,2422,-1,-1,-1,-1,3,369603730,-1220327580,0,65535,65535,145,35967,255,0,0,0,0,0,0,10,0,192,0,3,3
RAW_IMU,173571,0,172,992,1156,1335,172,172,172,1811,255,173571146,6493,9520,13788,1965,2899,-5434,-52,0,-316,0,-992,1283,1078,40,2422,-1,-1,-1,-1,3,369603730,-1220327580,0,65535,65535,145,35967,255,0,0,0,0,0,0,10,0,192,0,3,3
RC_CHANNELS_SCALED,173571,1,172,992,1156,1335,172,172,172,1811,255,173571146,6493,9520,13788,1965,2899,-5434,-52,0,-316,0,-992,1115,1003,7,2409,-1,-1,-1,-1,3,369603730,-1220327580,0,65535,65535,145,35967,255,0,0,0,0,0,0,10,0,192,0,3,3
RC_CHANNELS_RAW,173591,0,172,992,1158,1336,172,172,172,1811,255,173571146,6493,9520,13788,1965,2899,-5434,-52,0,-316,0,-992,1115,1003,7,2409,-1,-1,-1,-1,3,369603730,-1220327580,0,65535,65535,145,35967,255,0,0,0,0,0,0,10,0,192,0,3,3
RAW_IMU,173591,0,172,992,1158,1336,172,172,172,1811,255,173591145,-11199,-5613,21745,150,1684,-5265,-48,-8,-339,0,-976,1115,1003,7,2409,-1,-1,-1,-1,3,369603730,-1220327580,0,65535,65535,145,35967,255,0,0,0,0,0,0,10,0,192,0,3,3
RC_CHANNELS_SCALED,173591,1,172,992,1158,1336,172,172,172,1811,255,173591145,-11199,-5613,21745,150,1684,-5265,-48,-8,-339,0,-976,1234,1075,-8,2392,-1,-1,-1,-1,3,369603730,-1220327580,0,65535,65535,145,35967,255,0,0,0,0,0,0,10,0,192,0,3,3
RC_CHANNELS_RAW,173611,0,172,992,1159,1336,172,172,172,1811,255,173591145,-11199,-5613,21745,150,1684,-5265,-48,-8,-339,0,-976,1234,1075,-8,2392,-1,-1,-1,-1,3,369603730,-1220327580,0,65535,65535,145,35967,255,0,0,0,0,0,0,10,0,192,0,3,3
RAW_IMU,173611,0,172,992,1159,1336,172,172,172,1811,255,173611142,1549,2025,7298,941,1310,-5439,-50,-13,-352,0,-816,1234,1075,-8,2392,-1,-1,-1,-1,3,369603730,-1220327580,0,65535,65535,145,35967,255,0,0,0,0,0,0,10,0,192,0,3,3
RC_CHANNELS_SCALED,173611,1,172,992,1159,1336,172,172,172,1811,255,173611142,1549,2025,7298,941,1310,-5439,-50,-13,-352,0,-816,1419,1253,0,2388,-1,-1,-1,-1,3,369603730,-1220327580,0,65535,65535,145,35967,255,0,0,0,0,0,0,10,0,192,0,3,3
RC_CHANNELS_RAW,173631,0,172,992,1160,1335,172,172,172,1811,255,173611142,1549,2025,7298,941,1310,-5439,-50,-13,-352,0,-816,1419,1253,0,2388,-1,-1,-1,-1,3,369603730,-1220327580,0,65535,65535,145,35967,255,0,0,0,0,0,0,10,0,192,0,3,3
RAW_IMU,173631,0,172,992,1160,1335,172,172,172,1811,255,173631147,-12420,3399,17823,3198,2673,-6278,-60,-21,-336,0,-928,1419,1253,0,2388,-1,-1,-1,-1,3,369603730,-1220327580,0,65535,65535,145,35967,255,0,0,0,0,0,0,10,0,192,0,3,3
RC_CHANNELS_SCALED,173631,1,172,992,1160,1335,172,172,172,1811,255,173631147,-12420,3399,17823,3198,2673,-6278,-60,-21,-336,0,-928,1195,1179,-4,2381,-1,-1,-1,-1,3,369603730,-1220327580,0,65535,65535,145,35967,255,0,0,0,0,0,0,10,0,192,0,3,3
RC_CHANNELS_RAW,173651,0,172,992,1161,1335,172,172,172,1811,255,173631147,-12420,3399,17823,3198,2673,-6278,-60,-21,-336,0,-928,1195,1179,-4,2381,-1,-1,-1,-1,3,369603730,-1220327580,0,65535,65535,145,35967,255,0,0,0,0,0,0,10,0,192,0,3,3
RAW_IMU,173651,0,172,992,1161,1335,172,172,172,1811,255,173651145,-16763,32767,32767,-7892,-6083,-2593,-69,-25,-315,0,-928,1195,1179,-4,2381,-1,-1,-1,-1,3,369603730,-1220327580,0,65535,65535,145,35967,255,0,0,0,0,0,0,10,0,192,0,3,3
RC_CHANNELS_SCALED,173651,1,172,992,1161,1335,172,172,172,1811,255,173651145,-16763,32767,32767,-7892,-6083,-2593,-69,-25,-315,0,-928,1144,1066,27,2396,-1,-1,-1,-1,3,369603730,-1220327580,0,65535,65535,145,35967,255,0,0,0,0,0,0,10,0,192,0,3,3
GPS_RAW_INT,173651,1,172,992,1161,1335,172,172,172,1811,255,173668008,-16763,32767,32767,-7892,-6083,-2593,-69,-25,-315,0,-928,1144,1066,27,2396,-1,-1,-1,-1,3,369603743,-1220327576,0,65535,65535,147,144,255,0,0,0,0,0,0,10,0,192,0,3,3
RC_CHANNELS_RAW,173671,0,172,992,1162,1333,172,172,172,1811,255,173668008,-16763,32767,32767,-7892,-6083,-2593,-69,-25,-315,0,-928,1144,1066,27,2396,-1,-1,-1,-1,3,369603743,-1220327576,0,65535,65535,147,144,255,0,0,0,0,0,0,10,0,192,0,3,3
RAW_IMU,173671,0,172,992,1162,1333,172,172,172,1811,255,173671155,84,19192,1918,-386,-303,-5652,-73,-14,-311,0,-928,1144,1066,27,2396,-1,-1,-1,-1,3,369603743,-1220327576,0,65535,65535,147,144,255,0,0,0,0,0,0,10,0,192,0,3,3
RC_CHANNELS_SCALED,173671,1,172,992,1162,1333,172,172,172,1811,255,173671155,84,19192,1918,-386,-303,-5652,-73,-14,-311,0,-928,1387,1241,34,2454,-1,-1,-1,-1,3,369603743,-1220327576,0,65535,65535,147,144,255,0,0,0,0,0,0,10,0,192,0,3,3
RC_CHANNELS_RAW,173691,0,172,992,1163,1335,172,172,172,1811,255,173671155,84,19192,1918,-386,-303,-5652,-73,-14,-311,0,-928,1387,1241,34,2454,-1,-1,-1,-1,3,369603743,-1220327576,0,65535,65535,147,144,255,0,0,0,0,0,0,10,0,192,0,3,3
RAW_IMU,173691,0,172,992,1163,1335,172,172,172,1811,255,173691143,240,-3962,1296,949,467,-5659,-46,-19,-301,0,-976,1387,1241,34,2454,-1,-1,-1,-1,3,369603743,-1220327576,0,65535,65535,147,144,255,0,0,0,0,0,0,10,0,192,0,3,3
RC_CHANNELS_SCALED,173691,1,172,992,1163,1335,172,172,172,1811,255,173691143,240,-3962,1296,949,467,-5659,-46,-19,-301,0,-976,1206,1302,-5,2443,-1,-1,-1,-1,3,369603743,-1220327576,0,65535,65535,147,144,255,0,0,0,0,0,0,10,0,192,0,3,3
RC_CHANNELS_RAW,173711,0,172,992,1163,1335,172,172,172,1811,255,173691143,240,-3962,1296,949,467,-5659,-46,-19,-301,0,-976,1206,1302,-5,2443,-1,-1,-1,-1,3,369603743,-1220327576,0,65535,65535,147,144,255,0,0,0,0,0,0,10,0,192,0,3,3
RAW_IMU,173711,0,172,992,1163,1335,172,172,172,1811,255,173711141,16431,32767,32767,-3424,-525,-5449,-49,-19,-340,0,-992,1206,1302,-5,2443,-1,-1,-1,-1,3,369603743,-1220327576,0,65535,65535,147,144,255,0,0,0,0,0,0,10,0,192,0,3,3
RC_CHANNELS_SCALED,173711,1,172,992,1163,1335,172,172,172,1811,255,173711141,16431,32767,32767,-3424,-525,-5449,-49,-19,-340,0,-992,1122,997,-6,2401,-1,-1,-1,-1,3,369603743,-1220327576,0,65535,65535,147,144,255,0,0,0,0,0,0,10,0,192,0,3,3
RC_CHANNELS_RAW,173731,0,172,992,1164,1336,172,172,172,1811,255,173711141,16431,32767,32767,-3424,-525,-5449,-49,-19,-340,0,-992,1122,997,-6,2401,-1,-1,-1,-1,3,369603743,-1220327576,0,65535,65535,147,144,255,0,0,0,0,0,0,10,0,192,0,3,3
RAW_IMU,173731,0,172,992,1164,1336,172,172,172,1811,255,173731145,10836,-3942,13072,1870,-938,-5832,-53,-19,-340,0,-976,1122,997,-6,2401,-1,-1,-1,-1,3,369603743,-1220327576,0,65535,65535,147,144,255,0,0,0,0,0,0,10,0,192,0,3,3
RC_CHANNELS_SCALED,173731,1,172,992,1164,1336,172,172,172,1811,255,173731145,10836,-3942,13072,1870,-938,-5832,-53,-19,-340,0,-976,1361,1183,14,2414,-1,-1,-1,-1,3,369603743,-1220327576,0,65535,65535,147,144,255,0,0,0,0,0,0,10,0,192,0,3,3
RC_CHANNELS_RAW,173751,0,172,992,1165,1336,172,172,172,1811,255,173731145,10836,-3942,13072,1870,-938,-5832,-53,-19,-340,0,-976,1361,1183,14,2414,-1,-1,-1,-1,3,369603743,-1220327576,0,65535,65535,147,144,255,0,0,0,0,0,0,10,0,192,0,3,3
RAW_IMU,173751,0,172,992,1165,1336,172,172,172,1811,255,173751145,1707,4801,519,1070,1141,-5945,-60,-31,-348,0,-912,1361,1183,14,2414,-1,-1,-1,-1,3,369603743,-1220327576,0,65535,65535,147,144,255,0,0,0,0,0,0,10,0,192,0,3,3
RC_CHANNELS_SCALED,173751,1,172,992,1165,1336,172,172,172,1811,255,173751145,1707,4801,519,1070,1141,-5945,-60,-31,-348,0,-912,1364,1334,0,2414,-1,-1,-1,-1,3,369603743,-1220327576,0,65535,65535,147,144,255,0,0,0,0,0,0,10,0,192,0,3,3
GPS_RAW_INT,173751,1,172,992,1165,1336,172,172,172,1811,255,173769007,1707,4801,519,1070,1141,-5945,-60,-31,-348,0,-912,1364,1334,0,2414,-1,-1,-1,-1,3,369603753,-1220327573,0,65535,65535,133,551,255,0,0,0,0,0,0,10,0,192,0,3,3
RC_CHANNELS_RAW,173771,0,172,992,1165,1336,172,172,172,1811,255,173769007,1707,4801,519,1070,1141,-5945,-60,-31,-348,0,-912,1364,1334,0,2414,-1,-1,-1,-1,3,369603753,-1220327573,0,65535,65535,133,551,255,0,0,0,0,0,0,10,0,192,0,3,3
RAW_IMU,173771,0,172,992,1165,1336,172,172,172,1811,255,173771152,-7611,20361,32767,2056,-2805,-4890,-70,-41,-326,0,-928,1364,1334,0,2414,-1,-1,-1,-1,3,369603753,-1220327573,0,65535,65535,133,551,255,0,0,0,0,0,0,10,0,192,0,3,3
RC_CHANNELS_SCALED,173771,1,172,992,1165,1336,172,172,172,1811,255,173771152,-7611,20361,32767,2056,-2805,-4890,-70,-41,-326,0,-928,1133,1222,-10,2387,-1,-1,-1,-1,3,369603753,-1220327573,0,65535,65535,133,551,255,0,0,0,0,0,0,10,0,192,0,3,3
RC_CHANNELS_RAW,173791,0,172,992,1166,1335,172,172,172,1811,255,173771152,-7611,20361,32767,2056,-2805,-4890,-70,-41,-326,0,-928,1133,1222,-10,2387,-1,-1,-1,-1,3,369603753,-1220327573,0,65535,65535,133,551,255,0,0,0,0,0,0,10,0,192,0,3,3
RAW_IMU,173791,0,172,992,1166,1335,172,172,172,1811,255,173791146,-4266,5192,5552,294,1053,-6087,-84,-39,-295,0,-960,1133,1222,-10,2387,-1,-1,-1,-1,3,369603753,-1220327573,0,65535,65535,133,551,255,0,0,0,0,0,0,10,0,192,0,3,3
RC_CHANNELS_SCALED,173791,1,172,992,1166,1335,172,172,172,1811,255,173791146,-4266,5192,5552,294,1053,-6087,-84,-39,-295,0,-960,1332,1174,1,2384,-1,-1,-1,-1,3,369603753,-1220327573,0,65535,65535,133,551,255,0,0,0,0,0,0,10,0,192,0,3,3
RC_CHANNELS_RAW,173811,0,172,992,1168,1333,172,172,172,1811,255,173791146,-4266,5192,5552,294,1053,-6087,-84,-39,-295,0,-960,1332,1174,1,2384,-1,-1,-1,-1,3,369603753,-1220327573,0,65535,65535,133,551,255,0,0,0,0,0,0,10,0,192,0,3,3
RAW_IMU,173811,0,172,992,1168,1333,172,172,172,1811,255,173811143,-11541,-13282,24565,-2332,774,-5966,-58,-47,-302,0,-976,1332,1174,1,2384,-1,-1,-1,-1,3,369603753,-1220327573,0,65535,65535,133,551,255,0,0,0,0,0,0,10,0,192,0,3,3
RC_CHANNELS_SCALED,173811,1,172,992,1168,1333,172,172,172,1811,255,173811143,-11541,-13282,24565,-2332,774,-5966,-58,-47,-302,0,-976,1364,1171,12,2409,-1,-1,-1,-1,3,369603753,-1220327573,0,65535,65535,133,551,255,0,0,0,0,0,0,10,0,192,0,3,3
RC_CHANNELS_RAW,173831,0,172,992,1169,1332,172,172,172,1811,255,173811143,-11541,-13282,24565,-2332,774,-5966,-58,-47,-302,0,-976,1364,1171,12,2409,-1,-1,-1,-1,3,369603753,-1220327573,0,65535,65535,133,551,255,0,0,0,0,0,0,10,0,192,0,3,3
RAW_IMU,173831,0,172,992,1169,1332,172,172,172,1811,255,173831140,7652,840,12490,558,208,-5506,-58,-47,-302,0,-1104,1364,1171,12,2409,-1,-1,-1,-1,3,369603753,-1220327573,0,65535,65535,133,551,255,0,0,0,0,0,0,10,0,192,0,3,3
RC_CHANNELS_SCALED,173831,1,172,992,1169,1332,172,172,172,1811,255,173831140,7652,840,12490,558,208,-5506,-58,-47,-302,0,-1104,1166,1174,4,2412,-1,-1,-1,-1,3,369603753,-1220327573,0,65535,65535,133,551,255,0,0,0,0,0,0,10,0,192,0,3,3
RC_CHANNELS_RAW,173851,0,172,992,1169,1331,172,172,172,1811,255,173831140,7652,840,12490,558,208,-5506,-58,-47,-302,0,-1104,1166,1174,4,2412,-1,-1,-1,-1,3,369603753,-1220327573,0,65535,65535,133,551,255,0,0,0,0,0,0,10,0,192,0,3,3
RAW_IMU,173851,0,172,992,1169,1331,172,172,172,1811,255,173851143,-7838,13351,20379,740,-1342,-5700,-37,-66,-327,0,-960,1166,1174,4,2412,-1,-1,-1,-1,3,369603753,-1220327573,0,65535,65535,133,551,255,0,0,0,0,0,0,10,0,192,0,3,3
RC_CHANNELS_SCALED,173851,1,172,992,1169,1331,172,172,172,1811,255,173851143,-7838,13351,20379,740,-1342,-5700,-37,-66,-327,0,-960,1328,1058,-5,2394,-1,-1,-1,-1,3,369603753,-1220327573,0,65535,65535,133,551,255,0,0,0,0,0,0,10,0,192,0,3,3
GPS_RAW_INT,173851,1,172,992,1169,1331,172,172,172,1811,255,173870007,-7838,13351,20379,740,-1342,-5700,-37,-66,-327,0,-960,1328,1058,-5,2394,-1,-1,-1,-1,3,369603768,-1220327575,0,65535,65535,138,981,255,0,0,0,0,0,0,10,0,192,0,3,3
RC_CHANNELS_RAW,173871,0,172,992,1169,1331,172,172,172,1811,255,173870007,-7838,13351,20379,740,-1342,-5700,-37,-66,-327,0,-960,1328,1058,-5,2394,-1,-1,-1,-1,3,369603768,-1220327575,0,65535,65535,138,981,255,0,0,0,0,0,0,10,0,192,0,3,3
RAW_IMU,173871,0,172,992,1169,1331,172,172,172,1811,255,173871146,1996,4954,13937,463,23,-5647,-52,-67,-333,0,-976,1328,1058,-5,2394,-1,-1,-1,-1,3,369603768,-1220327575,0,65535,65535,138,981,255,0,0,0,0,0,0,10,0,192,0,3,3
RC_CHANNELS_SCALED,173871,1,172,992,1169,1331,172,172,172,1811,255,173871146,1996,4954,13937,463,23,-5647,-52,-67,-333,0,-976,1478,1193,1,2389,-1,-1,-1,-1,3,369603768,-1220327575,0,65535,65535,138,981,255,0,0,0,0,0,0,10,0,192,0,3,3
RC_CHANNELS_RAW,173891,0,172,992,1170,1331,172,172,172,1811,255,173871146,1996,4954,13937,463,23,-5647,-52,-67,-333,0,-976,1478,1193,1,2389,-1,-1,-1,-1,3,369603768,-1220327575,0,65535,65535,138,981,255,0,0,0,0,0,0,10,0,192,0,3,3
RAW_IMU,173891,0,172,992,1170,1331,172,172,172,1811,255,173891150,-4673,1554,15283,-551,117,-5651,-67,-72,-331,0,-1024,1478,1193,1,2389,-1,-1,-1,-1,3,369603768,-1220327575,0,65535,65535,138,981,255,0,0,0,0,0,0,10,0,192,0,3,3
RC_CHANNELS_SCALED,173891,1,172,992,1170,1331,172,172,172,1811,255,173891150,-4673,1554,15283,-551,117,-5651,-67,-72,-331,0,-1024,1226,1326,0,2391,-1,-1,-1,-1,3,369603768,-1220327575,0,65535,65535,138,981,255,0,0,0,0,0,0,10,0,192,0,3,3
RC_CHANNELS_RAW,173911,0,172,992,1170,1331,172,172,172,1811,255,173891150,-4673,1554,15283,-551,117,-5651,-67,-72,-331,0,-1024,1226,1326,0,2391,-1,-1,-1,-1,3,369603768,-1220327575,0,65535,65535,138,981,255,0,0,0,0,0,0,10,0,192,0,3,3
RAW_IMU,173911,0,172,992,1170,1331,172,172,172,1811,255,173911145,7587,18106,18284,-298,-214,-5383,-70,-77,-304,0,-912,1226,1326,0,2391,-1,-1,-1,-1,3,369603768,-1220327575,0,65535,65535,138,981,255,0,0,0,0,0,0,10,0,192,0,3,3
RC_CHANNELS_SCALED,173911,1,172,992,1170,1331,172,172,172,1811,255,173911145,7587,18106,18284,-298,-214,-5383,-70,-77,-304,0,-912,1314,1262,3,2392,-1,-1,-1,-1,3,369603768,-1220327575,0,65535,65535,138,981,255,0,0,0,0,0,0,10,0,192,0,3,3
RC_CHANNELS_RAW,173931,0,172,992,1170,1329,172,172,172,1811,255,173911145,7587,18106,18284,-298,-214,-5383,-70,-77,-304,0,-912,1314,1262,3,2392,-1,-1,-1,-1,3,369603768,-1220327575,0,65535,65535,138,981,255,0,0,0,0,0,0,10,0,192,0,3,3
RAW_IMU,173931,0,172,992,1170,1329,172,172,172,1811,255,173931143,1795,1076,15230,-269,-62,-5561,-63,-83,-315,0,-928,1314,1262,3,2392,-1,-1,-1,-1,3,369603768,-1220327575,0,65535,65535,138,981,255,0,0,0,0,0,0,10,0,192,0,3,3
RC_CHANNELS_SCALED,173931,1,172,992,1170,1329,172,172,172,1811,255,173931143,1795,1076,15230,-269,-62,-5561,-63,-83,-315,0,-928,1470,1124,-1,2403,-1,-1,-1,-1,3,369603768,-1220327575,0,65535,65535,138,981,255,0,0,0,0,0,0,10,0,192,0,3,3
RC_CHANNELS_RAW,173951,0,172,992,1170,1326,172,172,172,1811,255,173931143,1795,1076,15230,-269,-62,-5561,-63,-83,-315,0,-928,1470,1124,-1,2403,-1,-1,-1,-1,3,369603768,-1220327575,0,65535,65535,138,981,255,0,0,0,0,0,0,10,0,192,0,3,3
RAW_IMU,173951,0,172,992,1170,1326,172,172,172,1811,255,173951143,2071,11412,19445,-152,299,-5437,-45,-78,-305,0,-992,1470,1124,-1,2403,-1,-1,-1,-1,3,369603768,-1220327575,0,65535,65535,138,981,255,0,0,0,0,0,0,10,0,192,0,3,3
RC_CHANNELS_SCALED,173951,1,172,992,1170,1326,172,172,172,1811,255,173951143,2071,11412,19445,-152,299,-5437,-45,-78,-305,0,-992,1234,1257,-1,2403,-1,-1,-1,-1,3,369603768,-1220327575,0,65535,65535,138,981,255,0,0,0,0,0,0,10,0,192,0,3,3
RC_CHANNELS_RAW,173971,0,172,992,1170,1312,172,172,172,1811,255,173951143,2071,11412,19445,-152,299,-5437,-45,-78,-305,0,-992,1234,1257,-1,2403,-1,-1,-1,-1,3,369603768,-1220327575,0,65535,65535,138,981,255,0,0,0,0,0,0,10,0,192,0,3,3
RAW_IMU,173971,0,172,992,1170,1312,172,172,172,1811,255,173971148,-1450,6493,19707,52,1031,-5897,-41,-89,-321,0,-976,1234,1257,-1,2403,-1,-1,-1,-1,3,369603768,-1220327575,0,65535,65535,138,981,255,0,0,0,0,0,0,10,0,192,0,3,3
RC_CHANNELS_SCALED,173971,1,172,992,1170,1312,172,172,172,1811,255,173971148,-1450,6493,19707,52,1031,-5897,-41,-89,-321,0,-976,1332,1232,4,2410,-1,-1,-1,-1,3,369603768,-1220327575,0,65535,65535,138,981,255,0,0,0,0,0,0,10,0,192,0,3,3
GPS_RAW_INT,173971,1,172,992,1170,1312,172,172,172,1811,255,173971438,-1450,6493,19707,52,1031,-5897,-41,-89,-321,0,-976,1332,1232,4,2410,-1,-1,-1,-1,3,369603788,-1220327555,0,65535,65535,137,1782,255,0,0,0,0,0,0,10,0,192,0,3,3
RC_CHANNELS_RAW,173991,0,172,992,1170,1309,172,172,172,1811,255,173971438,-1450,6493,19707,52,1031,-5897,-41,-89,-321,0,-976,1332,1232,4,2410,-1,-1,-1,-1,3,369603788,-1220327555,0,65535,65535,137,1782,255,0,0,0,0,0,0,10,0,192,0,3,3
RAW_IMU,173991,0,172,992,1170,1309,172,172,172,1811,255,173991142,1835,-3147,10468,-257,658,-5815,-35,-90,-334,0,-912,1332,1232,4,2410,-1,-1,-1,-1,3,369603788,-1220327555,0,65535,65535,137,1782,255,0,0,0,0,0,0,10,0,192,0,3,3
RC_CHANNELS_SCALED,173991,1,172,992,1170,1309,172,172,172,1811,255,173991142,1835,-3147,10468,-257,658,-5815,-35,-90,-334,0,-912,1517,1109,5,2411,-1,-1,-1,-1,3,369603788,-1220327555,0,65535,65535,137,1782,255,0,0,0,0,0,0,10,0,192,0,3,3
HEARTBEAT,173991,1,172,992,1170,1309,172,172,172,1811,255,173991142,1835,-3147,10468,-257,658,-5815,-35,-90,-334,0,-912,1517,1109,5,2411,-1,-1,-1,-1,3,369603788,-1220327555,0,65535,65535,137,1782,255,0,0,0,0,0,0,10,0,192,0,3,3
RC_CHANNELS_RAW,174011,0,172,992,1170,1309,172,172,172,1811,255,173991142,1835,-3147,10468,-257,658,-5815,-35,-90,-334,0,-912,1517,1109,5,2411,-1,-1,-1,-1,3,369603788,-1220327555,0,65535,65535,137,1782,255,0,0,0,0,0,0,10,0,192,0,3,3
RAW_IMU,174011,0,172,992,1170,1309,172,172,172,1811,255,174011146,-7202,5601,28167,2159,-1152,-5192,-40,-95,-342,0,-976,1517,1109,5,2411,-1,-1,-1,-1,3,369603788,-1220327555,0,65535,65535,137,1782,255,0,0,0,0,0,0,10,0,192,0,3,3
RC_CHANNELS_SCALED,174011,1,172,992,1170,1309,172,172,172,1811,255,174011146,-7202,5601,28167,2159,-1152,-5192,-40,-95,-342,0,-976,1244,1208,-3,2410,-1,-1,-1,-1,3,369603788,-1220327555,0,65535,65535,137,1782,255,0,0,0,0,0,0,10,0,192,0,3,3
RC_CHANNELS_RAW,174031,0,172,992,1170,1307,172,172,172,1811,255,174011146,-7202,5601,28167,2159,-1152,-5192,-40,-95,-342,0,-976,1244,1208,-3,2410,-1,-1,-1,-1,3,369603788,-1220327555,0,65535,65535,137,1782,255,0,0,0,0,0,0,10,0,192,0,3,3
RAW_IMU,174031,0,172,992,1170,1307,172,172,172,1811,255,174031144,1846,30765,16023,555,-1901,-5504,-46,-108,-326,0,-976,1244,1208,-3,2410,-1,-1,-1,-1,3,369603788,-1220327555,0,65535,65535,137,1782,255,0,0,0,0,0,0,10,0,192,0,3,3
RC_CHANNELS_SCALED,174031,1,172,992,1170,1307,172,172,172,1811,255,174031144,1846,30765,16023,555,-1901,-5504,-46,-108,-326,0,-976,1297,1405,-2,2396,-1,-1,-1,-1,3,369603788,-1220327555,0,65535,65535,137,1782,255,0,0,0,0,0,0,10,0,192,0,3,3
RC_CHANNELS_RAW,174051,0,172,992,1170,1306,172,172,172,1811,255,174031144,1846,30765,16023,555,-1901,-5504,-46,-108,-326,0,-976,1297,1405,-2,2396,-1,-1,-1,-1,3,369603788,-1220327555,0,65535,65535,137,1782,255,0,0,0,0,0,0,10,0,192,0,3,3
RAW_IMU,174051,0,172,992,1170,1306,172,172,172,1811,255,174051146,1650,13173,19052,-650,211,-5547,-45,-110,-302,0,-1024,1297,1405,-2,2396,-1,-1,-1,-1,3,369603788,-1220327555,0,65535,65535,137,1782,255,0,0,0,0,0,0,10,0,192,0,3,3
RC_CHANNELS_SCALED,174051,1,172,992,1170,1306,172,172,172,1811,255,174051146,1650,13173,19052,-650,211,-5547,-45,-110,-302,0,-1024,1489,1229,2,2397,-1,-1,-1,-1,3,369603788,-1220327555,0,65535,65535,137,1782,255,0,0,0,0,0,0,10,0,192,0,3,3
RC_CHANNELS_RAW,174071,0,172,992,1170,1303,172,172,172,1811,255,174051146,1650,13173,19052,-650,211,-5547,-45,-110,-302,0,-1024,1489,1229,2,2397,-1,-1,-1,-1,3,369603788,-1220327555,0,65535,65535,137,1782,255,0,0,0,0,0,0,10,0,192,0,3,3
RAW_IMU,174071,0,172,992,1170,1303,172,172,172,1811,255,174071149,2152,-5777,17864,-72,512,-5803,-36,-101,-301,0,-928,1489,1229,2,2397,-1,-1,-1,-1,3,369603788,-1220327555,0,65535,65535,137,1782,255,0,0,0,0,0,0,10,0,192,0,3,3
RC_CHANNELS_SCALED,174071,1,172,992,1170,1303,172,172,172,1811,255,174071149,2152,-5777,17864,-72,512,-5803,-36,-101,-301,0,-928,1230,1127,-4,2399,-1,-1,-1,-1,3,369603788,-1220327555,0,65535,65535,137,1782,255,0,0,0,0,0,0,10,0,192,0,3,3
GPS_RAW_INT,174071,1,172,992,1170,1303,172,172,172,1811,255,174072008,2152,-5777,17864,-72,512,-5803,-36,-101,-301,0,-928,1230,1127,-4,2399,-1,-1,-1,-1,3,369603796,-1220327545,0,65535,65535,139,2365,255,0,0,0,0,0,0,10,0,192,0,3,3
RC_CHANNELS_RAW,174091,0,172,992,1170,1301,172,172,172,1811,255,174072008,2152,-5777,17864,-72,512,-5803,-36,-101,-301,0,-928,1230,1127,-4,2399,-1,-1,-1,-1,3,369603796,-1220327545,0,65535,65535,139,2365,255,0,0,0,0,0,0,10,0,192,0,3,3
RAW_IMU,174091,0,172,992,1170,1301,172,172,172,1811,255,174091143,4817,2193,13552,1346,-1057,-5985,-23,-111,-314,0,-976,1230,1127,-4,2399,-1,-1,-1,-1,3,369603796,-1220327545,0,65535,65535,139,2365,255,0,0,0,0,0,0,10,0,192,0,3,3
RC_CHANNELS_SCALED,174091,1,172,992,1170,1301,172,172,172,1811,255,174091143,4817,2193,13552,1346,-1057,-5985,-23,-111,-314,0,-976,1314,1266,-4,2387,-1,-1,-1,-1,3,369603796,-1220327545,0,65535,65535,139,2365,255,0,0,0,0,0,0,10,0,192,0,3,3
RC_CHANNELS_RAW,174111,0,172,989,1170,1297,172,172,172,1811,255,174091143,4817,2193,13552,1346,-1057,-5985,-23,-111,-314,0,-976,1314,1266,-4,2387,-1,-1,-1,-1,3,369603796,-1220327545,0,65535,65535,139,2365,255,0,0,0,0,0,0,10,0,192,0,3,3
RAW_IMU,174111,0,172,989,1170,1297,172,172,172,1811,255,174111141,3834,-11428,14103,793,606,-5702,-22,-115,-327,0,-976,1314,1266,-4,2387,-1,-1,-1,-1,3,369603796,-1220327545,0,65535,65535,139,2365,255,0,0,0,0,0,0,10,0,192,0,3,3
RC_CHANNELS_SCALED,174111,1,172,989,1170,1297,172,172,172,1811,255,174111141,3834,-11428,14103,793,606,-5702,-22,-115,-327,0,-976,1537,1141,-14,2366,-1,-1,-1,-1,3,369603796,-1220327545,0,65535,65535,139,2365,255,0,0,0,0,0,0,10,0,192,0,3,3
RC_CHANNELS_RAW,174131,0,172,989,1170,1297,172,172,172,1811,255,174111141,3834,-11428,14103,793,606,-5702,-22,-115,-327,0,-976,1537,1141,-14,2366,-1,-1,-1,-1,3,369603796,-1220327545,0,65535,65535,139,2365,255,0,0,0,0,0,0,10,0,192,0,3,3
RAW_IMU,174131,0,172,989,1170,1297,172,172,172,1811,255,174131146,-1563,10642,20888,1148,-668,-4998,-31,-125,-333,0,-992,1537,1141,-14,2366,-1,-1,-1,-1,3,369603796,-1220327545,0,65535,65535,139,2365,255,0,0,0,0,0,0,10,0,192,0,3,3
RC_CHANNELS_SCALED,174131,1,172,989,1170,1297,172,172,172,1811,255,174131146,-1563,10642,20888,1148,-668,-4998,-31,-125,-333,0,-992,1266,1130,-10,2344,-1,-1,-1,-1,3,369603796,-1220327545,0,65535,65535,139,2365,255,0,0,0,0,0,0,10,0,192,0,3,3
RC_CHANNELS_RAW,174151,0,172,989,1171,1293,172,172,172,1811,255,174131146,-1563,10642,20888,1148,-668,-4998,-31,-125,-333,0,-992,1266,1130,-10,2344,-1,-1,-1,-1,3,369603796,-1220327545,0,65535,65535,139,2365,255,0,0,0,0,0,0,10,0,192,0,3,3
RAW_IMU,174151,0,172,989,1171,1293,172,172,172,1811,255,174151143,5217,27430,22600,-564,-179,-5124,-11,-127,-327,0,-976,1266,1130,-10,2344,-1,-1,-1,-1,3,369603796,-1220327545,0,65535,65535,139,2365,255,0,0,0,0,0,0,10,0,192,0,3,3
RC_CHANNELS_SCALED,174151,1,172,989,1171,1293,172,172,172,1811,255,174151143,5217,27430,22600,-564,-179,-5124,-11,-127,-327,0,-976,1295,1325,-7,2324,-1,-1,-1,-1,3,369603796,-1220327545,0,65535,65535,139,2365,255,0,0,0,0,0,0,10,0,192,0,3,3
RC_CHANNELS_RAW,174171,0,172,989,1170,1292,172,172,172,1811,255,174151143,5217,27430,22600,-564,-179,-5124,-11,-127,-327,0,-976,1295,1325,-7,2324,-1,-1,-1,-1,3,369603796,-1220327545,0,65535,65535,139,2365,255,0,0,0,0,0,0,10,0,192,0,3,3
RAW_IMU,174171,0,172,989,1170,1292,172,172,172,1811,255,174171150,-2228,-6266,11297,-1385,59,-5251,-20,-133,-326,0,-960,1295,1325,-7,2324,-1,-1,-1,-1,3,369603796,-1220327545,0,65535,65535,139,2365,255,0,0,0,0,0,0,10,0,192,0,3,3
RC_CHANNELS_SCALED,174171,1,172,989,1170,1292,172,172,172,1811,255,174171150,-2228,-6266,11297,-1385,59,-5251,-20,-133,-326,0,-960,1492,1339,-3,2323,-1,-1,-1,-1,3,369603796,-1220327545,0,65535,65535,139,2365,255,0,0,0,0,0,0,10,0,192,0,3,3
GPS_RAW_INT,174171,1,172,989,1170,1292,172,172,172,1811,255,174173009,-2228,-6266,11297,-1385,59,-5251,-20,-133,-326,0,-960,1492,1339,-3,2323,-1,-1,-1,-1,3,369603803,-1220327528,0,65535,65535,137,3030,255,0,0,0,0,0,0,10,0,192,0,3,3
RC_CHANNELS_RAW,174191,0,172,989,1170,1275,172,172,172,1811,255,174173009,-2228,-6266,11297,-1385,59,-5251,-20,-133,-326,0,-960,1492,1339,-3,2323,-1,-1,-1,-1,3,369603803,-1220327528,0,65535,65535,137,3030,255,0,0,0,0,0,0,10,0,192,0,3,3
RAW_IMU,174191,0,172,989,1170,1275,172,172,172,1811,255,174191143,795,-1486,16801,-525,-471,-5545,-9,-136,-317,0,-976,1492,1339,-3,2323,-1,-1,-1,-1,3,369603803,-1220327528,0,65535,65535,137,3030,255,0,0,0,0,0,0,10,0,192,0,3,3
RC_CHANNELS_SCALED,174191,1,172,989,1170,1275,172,172,172,1811,255,174191143,795,-1486,16801,-525,-471,-5545,-9,-136,-317,0,-976,1248,1153,0,2320,-1,-1,-1,-1,3,369603803,-1220327528,0,65535,65535,137,3030,255,0,0,0,0,0,0,10,0,192,0,3,3
RC_CHANNELS_RAW,174211,0,172,989,1170,1239,172,172,172,1811,255,174191143,795,-1486,16801,-525,-471,-5545,-9,-136,-317,0,-976,1248,1153,0,2320,-1,-1,-1,-1,3,369603803,-1220327528,0,65535,65535,137,3030,255,0,0,0,0,0,0,10,0,192,0,3,3
RAW_IMU,174211,0,172,989,1170,1239,172,172,172,1811,255,174211141,3561,10491,20500,-495,1361,-5811,-9,-136,-317,0,-992,1248,1153,0,2320,-1,-1,-1,-1,3,369603803,-1220327528,0,65535,65535,137,3030,255,0,0,0,0,0,0,10,0,192,0,3,3
RC_CHANNELS_SCALED,174211,1,172,989,1170,1239,172,172,172,1811,255,174211141,3561,10491,20500,-495,1361,-5811,-9,-136,-317,0,-992,1317,1219,-2,2317,-1,-1,-1,-1,3,369603803,-1220327528,0,65535,65535,137,3030,255,0,0,0,0,0,0,10,0,192,0,3,3
RC_CHANNELS_RAW,174231,0,172,989,1170,1219,172,172,172,1811,255,174211141,3561,10491,20500,-495,1361,-5811,-9,-136,-317,0,-992,1317,1219,-2,2317,-1,-1,-1,-1,3,369603803,-1220327528,0,65535,65535,137,3030,255,0,0,0,0,0,0,10,0,192,0,3,3
RAW_IMU,174231,0,172,989,1170,1219,172,172,172,1811,255,174231143,-9976,1003,13948,-594,723,-5282,5,-147,-323,0,-912,1317,1219,-2,2317,-1,-1,-1,-1,3,369603803,-1220327528,0,65535,65535,137,3030,255,0,0,0,0,0,0,10,0,192,0,3,3
RC_CHANNELS_SCALED,174231,1,172,989,1170,1219,172,172,172,1811,255,174231143,-9976,1003,13948,-594,723,-5282,5,-147,-323,0,-912,1511,1295,0,2321,-1,-1,-1,-1,3,369603803,-1220327528,0,65535,65535,137,3030,255,0,0,0,0,0,0,10,0,192,0,3,3
RC_CHANNELS_RAW,174251,0,172,989,1170,1189,172,172,172,1811,255,174231143,-9976,1003,13948,-594,723,-5282,5,-147,-323,0,-912,1511,1295,0,2321,-1,-1,-1,-1,3,369603803,-1220327528,0,65535,65535,137,3030,255,0,0,0,0,0,0,10,0,192,0,3,3
RAW_IMU,174251,0,172,989,1170,1189,172,172,172,1811,255,174251142,6273,4938,20685,1101,1769,-5736,-3,-139,-320,0,-960,1511,1295,0,2321,-1,-1,-1,-1,3,369603803,-1220327528,0,65535,65535,137,3030,255,0,0,0,0,0,0,10,0,192,0,3,3
RC_CHANNELS_SCALED,174251,1,172,989,1170,1189,172,172,172,1811,255,174251142,6273,4938,20685,1101,1769,-5736,-3,-139,-320,0,-960,1296,1151,-7,2303,-1,-1,-1,-1,3,369603803,-1220327528,0,65535,65535,137,3030,255,0,0,0,0,0,0,10,0,192,0,3,3
RC_CHANNELS_RAW,174271,0,172,989,1170,1188,172,172,172,1811,255,174251142,6273,4938,20685,1101,1769,-5736,-3,-139,-320,0,-960,1296,1151,-7,2303,-1,-1,-1,-1,3,369603803,-1220327528,0,65535,65535,137,3030,255,0,0,0,0,0,0,10,0,192,0,3,3
RAW_IMU,174271,0,172,989,1170,1188,172,172,172,1811,255,174271150,12334,13584,20381,412,226,-5375,26,-159,-318,0,-960,1296,1151,-7,2303,-1,-1,-1,-1,3,369603803,-1220327528,0,65535,65535,137,3030,255,0,0,0,0,0,0,10,0,192,0,3,3
RC_CHANNELS_SCALED,174271,1,172,989,1170,1188,172,172,172,1811,255,174271150,12334,13584,20381,412,226,-5375,26,-159,-318,0,-960,1289,1234,-2,2294,-1,-1,-1,-1,3,369603803,-1220327528,0,65535,65535,137,3030,255,0,0,0,0,0,0,10,0,192,0,3,3
GPS_RAW_INT,174271,1,172,989,1170,1188,172,172,172,1811,255,174274009,12334,13584,20381,412,226,-5375,26,-159,-318,0,-960,1289,1234,-2,2294,-1,-1,-1,-1,3,369603810,-1220327516,0,65535,65535,126,3634,255,0,0,0,0,0,0,10,0,192,0,3,3
RC_CHANNELS_RAW,174291,0,172,989,1170,1155,172,172,172,1811,255,174274009,12334,13584,20381,412,226,-5375,26,-159,-318,0,-960,1289,1234,-2,2294,-1,-1,-1,-1,3,369603810,-1220327516,0,65535,65535,126,3634,255,0,0,0,0,0,0,10,0,192,0,3,3
RAW_IMU,174291,0,172,989,1170,1155,172,172,172,1811,255,174291145,7300,-996,9223,-2152,1100,-5066,19,-148,-315,0,-1040,1289,1234,-2,2294,-1,-1,-1,-1,3,369603810,-1220327516,0,65535,65535,126,3634,255,0,0,0,0,0,0,10,0,192,0,3,3
RC_CHANNELS_SCALED,174291,1,172,989,1170,1155,172,172,172,1811,255,174291145,7300,-996,9223,-2152,1100,-5066,19,-148,-315,0,-1040,1506,1407,1,2292,-1,-1,-1,-1,3,369603810,-1220327516,0,65535,65535,126,3634,255,0,0,0,0,0,0,10,0,192,0,3,3
RC_CHANNELS_RAW,174311,0,172,989,1170,1123,172,172,172,1811,255,174291145,7300,-996,9223,-2152,1100,-5066,19,-148,-315,0,-1040,1506,1407,1,2292,-1,-1,-1,-1,3,369603810,-1220327516,0,65535,65535,126,3634,255,0,0,0,0,0,0,10,0,192,0,3,3
RAW_IMU,174311,0,172,989,1170,1123,172,172,172,1811,255,174311142,-2447,-1998,23140,-42,117,-4782,28,-147,-318,0,-1024,1506,1407,1,2292,-1,-1,-1,-1,3,369603810,-1220327516,0,65535,65535,126,3634,255,0,0,0,0,0,0,10,0,192,0,3,3
RC_CHANNELS_SCALED,174311,1,172,989,1170,1123,172,172,172,1811,255,174311142,-2447,-1998,23140,-42,117,-4782,28,-147,-318,0,-1024,1248,1273,-31,2273,-1,-1,-1,-1,3,369603810,-1220327516,0,65535,65535,126,3634,255,0,0,0,0,0,0,10,0,192,0,3,3
RC_CHANNELS_RAW,174331,0,172,989,1170,1095,172,172,172,1811,255,174311142,-2447,-1998,23140,-42,117,-4782,28,-147,-318,0,-1024,1248,1273,-31,2273,-1,-1,-1,-1,3,369603810,-1220327516,0,65535,65535,126,3634,255,0,0,0,0,0,0,10,0,192,0,3,3
RAW_IMU,174331,0,172,989,1170,1095,172,172,172,1811,255,174331144,6256,1153,13783,-270,57,-5479,18,-152,-323,0,-976,1248,1273,-31,2273,-1,-1,-1,-1,3,369603810,-1220327516,0,65535,65535,126,3634,255,0,0,0,0,0,0,10,0,192,0,3,3
RC_CHANNELS_SCALED,174331,1,172,989,1170,1095,172,172,172,1811,255,174331144,6256,1153,13783,-270,57,-5479,18,-152,-323,0,-976,1287,1158,-14,2236,-1,-1,-1,-1,3,369603810,-1220327516,0,65535,65535,126,3634,255,0,0,0,0,0,0,10,0,192,0,3,3
RC_CHANNELS_RAW,174351,0,172,989,1170,1064,172,172,172,1811,255,174331144,6256,1153,13783,-270,57,-5479,18,-152,-323,0,-976,1287,1158,-14,2236,-1,-1,-1,-1,3,369603810,-1220327516,0,65535,65535,126,3634,255,0,0,0,0,0,0,10,0,192,0,3,3
RAW_IMU,174351,0,172,989,1170,1064,172,172,172,1811,255,174351142,1056,-15,22990,-709,57,-4893,32,-161,-317,0,-992,1287,1158,-14,2236,-1,-1,-1,-1,3,369603810,-1220327516,0,65535,65535,126,3634,255,0,0,0,0,0,0,10,0,192,0,3,3
RC_CHANNELS_SCALED,174351,1,172,989,1170,1064,172,172,172,1811,255,174351142,1056,-15,22990,-709,57,-4893,32,-161,-317,0,-992,1537,1263,-8,2218,-1,-1,-1,-1,3,369603810,-1220327516,0,65535,65535,126,3634,255,0,0,0,0,0,0,10,0,192,0,3,3
RC_CHANNELS_RAW,174371,0,172,989,1171,1064,172,172,172,1811,255,174351142,1056,-15,22990,-709,57,-4893,32,-161,-317,0,-992,1537,1263,-8,2218,-1,-1,-1,-1,3,369603810,-1220327516,0,65535,65535,126,3634,255,0,0,0,0,0,0,10,0,192,0,3,3
RAW_IMU,174371,0,172,989,1171,1064,172,172,172,1811,255,174371143,-712,-12876,13710,541,616,-5220,26,-164,-326,0,-1024,1537,1263,-8,2218,-1,-1,-1,-1,3,369603810,-1220327516,0,65535,65535,126,3634,255,0,0,0,0,0,0,10,0,192,0,3,3
RC_CHANNELS_SCALED,174371,1,172,989,1171,1064,172,172,172,1811,255,174371143,-712,-12876,13710,541,616,-5220,26,-164,-326,0,-1024,1292,1214,0,2213,-1,-1,-1,-1,3,369603810,-1220327516,0,65535,65535,126,3634,255,0,0,0,0,0,0,10,0,192,0,3,3
GPS_RAW_INT,174371,1,172,989,1171,1064,172,172,172,1811,255,174375009,-712,-12876,13710,541,616,-5220,26,-164,-326,0,-1024,1292,1214,0,2213,-1,-1,-1,-1,3,369603810,-1220327498,0,65535,65535,100,4374,255,0,0,0,0,0,0,10,0,192,0,3,3
RC_CHANNELS_RAW,174391,0,172,989,1170,1064,172,172,172,1811,255,174375009,-712,-12876,13710,541,616,-5220,26,-164,-326,0,-1024,1292,1214,0,2213,-1,-1,-1,-1,3,369603810,-1220327498,0,65535,65535,100,4374,255,0,0,0,0,0,0,10,0,192,0,3,3
RAW_IMU,174391,0,172,989,1170,1064,172,172,172,1811,255,174391145,3702,24849,24163,-91,-215,-4662,45,-156,-317,0,-976,1292,1214,0,2213,-1,-1,-1,-1,3,369603810,-1220327498,0,65535,65535,100,4374,255,0,0,0,0,0,0,10,0,192,0,3,3
RC_CHANNELS_SCALED,174391,1,172,989,1170,1064,172,172,172,1811,255,174391145,3702,24849,24163,-91,-215,-4662,45,-156,-317,0,-976,1270,1118,-15,2186,-1,-1,-1,-1,3,369603810,-1220327498,0,65535,65535,100,4374,255,0,0,0,0,0,0,10,0,192,0,3,3
RC_CHANNELS_RAW,174411,0,172,989,1170,1067,172,172,172,1811,255,174391145,3702,24849,24163,-91,-215,-4662,45,-156,-317,0,-976,1270,1118,-15,2186,-1,-1,-1,-1,3,369603810,-1220327498,0,65535,65535,100,4374,255,0,0,0,0,0,0,10,0,192,0,3,3
RAW_IMU,174411,0,172,989,1170,1067,172,172,172,1811,255,174411143,6118,-20874,8053,-1732,178,-4106,49,-150,-326,0,-976,1270,1118,-15,2186,-1,-1,-1,-1,3,369603810,-1220327498,0,65535,65535,100,4374,255,0,0,0,0,0,0,10,0,192,0,3,3
RC_CHANNELS_SCALED,174411,1,172,989,1170,1067,172,172,172,1811,255,174411143,6118,-20874,8053,-1732,178,-4106,49,-150,-326,0,-976,1495,1310,-16,2153,-1,-1,-1,-1,3,369603810,-1220327498,0,65535,65535,100,4374,255,0,0,0,0,0,0,10,0,192,0,3,3
RC_CHANNELS_RAW,174431,0,172,989,1170,1068,172,172,172,1811,255,174411143,6118,-20874,8053,-1732,178,-4106,49,-150,-326,0,-976,1495,1310,-16,2153,-1,-1,-1,-1,3,369603810,-1220327498,0,65535,65535,100,4374,255,0,0,0,0,0,0,10,0,192,0,3,3
RAW_IMU,174431,0,172,989,1170,1068,172,172,172,1811,255,174431144,-1354,6760,16044,-2366,808,-3242,57,-157,-331,0,-912,1495,1310,-16,2153,-1,-1,-1,-1,3,369603810,-1220327498,0,65535,65535,100,4374,255,0,0,0,0,0,0,10,0,192,0,3,3
RC_CHANNELS_SCALED,174431,1,172,989,1170,1068,172,172,172,1811,255,174431144,-1354,6760,16044,-2366,808,-3242,57,-157,-331,0,-912,1261,1383,-19,2115,-1,-1,-1,-1,3,369603810,-1220327498,0,65535,65535,100,4374,255,0,0,0,0,0,0,10,0,192,0,3,3
RC_CHANNELS_RAW,174451,0,172,989,1170,1069,172,172,172,1811,255,174431144,-1354,6760,16044,-2366,808,-3242,57,-157,-331,0,-912,1261,1383,-19,2115,-1,-1,-1,-1,3,369603810,-1220327498,0,65535,65535,100,4374,255,0,0,0,0,0,0,10,0,192,0,3,3
RAW_IMU,174451,0,172,989,1170,1069,172,172,172,1811,255,174451142,-9814,-1345,18127,356,76,-4049,56,-158,-339,0,-992,1261,1383,-19,2115,-1,-1,-1,-1,3,369603810,-1220327498,0,65535,65535,100,4374,255,0,0,0,0,0,0,10,0,192,0,3,3
RC_CHANNELS_SCALED,174451,1,172,989,1170,1069,172,172,172,1811,255,174451142,-9814,-1345,18127,356,76,-4049,56,-158,-339,0,-992,1261,1194,-22,2067,-1,-1,-1,-1,3,369603810,-1220327498,0,65535,65535,100,4374,255,0,0,0,0,0,0,10,0,192,0,3,3
RC_CHANNELS_RAW,174471,0,172,989,1169,1069,172,172,172,1811,255,174451142,-9814,-1345,18127,356,76,-4049,56,-158,-339,0,-992,1261,1194,-22,2067,-1,-1,-1,-1,3,369603810,-1220327498,0,65535,65535,100,4374,255,0,0,0,0,0,0,10,0,192,0,3,3
RAW_IMU,174471,0,172,989,1169,1069,172,172,172,1811,255,174471144,4757,-19018,18483,-89,610,-3088,56,-158,-339,0,-1088,1261,1194,-22,2067,-1,-1,-1,-1,3,369603810,-1220327498,0,65535,65535,100,4374,255,0,0,0,0,0,0,10,0,192,0,3,3
RC_CHANNELS_SCALED,174471,1,172,989,1169,1069,172,172,172,1811,255,174471144,4757,-19018,18483,-89,610,-3088,56,-158,-339,0,-1088,1522,1189,-21,2025,-1,-1,-1,-1,3,369603810,-1220327498,0,65535,65535,100,4374,255,0,0,0,0,0,0,10,0,192,0,3,3
GPS_RAW_INT,174471,1,172,989,1169,1069,172,172,172,1811,255,174476006,4757,-19018,18483,-89,610,-3088,56,-158,-339,0,-1088,1522,1189,-21,2025,-1,-1,-1,-1,3,369603810,-1220327498,0,65535,65535,100,4374,255,0,0,0,0,0,0,10,0,192,0,3,3
RC_CHANNELS_RAW,174491,0,172,989,1168,1069,172,172,172,1811,255,174476006,4757,-19018,18483,-89,610,-3088,56,-158,-339,0,-1088,1522,1189,-21,2025,-1,-1,-1,-1,3,369603810,-1220327498,0,65535,65535,100,4374,255,0,0,0,0,0,0,10,0,192,0,3,3
RAW_IMU,174491,0,172,989,1168,1069,172,172,172,1811,255,174491143,-3785,5705,17045,1854,219,-2996,53,-153,-307,0,-992,1522,1189,-21,2025,-1,-1,-1,-1,3,369603810,-1220327498,0,65535,65535,100,4374,255,0,0,0,0,0,0,10,0,192,0,3,3
RC_CHANNELS_SCALED,174491,1,172,989,1168,1069,172,172,172,1811,255,174491143,-3785,5705,17045,1854,219,-2996,53,-153,-307,0,-992,1303,1300,-20,1980,-1,-1,-1,-1,3,369603810,-1220327498,0,65535,65535,100,4374,255,0,0,0,0,0,0,10,0,192,0,3,3
RC_CHANNELS_RAW,174511,0,172,989,1168,1067,172,172,172,1811,255,174491143,-3785,5705,17045,1854,219,-2996,53,-153,-307,0,-992,1303,1300,-20,1980,-1,-1,-1,-1,3,369603810,-1220327498,0,65535,65535,100,4374,255,0,0,0,0,0,0,10,0,192,0,3,3
RAW_IMU,174511,0,172,989,1168,1067,172,172,172,1811,255,174511144,-1071,12094,14374,1146,-1264,-2057,54,-155,-318,0,-1024,1303,1300,-20,1980,-1,-1,-1,-1,3,369603810,-1220327498,0,65535,65535,100,4374,255,0,0,0,0,0,0,10,0,192,0,3,3
RC_CHANNELS_SCALED,174511,1,172,989,1168,1067,172,172,172,1811,255,174511144,-1071,12094,14374,1146,-1264,-2057,54,-155,-318,0,-1024,1222,1153,-28,1913,-1,-1,-1,-1,3,369603810,-1220327498,0,65535,65535,100,4374,255,0,0,0,0,0,0,10,0,192,0,3,3
RC_CHANNELS_RAW,174531,0,172,989,1166,1037,172,172,172,1811,255,174511144,-1071,12094,14374,1146,-1264,-2057,54,-155,-318,0,-1024,1222,1153,-28,1913,-1,-1,-1,-1,3,369603810,-1220327498,0,65535,65535,100,4374,255,0,0,0,0,0,0,10,0,192,0,3,3
RAW_IMU,174531,0,172,989,1166,1037,172,172,172,1811,255,174531146,3530,4814,13816,-430,-672,-1997,62,-147,-336,0,-912,1222,1153,-28,1913,-1,-1,-1,-1,3,369603810,-1220327498,0,65535,65535,100,4374,255,0,0,0,0,0,0,10,0,192,0,3,3
