mavpackettype,time_usec,xacc,yacc,zacc,xgyro,ygyro,zgyro,xmag,ymag,zmag,id,temperature
RAW_IMU,2533041211,-194,387,16628,-78,47,34,187,-101,382,0,3792
RAW_IMU,2533062211,-134,188,16585,-65,43,33,189,-93,374,0,3776
RAW_IMU,2533083210,-183,381,16561,-86,48,28,190,-94,385,0,3648
RAW_IMU,2533104211,-249,307,16624,-70,57,32,181,-93,376,0,3712
RAW_IMU,2533125208,-65,333,16628,-64,47,35,195,-92,372,0,3776
RAW_IMU,2533146209,-204,330,16640,-74,39,25,194,-90,383,0,3760
RAW_IMU,2533167209,-241,296,16673,-61,45,19,186,-88,386,0,3664
RAW_IMU,2533188208,-208,369,16602,-60,53,35,190,-96,385,0,3696
RAW_IMU,2533209209,-125,350,16595,-74,48,22,183,-102,381,0,3760
RAW_IMU,2533230209,-220,330,16651,-63,43,18,191,-93,381,0,3760
RAW_IMU,2533251210,-156,344,16601,-86,37,24,181,-95,383,0,3760
RAW_IMU,2533272210,-212,309,16588,-61,44,15,190,-94,390,0,3776
RAW_IMU,2533293210,-144,368,16632,-69,45,39,182,-96,387,0,3776
RAW_IMU,2533314210,-193,274,16651,-77,47,23,187,-101,387,0,3728
RAW_IMU,2533335210,-143,313,16636,-68,54,46,186,-100,391,0,3776
RAW_IMU,2533356210,-243,316,16647,-64,55,16,191,-102,383,0,3728
RAW_IMU,2533377210,-152,325,16587,-58,53,36,193,-92,385,0,3696
RAW_IMU,2533398209,-135,319,16622,-70,44,22,185,-96,377,0,3776
RAW_IMU,2533419209,-189,278,16666,-71,53,37,182,-99,380,0,3760
RAW_IMU,2533440210,-212,261,16669,-87,59,26,182,-87,375,0,3728
RAW_IMU,2533461210,-192,348,16599,-79,46,36,191,-93,383,0,3648
RAW_IMU,2533482211,-187,371,16626,-82,31,25,202,-88,393,0,3664
RAW_IMU,2533503209,-116,342,16502,-73,56,24,191,-93,396,0,3728
RAW_IMU,2533524209,-109,298,16584,-84,49,37,182,-92,390,0,3664
RAW_IMU,2533545209,-216,281,16539,-75,48,20,183,-95,379,0,3728
RAW_IMU,2533566210,-186,281,16648,-69,40,25,187,-94,382,0,3792
RAW_IMU,2533587212,-202,342,16598,-51,44,29,191,-93,383,0,3728
RAW_IMU,2533608211,-151,314,16569,-72,48,18,194,-102,396,0,3728
RAW_IMU,2533629211,-234,318,16643,-72,61,16,189,-88,383,0,3776
RAW_IMU,2533650211,-120,307,16608,-60,45,35,182,-94,382,0,3728
RAW_IMU,2533671208,-229,256,16538,-66,55,35,195,-94,380,0,3776
RAW_IMU,2533692214,-85,324,16562,-82,64,25,190,-92,380,0,3696
RAW_IMU,2533713212,-165,283,16535,-69,47,20,186,-93,383,0,3792
RAW_IMU,2533734209,-139,227,16595,-72,47,25,187,-89,399,0,3728
RAW_IMU,2533755209,-154,355,16592,-58,45,19,195,-94,383,0,3824
RAW_IMU,2533776210,-156,240,16607,-64,47,19,180,-87,387,0,3728
RAW_IMU,2533797208,-165,296,16630,-65,40,28,182,-94,387,0,3664
RAW_IMU,2533818209,-145,290,16600,-66,48,19,194,-88,386,0,3760
RAW_IMU,2533839209,-154,312,16605,-77,49,29,185,-94,377,0,3696
RAW_IMU,2533860210,-210,285,16623,-93,28,30,182,-96,372,0,3728
RAW_IMU,2533881210,-189,250,16622,-58,53,30,187,-92,392,0,3760
RAW_IMU,2533902210,-163,289,16604,-61,57,30,182,-92,377,0,3664
RAW_IMU,2533923210,-107,276,16576,-67,55,28,197,-90,379,0,3824
RAW_IMU,2533944211,-145,261,16631,-75,42,21,195,-96,385,0,3776
RAW_IMU,2533965211,-195,258,16607,-73,56,26,190,-82,385,0,3776
RAW_IMU,2533986211,-230,251,16594,-60,49,28,181,-90,379,0,3664
RAW_IMU,2534007209,-201,373,16546,-71,47,46,183,-102,381,0,3728
RAW_IMU,2534028212,-182,404,16619,-73,49,32,185,-92,375,0,3824
RAW_IMU,2534049209,-228,282,16603,-67,43,27,187,-94,390,0,3776
RAW_IMU,2534070209,-207,294,16625,-56,53,21,183,-90,383,0,3776
RAW_IMU,2534091210,-153,388,16628,-72,46,33,194,-95,383,0,3616
RAW_IMU,2715699210,-202,278,16543,-70,54,23,190,-92,377,0,3728
RAW_IMU,2715720210,-188,386,16605,-74,35,21,194,-90,393,0,3728
RAW_IMU,2715741210,-179,359,16610,-65,54,20,189,-100,386,0,3728
RAW_IMU,2715762210,-184,303,16599,-82,46,27,190,-96,372,0,3824
RAW_IMU,2715783210,-248,302,16569,-61,43,31,190,-96,377,0,3728
RAW_IMU,2715804209,-134,312,16597,-79,38,26,189,-100,388,0,3776
RAW_IMU,2715825209,-179,308,16610,-74,50,27,183,-90,386,0,3728
RAW_IMU,2715846210,-142,327,16600,-70,61,22,183,-88,386,0,3728
RAW_IMU,2715867210,-213,306,16557,-83,44,24,189,-98,379,0,3776
RAW_IMU,2715888211,-236,232,16662,-63,36,27,190,-89,387,0,3728
RAW_IMU,2715909209,-222,353,16586,-64,41,34,194,-93,386,0,3728
RAW_IMU,2715930209,-175,386,16515,-60,38,41,190,-89,382,0,3664
RAW_IMU,2715951209,-144,357,16660,-72,61,34,185,-101,375,0,3664
RAW_IMU,2715972210,-175,255,16640,-68,55,30,186,-83,388,0,3824
RAW_IMU,2715993212,-248,205,16633,-84,36,14,185,-89,382,0,3760
RAW_IMU,2716014208,-194,272,16661,-54,37,20,199,-95,381,0,3792
RAW_IMU,2716035209,-142,331,16614,-62,35,32,190,-84,380,0,3728
RAW_IMU,2716056209,-175,433,16594,-66,62,26,182,-92,380,0,3664
RAW_IMU,2716077210,-170,338,16651,-86,41,35,190,-89,377,0,3824
RAW_IMU,2716098215,-199,273,16590,-70,45,21,187,-99,387,0,3824
RAW_IMU,2716119210,-139,185,16567,-64,39,10,189,-88,381,0,3776
RAW_IMU,2716140210,-137,283,16651,-59,51,33,190,-99,382,0,3728
RAW_IMU,2716161210,-128,366,16602,-77,34,31,189,-85,376,0,3760
RAW_IMU,2716182211,-158,423,16594,-77,48,19,194,-95,386,0,3728
RAW_IMU,2716203210,-159,372,16627,-69,54,37,185,-96,385,0,3776
RAW_IMU,2716224210,-194,136,16627,-76,52,33,185,-96,382,0,3728
RAW_IMU,2716245211,-194,267,16623,-63,42,24,187,-92,382,0,3776
RAW_IMU,2716266211,-187,316,16544,-54,46,20,182,-96,385,0,3696
RAW_IMU,2716287211,-106,428,16634,-68,51,17,194,-93,381,0,3760
RAW_IMU,2716308211,-90,359,16546,-69,46,38,186,-95,391,0,3776
RAW_IMU,2716329211,-165,268,16646,-83,50,35,199,-90,386,0,3792
RAW_IMU,2716350211,-258,200,16601,-56,44,30,191,-88,383,0,3664
RAW_IMU,2716371211,-207,220,16606,-59,45,21,197,-95,381,0,3760
RAW_IMU,2716392211,-162,321,16590,-66,31,24,180,-99,390,0,3760
RAW_IMU,2716413208,-209,420,16647,-79,31,29,182,-92,387,0,3776
RAW_IMU,2716434209,-180,416,16576,-80,47,20,195,-87,382,0,3776
RAW_IMU,2716455209,-173,299,16604,-74,52,27,195,-84,385,0,3696
RAW_IMU,2716476210,-247,254,16628,-57,41,34,189,-90,393,0,3792
RAW_IMU,2716497211,-156,280,16679,-67,24,20,181,-93,376,0,3776
RAW_IMU,2716518210,-212,302,16640,-72,63,36,187,-89,385,0,3776
RAW_IMU,2716539210,-194,336,16563,-67,57,27,194,-93,386,0,3728
RAW_IMU,2716560210,-215,347,16640,-73,57,33,187,-94,372,0,3712
RAW_IMU,2716581210,-250,199,16606,-60,62,24,186,-90,383,0,3776
RAW_IMU,2716602211,-215,228,16575,-66,43,22,185,-96,387,0,3712
RAW_IMU,2716623210,-127,263,16544,-69,48,24,197,-102,393,0,3776
RAW_IMU,2716644211,-203,424,16563,-72,37,16,185,-87,377,0,3728
RAW_IMU,2716665211,-150,435,16580,-69,60,26,202,-90,388,0,3696
RAW_IMU,2716686211,-174,322,16675,-58,52,31,190,-92,377,0,3728
RAW_IMU,2716707211,-214,205,16603,-54,59,33,189,-93,376,0,3776
RAW_IMU,2716728208,-154,302,16590,-69,52,8,190,-99,390,0,3776
RAW_IMU,2716749209,-156,377,16575,-64,66,18,173,-98,376,0,3792
RAW_IMU,2716770209,-176,427,16597,-88,52,39,178,-93,381,0,3664
RAW_IMU,2716791210,-83,340,16583,-74,45,20,185,-101,377,0,3760
RAW_IMU,2716812210,-180,282,16626,-64,49,20,183,-93,381,0,3760
RAW_IMU,2716833211,-164,269,16578,-56,58,26,190,-96,382,0,3776
RAW_IMU,2716854211,-155,287,16656,-66,48,35,189,-102,386,0,3648
RAW_IMU,2716875211,-133,336,16556,-63,46,15,185,-96,387,0,3776
RAW_IMU,2716896211,-95,399,16608,-85,56,17,199,-90,391,0,3776
RAW_IMU,2716917208,-182,332,16657,-75,52,41,189,-95,379,0,3776
RAW_IMU,2716938209,-157,216,16589,-64,54,34,187,-89,390,0,3792
RAW_IMU,2716959209,-142,256,16670,-64,44,31,178,-95,388,0,3728
RAW_IMU,2716980210,-196,355,16591,-76,52,21,190,-92,377,0,3792
RAW_IMU,2717001372,-237,273,16536,-61,37,22,191,-93,379,0,3728
RAW_IMU,2717022216,-217,322,16599,-81,48,22,187,-99,375,0,3728
RAW_IMU,2717043208,-166,366,16612,-71,51,30,189,-93,386,0,3728
RAW_IMU,2717064209,-116,332,16577,-64,56,28,187,-89,382,0,3728
RAW_IMU,2717085209,-146,316,16607,-81,44,15,193,-101,375,0,3728
RAW_IMU,2717106211,-115,285,16599,-68,48,22,189,-100,388,0,3776
RAW_IMU,2717127209,-226,346,16570,-77,48,16,189,-98,376,0,3728
RAW_IMU,2717148209,-90,363,16631,-71,42,17,191,-88,383,0,3824
RAW_IMU,2717169210,-175,375,16571,-72,44,9,194,-90,388,0,3664
RAW_IMU,2717190210,-165,240,16576,-69,45,24,189,-95,381,0,3728
RAW_IMU,2717211208,-178,320,16636,-59,60,32,186,-85,376,0,3760
RAW_IMU,2717232209,-164,329,16519,-62,56,21,181,-95,388,0,3760
RAW_IMU,2717253209,-191,371,16581,-70,57,20,200,-96,381,0,3728
RAW_IMU,2717274210,-230,289,16622,-60,50,31,195,-96,382,0,3728
RAW_IMU,2717295210,-176,297,16600,-78,48,20,190,-94,385,0,3728
RAW_IMU,2717316209,-185,313,16586,-71,55,40,194,-100,379,0,3792
RAW_IMU,2717337209,-168,307,16630,-91,47,20,198,-92,380,0,3824
RAW_IMU,2717358209,-226,327,16616,-47,47,39,194,-93,381,0,3664
RAW_IMU,2717379209,-188,320,16553,-70,48,36,181,-95,379,0,3696
RAW_IMU,2717400210,-223,272,16611,-59,47,33,195,-99,387,0,3776
RAW_IMU,2717421208,-229,364,16581,-60,47,16,189,-93,381,0,3792
RAW_IMU,2717442209,-207,311,16587,-72,40,41,198,-89,377,0,3776
RAW_IMU,2717463209,-248,278,16645,-82,42,26,181,-90,386,0,3664
RAW_IMU,2717484210,-272,326,16566,-66,60,21,183,-85,383,0,3776
RAW_IMU,2717505210,-203,362,16527,-66,47,18,185,-87,387,0,3792
RAW_IMU,2717526209,-178,254,16559,-73,53,23,186,-95,386,0,3776
RAW_IMU,2717547209,-234,241,16566,-73,46,28,181,-88,396,0,3728
RAW_IMU,2717568209,-161,252,16622,-81,38,44,191,-93,376,0,3776
RAW_IMU,2717589209,-169,324,16668,-62,42,18,190,-92,390,0,3792
RAW_IMU,2717610209,-201,419,16631,-73,45,27,185,-92,377,0,3728
RAW_IMU,2717631209,-201,284,16633,-55,54,42,181,-100,381,0,3792
RAW_IMU,2717652209,-234,239,16618,-74,43,26,194,-95,388,0,3776
RAW_IMU,2717673209,-148,338,16578,-75,46,40,186,-93,379,0,3760
RAW_IMU,2717694209,-214,281,16645,-53,59,24,189,-93,376,0,3776
RAW_IMU,2717715208,-135,276,16594,-66,53,37,180,-96,394,0,3824
RAW_IMU,2717736209,-165,306,16624,-72,51,21,187,-99,387,0,3776
RAW_IMU,2717757209,-180,287,16616,-72,61,31,189,-95,381,0,3776
RAW_IMU,2717778210,-165,302,16586,-54,44,38,180,-89,380,0,3776
RAW_IMU,2717799210,-105,321,16587,-77,45,30,202,-95,379,0,3824
RAW_IMU,2717820210,-193,326,16538,-72,42,24,186,-95,381,0,3696
RAW_IMU,2717841210,-265,325,16554,-67,44,28,193,-96,385,0,3776
RAW_IMU,2717862210,-196,293,16636,-67,51,29,199,-93,381,0,3824
RAW_IMU,2717883210,-161,315,16652,-62,44,30,173,-93,386,0,3728
RAW_IMU,2717904210,-195,270,16522,-77,56,13,193,-99,375,0,3728
RAW_IMU,2717925209,-236,336,16665,-71,51,28,191,-102,383,0,3776
RAW_IMU,2717946209,-161,384,16596,-78,54,25,195,-94,387,0,3760
RAW_IMU,2717967210,-181,304,16628,-82,46,18,197,-93,386,0,3696
RAW_IMU,2717988210,-246,299,16655,-67,51,35,197,-98,393,0,3776
RAW_IMU,2718009209,-204,277,16622,-75,46,36,197,-98,386,0,3728
RAW_IMU,2718030210,-176,261,16584,-64,52,28,185,-101,387,0,3792
RAW_IMU,2718051210,-123,284,16629,-69,57,35,198,-92,377,0,3776
RAW_IMU,2718072211,-187,250,16548,-64,45,10,181,-98,383,0,3728
RAW_IMU,2718093211,-159,406,16593,-72,38,26,185,-101,380,0,3776
RAW_IMU,2718114213,-208,350,16607,-81,55,31,199,-98,383,0,3776
RAW_IMU,2718135212,-219,326,16643,-80,52,1,189,-98,381,0,3840
RAW_IMU,2718156209,-231,311,16626,-48,52,25,185,-92,387,0,3728
RAW_IMU,2718177209,-125,322,16623,-60,46,4,191,-93,366,0,3648
RAW_IMU,2718198210,-227,388,16570,-72,56,33,187,-99,375,0,3728
RAW_IMU,2718219215,-155,318,16584,-79,44,18,189,-85,376,0,3712
RAW_IMU,2718240210,-211,339,16645,-59,52,28,189,-93,376,0,3712
RAW_IMU,2718261210,-231,308,16626,-62,38,18,178,-93,381,0,3760
RAW_IMU,2718282210,-189,312,16574,-64,45,26,183,-93,391,0,3760
RAW_IMU,2718303211,-198,271,16654,-66,46,39,195,-101,394,0,3760
RAW_IMU,2718324210,-208,308,16607,-69,44,26,182,-99,377,0,3728
RAW_IMU,2718345210,-176,280,16653,-62,62,19,190,-92,377,0,3760
RAW_IMU,2718366211,-165,295,16594,-67,40,21,190,-96,387,0,3776
RAW_IMU,2718387211,-154,313,16538,-83,53,29,187,-99,382,0,3728
RAW_IMU,2718408211,-209,303,16673,-62,42,28,189,-93,381,0,3728
RAW_IMU,2718429211,-261,279,16629,-68,59,23,195,-92,385,0,3776
RAW_IMU,2718450211,-129,304,16629,-71,41,40,187,-96,385,0,3824
RAW_IMU,2718471211,-180,302,16536,-74,52,28,185,-94,390,0,3776
RAW_IMU,2718492211,-150,309,16633,-68,56,29,183,-95,388,0,3776
RAW_IMU,2718513211,-202,400,16527,-79,36,33,181,-95,376,0,3776
RAW_IMU,2718534208,-171,205,16637,-62,43,20,187,-99,382,0,3792
RAW_IMU,2718555209,-212,376,16594,-70,47,17,185,-94,385,0,3776
RAW_IMU,2718576209,-226,235,16634,-81,37,33,180,-92,385,0,3728
RAW_IMU,2718597210,-206,382,16564,-63,51,22,190,-89,382,0,3760
RAW_IMU,2718618211,-188,306,16525,-61,60,5,193,-89,382,0,3776
RAW_IMU,2718639210,-186,304,16605,-63,49,35,180,-92,380,0,3728
RAW_IMU,2718660210,-165,290,16633,-75,42,20,182,-99,390,0,3776
RAW_IMU,2718681210,-213,245,16620,-64,55,23,193,-92,390,0,3648
RAW_IMU,2718702210,-222,291,16621,-82,37,34,180,-99,380,0,3776
RAW_IMU,2718723211,-236,318,16533,-77,44,22,191,-112,383,0,3728
RAW_IMU,2718744210,-183,350,16559,-70,50,22,190,-101,375,0,3776
RAW_IMU,2718765211,-106,357,16566,-73,50,21,178,-83,376,0,3728
RAW_IMU,2718786211,-183,353,16572,-65,60,23,190,-99,390,0,3696
RAW_IMU,2718807211,-180,318,16577,-76,56,17,193,-87,377,0,3696
RAW_IMU,2718828211,-151,292,16598,-62,49,17,191,-90,383,0,3728
RAW_IMU,2718849208,-169,262,16557,-64,63,28,181,-98,386,0,3760
RAW_IMU,2718870209,-144,370,16545,-72,53,22,183,-90,388,0,3792
RAW_IMU,2718891209,-135,374,16572,-72,61,33,190,-96,394,0,3696
RAW_IMU,2718912210,-131,255,16565,-67,46,31,193,-99,390,0,3728
RAW_IMU,2718933210,-198,306,16565,-77,51,35,187,-101,390,0,3776
RAW_IMU,2718954211,-120,305,16518,-64,46,38,195,-96,392,0,3712
RAW_IMU,2718975211,-200,333,16592,-67,45,22,191,-107,386,0,3776
RAW_IMU,2718996211,-222,292,16540,-62,50,23,190,-84,377,0,3712
RAW_IMU,2719017209,-201,348,16629,-71,50,45,202,-93,386,0,3728
RAW_IMU,2719038212,-164,274,16608,-77,53,20,191,-93,388,0,3792
RAW_IMU,2719059209,-266,259,16607,-67,42,36,189,-90,381,0,3776
RAW_IMU,2719080209,-186,308,16555,-68,56,20,199,-102,379,0,3712
RAW_IMU,2719101210,-171,364,16611,-76,46,19,185,-92,382,0,3728
RAW_IMU,2719122375,-110,235,16585,-70,56,35,186,-98,388,0,3792
RAW_IMU,2719143209,-221,346,16589,-85,36,31,189,-100,374,0,3728
RAW_IMU,2719164209,-139,384,16616,-81,44,13,183,-100,376,0,3728
RAW_IMU,2719185210,-152,266,16612,-64,35,36,187,-99,377,0,3712
RAW_IMU,2719206210,-180,291,16621,-59,45,21,194,-93,383,0,3776
RAW_IMU,2719227208,-157,309,16587,-60,50,27,190,-84,377,0,3776
RAW_IMU,2719248209,-168,260,16584,-60,54,38,186,-98,379,0,3792
RAW_IMU,2719269209,-152,328,16673,-78,39,31,191,-98,388,0,3776
RAW_IMU,2719290210,-141,292,16536,-81,44,26,194,-100,379,0,3728
RAW_IMU,2719311210,-125,258,16578,-59,44,21,182,-92,385,0,3824
RAW_IMU,2719332208,-188,270,16631,-75,51,21,191,-90,393,0,3792
RAW_IMU,2719353209,-169,359,16655,-64,55,40,186,-93,379,0,3776
RAW_IMU,2719374209,-211,298,16591,-77,56,26,193,-106,387,0,3824
RAW_IMU,2719395209,-116,268,16587,-73,55,34,190,-99,387,0,3776
RAW_IMU,2719416210,-156,336,16602,-82,42,38,178,-95,386,0,3840
RAW_IMU,2719437208,-178,311,16559,-70,55,38,200,-96,380,0,3792
RAW_IMU,2719458209,-118,335,16587,-68,49,38,194,-88,380,0,3824
RAW_IMU,2719479209,-182,303,16570,-62,54,10,182,-94,382,0,3840
RAW_IMU,2719500209,-220,328,16647,-66,54,12,186,-98,391,0,3696
RAW_IMU,2719521210,-150,216,16601,-71,46,36,197,-100,393,0,3872
RAW_IMU,2719542208,-153,302,16629,-73,52,14,195,-96,375,0,3728
RAW_IMU,2719563209,-228,307,16611,-68,43,27,191,-83,381,0,3776
RAW_IMU,2719584209,-185,324,16588,-78,50,26,198,-89,377,0,3792
RAW_IMU,2719605210,-171,276,16581,-76,44,34,198,-94,385,0,3760
RAW_IMU,2719626210,-159,284,16607,-63,52,41,182,-96,385,0,3776
RAW_IMU,2719647209,-204,317,16575,-67,50,29,182,-92,385,0,3776
RAW_IMU,2719668209,-171,402,16596,-54,42,27,180,-96,377,0,3728
RAW_IMU,2719689209,-123,272,16557,-65,51,22,195,-94,370,0,3712
RAW_IMU,2719710209,-178,259,16624,-68,39,23,185,-96,385,0,3728
RAW_IMU,2719731209,-131,303,16556,-73,54,34,195,-89,387,0,3776
RAW_IMU,2719752209,-151,339,16633,-72,48,22,185,-96,377,0,3824
RAW_IMU,2719773209,-222,310,16552,-65,37,23,191,-88,383,0,3792
RAW_IMU,2719794209,-225,295,16698,-75,40,25,193,-92,382,0,3664
RAW_IMU,2719815209,-172,358,16649,-67,51,27,190,-96,385,0,3776
RAW_IMU,2719836208,-185,270,16612,-69,58,26,195,-92,382,0,3776
RAW_IMU,2719857209,-155,288,16605,-77,52,8,194,-93,381,0,3792
RAW_IMU,2719878209,-191,292,16546,-72,56,31,186,-105,381,0,3728
RAW_IMU,2719899210,-245,313,16650,-75,33,42,191,-90,379,0,3664
RAW_IMU,2719920210,-176,343,16557,-55,48,25,181,-95,381,0,3728
RAW_IMU,2719941210,-98,300,16604,-48,51,20,190,-99,385,0,3792
RAW_IMU,2719962210,-96,272,16644,-65,57,41,190,-101,375,0,3776
RAW_IMU,2719983210,-146,216,16548,-61,45,22,182,-87,385,0,3776
RAW_IMU,2720004210,-140,273,16697,-71,51,28,190,-96,392,0,3712
RAW_IMU,2720025211,-221,361,16665,-79,46,28,195,-101,387,0,3728
RAW_IMU,2720046209,-207,270,16562,-63,50,17,191,-93,376,0,3728
RAW_IMU,2720067209,-213,370,16570,-59,51,38,193,-104,387,0,3824
RAW_IMU,2720088210,-190,269,16601,-65,50,19,183,-105,374,0,3824
RAW_IMU,2720109210,-199,369,16530,-63,42,27,198,-94,387,0,3664
RAW_IMU,2720130211,-225,178,16602,-68,45,26,193,-101,380,0,3728
RAW_IMU,2720151209,-166,271,16593,-66,47,8,194,-85,386,0,3776
RAW_IMU,2720172209,-201,306,16572,-70,48,36,195,-92,382,0,3728
RAW_IMU,2720193209,-200,284,16648,-60,44,24,194,-100,383,0,3696
RAW_IMU,2720214210,-280,323,16573,-63,52,26,190,-89,387,0,3760
RAW_IMU,2720235212,-195,285,16561,-66,42,23,195,-106,377,0,3760
RAW_IMU,2720256211,-173,302,16576,-86,48,17,193,-96,387,0,3776
RAW_IMU,2720277211,-155,300,16599,-71,43,16,191,-93,383,0,3776
RAW_IMU,2720298211,-156,339,16590,-63,51,8,195,-99,387,0,3664
RAW_IMU,2720319208,-189,334,16655,-68,60,22,185,-99,382,0,3776
RAW_IMU,2720340214,-234,285,16614,-43,51,29,183,-88,383,0,3664
RAW_IMU,2720361212,-143,279,16659,-56,51,18,191,-93,379,0,3664
RAW_IMU,2720382209,-185,226,16650,-59,52,25,187,-94,392,0,3776
RAW_IMU,2720403209,-230,315,16591,-77,45,29,200,-99,382,0,3712
RAW_IMU,2720424210,-230,321,16608,-65,54,33,199,-90,383,0,3728
RAW_IMU,2720445208,-162,305,16608,-70,39,29,187,-84,385,0,3760
RAW_IMU,2720466209,-125,278,16581,-77,42,25,185,-94,382,0,3792
RAW_IMU,2720487209,-156,241,16634,-76,40,18,194,-95,379,0,3760
RAW_IMU,2720508210,-170,233,16620,-66,48,20,190,-92,375,0,3664
RAW_IMU,2720529210,-198,266,16537,-65,49,45,181,-95,379,0,3776
RAW_IMU,2720550210,-185,285,16590,-56,52,27,194,-88,386,0,3760
RAW_IMU,2720571210,-207,291,16623,-62,47,27,190,-93,388,0,3728
RAW_IMU,2720592211,-230,367,16602,-63,32,27,189,-83,379,0,3776
RAW_IMU,2720613211,-180,277,16633,-69,48,32,186,-93,376,0,3584
RAW_IMU,2720634211,-153,393,16634,-81,55,34,189,-95,379,0,3760
RAW_IMU,2720655208,-187,295,16581,-65,49,37,181,-93,383,0,3824
RAW_IMU,2720676209,-208,338,16622,-71,42,31,183,-100,386,0,3728
RAW_IMU,2720697209,-214,275,16593,-73,42,13,190,-92,382,0,3760
RAW_IMU,2720718210,-114,320,16675,-82,46,20,186,-100,381,0,3728
RAW_IMU,2720739211,-176,212,16663,-69,50,31,198,-92,387,0,3824
RAW_IMU,2720760210,-216,244,16571,-73,61,17,186,-95,376,0,3776
RAW_IMU,2720781210,-201,237,16590,-86,47,38,180,-101,382,0,3728
RAW_IMU,2720802210,-123,285,16540,-75,52,21,191,-102,379,0,3776
RAW_IMU,2720823210,-184,238,16623,-76,53,15,190,-87,382,0,3792
RAW_IMU,2720844211,-189,272,16610,-67,47,30,200,-92,385,0,3760
RAW_IMU,2720865210,-174,322,16651,-62,48,25,187,-89,385,0,3824
RAW_IMU,2720886211,-185,332,16598,-68,47,22,197,-85,386,0,3728
RAW_IMU,2720907211,-190,279,16646,-76,47,19,190,-92,380,0,3728
RAW_IMU,2720928211,-170,280,16596,-58,53,18,194,-85,388,0,3776
RAW_IMU,2720949211,-181,337,16651,-60,45,30,204,-95,386,0,3728
RAW_IMU,2720970208,-207,306,16678,-67,53,22,187,-92,387,0,3776
RAW_IMU,2720991209,-133,317,16605,-66,44,17,191,-95,391,0,3776
RAW_IMU,2721012211,-146,293,16601,-72,57,32,195,-92,382,0,3760
RAW_IMU,2721033211,-270,293,16615,-56,46,21,189,-98,381,0,3824
RAW_IMU,2721054208,-162,301,16634,-63,28,29,191,-85,379,0,3728
RAW_IMU,2721075209,-108,271,16635,-80,36,19,185,-96,385,0,3776
RAW_IMU,2721096209,-242,312,16574,-62,54,24,195,-94,390,0,3712
RAW_IMU,2721117209,-175,280,16550,-74,59,14,191,-98,383,0,3696
RAW_IMU,2721138210,-199,334,16656,-66,49,18,193,-101,390,0,3776
RAW_IMU,2721159208,-169,386,16621,-69,46,35,189,-93,383,0,3776
RAW_IMU,2721180209,-156,283,16663,-82,44,37,177,-87,390,0,3792
RAW_IMU,2721201209,-165,277,16590,-72,54,22,176,-95,374,0,3776
RAW_IMU,2721222209,-159,357,16566,-78,50,22,186,-100,379,0,3664
RAW_IMU,2721243375,-130,211,16644,-77,46,11,193,-96,377,0,3728
RAW_IMU,2721264209,-199,347,16594,-69,55,46,181,-100,381,0,3824
RAW_IMU,2721285209,-199,307,16613,-69,56,36,182,-92,380,0,3792
RAW_IMU,2721306210,-222,322,16560,-80,53,36,185,-96,382,0,3728
RAW_IMU,2721327210,-145,296,16613,-68,49,33,194,-102,388,0,3776
RAW_IMU,2721348208,-226,298,16638,-68,43,20,194,-95,381,0,3728
RAW_IMU,2721369209,-213,298,16601,-53,56,15,195,-96,382,0,3712
RAW_IMU,2721390209,-183,351,16643,-76,45,18,193,-96,390,0,3776
RAW_IMU,2721411210,-227,248,16620,-63,56,28,183,-102,379,0,3728
RAW_IMU,2721432210,-210,313,16586,-59,45,29,186,-98,381,0,3696
RAW_IMU,2721453208,-155,239,16615,-81,48,26,193,-87,382,0,3776
RAW_IMU,2721474209,-193,355,16617,-72,41,28,199,-95,391,0,3776
RAW_IMU,2721495209,-216,285,16587,-83,46,13,185,-92,377,0,3776
RAW_IMU,2721516209,-229,329,16636,-71,50,32,191,-98,388,0,3760
RAW_IMU,2721537210,-244,297,16657,-61,51,26,190,-89,387,0,3776
RAW_IMU,2721558208,-250,320,16591,-87,43,27,185,-89,392,0,3760
RAW_IMU,2721579209,-153,288,16620,-70,44,20,193,-99,375,0,3776
RAW_IMU,2721600209,-179,313,16532,-56,51,19,190,-94,387,0,3760
RAW_IMU,2721621209,-221,280,16602,-71,58,13,195,-94,385,0,3728
RAW_IMU,2721642210,-234,293,16612,-70,31,23,187,-92,382,0,3776
RAW_IMU,2721663208,-246,287,16588,-71,43,37,191,-93,379,0,3776
RAW_IMU,2721684209,-195,308,16636,-62,45,13,197,-90,379,0,3728
RAW_IMU,2721705209,-168,307,16616,-69,57,24,183,-88,381,0,3776
RAW_IMU,2721726210,-189,344,16616,-68,40,33,193,-96,387,0,3664
RAW_IMU,2721747210,-201,225,16554,-81,62,20,186,-100,381,0,3776
RAW_IMU,2721768209,-177,316,16527,-57,46,14,195,-99,385,0,3840
RAW_IMU,2721789209,-221,309,16592,-74,44,32,194,-93,388,0,3760
RAW_IMU,2721810209,-166,339,16569,-68,49,19,195,-92,380,0,3728
RAW_IMU,2721831209,-173,289,16605,-72,37,21,198,-94,377,0,3824
RAW_IMU,2721852209,-164,316,16551,-75,50,40,187,-101,387,0,3728
RAW_IMU,2721873209,-154,307,16612,-80,40,29,190,-101,382,0,3776
RAW_IMU,2721894209,-157,279,16654,-81,47,34,187,-94,382,0,3776
RAW_IMU,2721915209,-207,339,16627,-62,58,25,186,-93,383,0,3728
RAW_IMU,2721936209,-174,303,16641,-71,49,26,197,-107,388,0,3776
RAW_IMU,2721957208,-190,290,16559,-70,48,26,197,-88,381,0,3776
RAW_IMU,2721978209,-176,280,16619,-72,59,18,180,-96,387,0,3712
RAW_IMU,2721999209,-171,258,16597,-60,44,35,180,-94,377,0,3760
RAW_IMU,2722020208,-202,281,16596,-82,56,19,200,-82,385,0,3664
RAW_IMU,2722041209,-194,256,16646,-79,71,26,189,-95,383,0,3712
RAW_IMU,2722062212,-154,332,16596,-74,42,25,186,-88,391,0,3776
RAW_IMU,2722083209,-150,418,16573,-64,43,13,189,-100,379,0,3776
RAW_IMU,2722104209,-196,239,16585,-65,51,31,194,-90,391,0,3760
RAW_IMU,2722125210,-162,330,16597,-77,56,20,193,-82,385,0,3728
RAW_IMU,2722146210,-214,254,16608,-72,33,35,185,-104,382,0,3776
RAW_IMU,2722167208,-179,325,16610,-69,52,15,194,-100,386,0,3776
RAW_IMU,2722188209,-162,341,16585,-54,49,27,186,-88,376,0,3776
RAW_IMU,2722209209,-275,354,16661,-76,38,33,189,-98,379,0,3776
RAW_IMU,2722230209,-193,217,16579,-69,63,20,189,-90,396,0,3664
RAW_IMU,2722251210,-165,291,16605,-70,40,42,185,-94,380,0,3728
RAW_IMU,2722272209,-215,256,16633,-54,46,37,181,-95,381,0,3776
RAW_IMU,2722293209,-154,352,16577,-61,42,24,193,-96,372,0,3664
RAW_IMU,2722314209,-121,301,16550,-56,60,34,195,-94,377,0,3776
RAW_IMU,2722335210,-125,280,16625,-71,48,38,193,-89,390,0,3664
RAW_IMU,2722356212,-264,335,16580,-80,53,15,187,-101,380,0,3824
RAW_IMU,2722377211,-207,281,16564,-72,70,23,178,-90,388,0,3824
RAW_IMU,2722398211,-170,275,16565,-68,45,12,181,-98,388,0,3728
RAW_IMU,2722419211,-179,264,16637,-57,52,29,187,-87,387,0,3776
RAW_IMU,2722440208,-248,313,16560,-63,39,39,197,-98,381,0,3792
RAW_IMU,2722461214,-192,307,16551,-61,62,32,187,-92,387,0,3776
RAW_IMU,2722482212,-191,360,16619,-67,56,28,190,-96,390,0,3760
RAW_IMU,2722503209,-167,280,16599,-80,42,26,183,-95,379,0,3888
RAW_IMU,2722524209,-265,356,16554,-65,55,22,193,-101,380,0,3728
RAW_IMU,2722545210,-205,289,16618,-64,58,11,185,-101,380,0,3776
RAW_IMU,2722566208,-160,365,16604,-67,58,31,186,-95,383,0,3760
RAW_IMU,2722587209,-196,240,16582,-61,47,29,195,-87,387,0,3776
RAW_IMU,2722608209,-145,325,16626,-69,44,17,197,-93,374,0,3824
RAW_IMU,2722629210,-150,298,16562,-67,51,23,169,-96,387,0,3664
RAW_IMU,2722650210,-216,282,16648,-61,53,35,194,-93,386,0,3776
RAW_IMU,2722671210,-217,283,16614,-83,50,20,189,-95,379,0,3760
RAW_IMU,2722692210,-129,364,16555,-73,48,17,194,-85,386,0,3776
RAW_IMU,2722713211,-167,339,16604,-78,49,25,198,-92,385,0,3840
RAW_IMU,2722734211,-174,264,16643,-56,42,14,198,-82,382,0,3712
RAW_IMU,2722755211,-188,321,16663,-72,31,30,187,-104,375,0,3792
RAW_IMU,2722776208,-189,175,16641,-66,48,32,186,-88,386,0,3760
RAW_IMU,2722797209,-137,277,16573,-65,53,20,191,-102,391,0,3776
RAW_IMU,2722818209,-183,318,16693,-64,51,23,187,-96,387,0,3792
RAW_IMU,2722839210,-181,338,16530,-79,54,20,185,-89,385,0,3664
RAW_IMU,2722860211,-231,358,16609,-84,63,24,190,-94,382,0,3792
RAW_IMU,2722881210,-221,306,16561,-73,60,28,194,-90,379,0,3696
RAW_IMU,2722902210,-81,266,16579,-76,39,32,187,-94,375,0,3776
RAW_IMU,2722923210,-184,337,16607,-63,44,21,197,-93,391,0,3696
RAW_IMU,2722944210,-164,298,16628,-75,50,22,186,-90,379,0,3728
RAW_IMU,2722965211,-171,286,16526,-70,37,26,195,-99,387,0,3792
RAW_IMU,2722986210,-188,322,16622,-70,56,35,183,-93,379,0,3776
RAW_IMU,2723007211,-229,294,16610,-63,44,21,190,-87,390,0,3792
RAW_IMU,2723028211,-204,357,16525,-70,54,19,190,-99,385,0,3712
RAW_IMU,2723049211,-144,342,16589,-68,49,31,191,-102,379,0,3792
RAW_IMU,2723070211,-208,317,16551,-88,55,34,178,-93,379,0,3792
RAW_IMU,2723091208,-214,288,16642,-85,58,36,191,-90,379,0,3792
RAW_IMU,2723112209,-220,288,16555,-84,57,25,193,-99,387,0,3824
RAW_IMU,2723133209,-246,340,16612,-57,58,6,190,-99,382,0,3664
RAW_IMU,2723154210,-302,240,16659,-84,47,35,195,-92,387,0,3760
RAW_IMU,2723175210,-163,322,16568,-86,55,32,185,-101,380,0,3712
RAW_IMU,2723196211,-194,278,16556,-76,48,25,182,-87,387,0,3776
RAW_IMU,2723217211,-236,359,16560,-57,53,33,191,-93,381,0,3776
RAW_IMU,2723238211,-151,271,16631,-63,49,22,191,-83,383,0,3728
RAW_IMU,2723259211,-202,284,16659,-75,49,17,194,-93,379,0,3728
RAW_IMU,2723280208,-204,347,16608,-71,42,38,191,-102,388,0,3776
RAW_IMU,2723301209,-161,249,16626,-60,48,18,189,-83,386,0,3776
RAW_IMU,2723322209,-179,284,16568,-68,57,23,195,-108,380,0,3776
RAW_IMU,2723343210,-162,319,16618,-64,55,19,186,-93,383,0,3696
RAW_IMU,2723364375,-201,276,16591,-65,48,31,197,-88,376,0,3728
RAW_IMU,2723385209,-216,232,16567,-61,43,19,183,-93,383,0,3712
RAW_IMU,2723406210,-259,254,16593,-68,39,26,193,-96,375,0,3664
RAW_IMU,2723427210,-156,271,16554,-68,62,35,183,-93,386,0,3792
RAW_IMU,2723448211,-237,242,16598,-78,46,21,190,-84,382,0,3696
RAW_IMU,2723469209,-183,249,16592,-60,46,12,191,-93,393,0,3728
RAW_IMU,2723490209,-202,277,16597,-71,59,15,187,-94,380,0,3728
RAW_IMU,2723511210,-172,248,16544,-72,43,22,191,-98,381,0,3728
RAW_IMU,2723532210,-139,406,16614,-75,54,24,189,-98,386,0,3648
RAW_IMU,2723553211,-180,292,16580,-63,52,29,183,-88,391,0,3696
RAW_IMU,2723574209,-170,328,16660,-58,37,22,198,-94,375,0,3776
RAW_IMU,2723595209,-255,222,16596,-66,40,20,190,-94,377,0,3728
RAW_IMU,2723616209,-204,265,16624,-69,48,30,187,-96,382,0,3792
RAW_IMU,2723637209,-291,295,16566,-71,41,22,191,-107,376,0,3664
RAW_IMU,2723658210,-175,322,16657,-76,47,50,197,-90,386,0,3728
RAW_IMU,2723679208,-256,331,16636,-67,57,28,199,-90,381,0,3728
RAW_IMU,2723700209,-154,270,16568,-64,53,17,194,-88,383,0,3696
RAW_IMU,2723721209,-85,230,16557,-68,44,25,186,-95,386,0,3776
RAW_IMU,2723742209,-165,296,16560,-74,54,23,191,-98,383,0,3696
RAW_IMU,2723763210,-189,243,16662,-69,51,31,198,-96,385,0,3792
RAW_IMU,2723784208,-186,350,16643,-73,38,36,199,-90,383,0,3728
RAW_IMU,2723805209,-145,331,16597,-65,48,39,180,-89,385,0,3760
RAW_IMU,2723826209,-130,349,16581,-53,55,7,183,-88,379,0,3776
RAW_IMU,2723847210,-246,290,16524,-71,41,17,199,-93,386,0,3696
RAW_IMU,2723868210,-169,292,16584,-65,58,14,182,-92,387,0,3824
RAW_IMU,2723889209,-166,307,16558,-66,46,17,185,-88,381,0,3728
RAW_IMU,2723910209,-209,317,16595,-78,52,17,186,-100,379,0,3712
RAW_IMU,2723931209,-237,296,16640,-74,47,30,191,-93,386,0,3776
RAW_IMU,2723952209,-215,329,16659,-66,56,36,190,-96,385,0,3616
RAW_IMU,2723973209,-185,311,16560,-84,43,21,191,-98,391,0,3696
RAW_IMU,2723994209,-176,271,16548,-61,46,34,190,-99,387,0,3728
RAW_IMU,2724015209,-192,314,16597,-71,39,30,191,-98,383,0,3728
RAW_IMU,2724036210,-128,297,16511,-77,47,33,197,-93,381,0,3760
RAW_IMU,2724057210,-228,326,16635,-69,59,13,191,-88,381,0,3712
RAW_IMU,2724078210,-181,313,16609,-80,42,37,195,-104,385,0,3824
RAW_IMU,2724099211,-171,322,16619,-69,52,30,181,-95,379,0,3776
RAW_IMU,2724120208,-181,318,16576,-82,53,30,186,-100,383,0,3776
RAW_IMU,2724141209,-182,300,16637,-68,54,20,190,-92,385,0,3728
RAW_IMU,2724162209,-253,284,16584,-85,24,35,189,-93,388,0,3776
RAW_IMU,2724183209,-124,315,16691,-62,38,28,187,-96,382,0,3760
RAW_IMU,2724204210,-235,270,16622,-71,41,31,193,-96,385,0,3776
RAW_IMU,2724225210,-202,330,16591,-63,45,18,191,-95,376,0,3760
RAW_IMU,2724246210,-203,370,16650,-76,47,31,195,-92,377,0,3760
RAW_IMU,2724267211,-161,324,16555,-69,45,23,183,-93,383,0,3696
RAW_IMU,2724288209,-204,336,16666,-74,44,25,193,-92,377,0,3792
RAW_IMU,2724309209,-182,337,16589,-64,44,21,190,-96,380,0,3760
RAW_IMU,2724330210,-224,358,16616,-71,36,31,190,-99,380,0,3840
RAW_IMU,2724351210,-189,315,16615,-73,45,16,189,-98,376,0,3616
RAW_IMU,2724372211,-209,234,16721,-75,44,22,193,-92,385,0,3728
RAW_IMU,2724393209,-191,325,16582,-81,45,31,186,-93,393,0,3792
RAW_IMU,2724414209,-157,321,16630,-79,50,37,185,-89,387,0,3760
RAW_IMU,2724435209,-195,333,16618,-84,51,26,190,-96,375,0,3776
RAW_IMU,2724456210,-174,311,16646,-82,55,40,198,-94,380,0,3728
RAW_IMU,2724477212,-131,319,16643,-69,37,14,190,-104,382,0,3824
RAW_IMU,2724498211,-201,343,16601,-60,40,21,183,-100,376,0,3776
RAW_IMU,2724519211,-177,235,16634,-72,43,32,191,-93,388,0,3776
RAW_IMU,2724540211,-157,294,16569,-66,54,31,189,-93,379,0,3760
RAW_IMU,2724561208,-144,336,16574,-68,57,34,182,-101,385,0,3776
RAW_IMU,2724582214,-170,251,16642,-67,52,23,190,-92,382,0,3728
RAW_IMU,2724603212,-163,281,16590,-69,57,28,190,-96,380,0,3792
RAW_IMU,2724624209,-217,308,16609,-77,48,26,191,-90,388,0,3760
RAW_IMU,2724645209,-235,334,16591,-79,53,31,187,-84,377,0,3760
RAW_IMU,2724666210,-204,316,16588,-69,44,25,180,-92,387,0,3776
RAW_IMU,2724687208,-182,267,16585,-62,53,20,182,-82,392,0,3728
RAW_IMU,2724708209,-272,320,16619,-66,37,9,193,-89,387,0,3792
RAW_IMU,2724729209,-194,318,16563,-59,49,31,186,-93,374,0,3776
RAW_IMU,2724750210,-214,280,16599,-79,50,15,197,-100,383,0,3696
RAW_IMU,2724771210,-185,371,16605,-79,57,31,199,-93,386,0,3760
RAW_IMU,2724792210,-193,309,16588,-72,49,23,190,-94,387,0,3760
RAW_IMU,2724813210,-199,307,16565,-70,46,27,190,-92,380,0,3760
RAW_IMU,2724834211,-198,319,16575,-58,37,24,193,-96,375,0,3792
RAW_IMU,2724855211,-116,230,16597,-62,33,16,189,-90,383,0,3696
RAW_IMU,2724876211,-193,310,16600,-66,53,15,189,-102,391,0,3824
RAW_IMU,2724897208,-237,321,16567,-72,44,32,193,-99,390,0,3696
RAW_IMU,2724918209,-181,306,16540,-54,51,22,189,-95,386,0,3728
RAW_IMU,2724939209,-165,258,16584,-69,50,38,190,-87,390,0,3728
RAW_IMU,2724960210,-273,350,16655,-59,35,30,190,-101,382,0,3728
RAW_IMU,2724981211,-220,285,16666,-82,32,23,186,-90,369,0,3776
RAW_IMU,2725002208,-276,299,16634,-54,49,24,195,-89,382,0,3760
RAW_IMU,2725023212,-157,356,16626,-80,52,27,185,-84,382,0,3760
RAW_IMU,2725044209,-182,247,16550,-60,60,24,193,-99,367,0,3776
RAW_IMU,2725065209,-156,304,16572,-65,48,32,193,-92,387,0,3712
RAW_IMU,2725086211,-136,292,16608,-66,58,15,180,-92,385,0,3792
RAW_IMU,2725107210,-157,367,16622,-77,49,21,202,-90,386,0,3728
