mavpackettype,time_usec,xacc,yacc,zacc,xgyro,ygyro,zgyro,xmag,ymag,zmag,id,temperature
RAW_IMU,610302209,188,16159,-299,-174,23,-12,10,249,105,0,3488
RAW_IMU,610323210,153,16123,-183,-136,73,-10,16,250,94,0,3520
RAW_IMU,610344211,127,16086,-84,-36,76,5,18,251,100,0,3520
RAW_IMU,610365210,160,16107,-65,20,84,2,13,256,98,0,3552
RAW_IMU,610386210,85,16139,-172,67,34,15,13,261,95,0,3488
RAW_IMU,610407210,255,16352,-284,140,34,24,10,247,90,0,3520
RAW_IMU,610428210,229,16317,-313,96,50,18,16,250,91,0,3488
RAW_IMU,610449211,202,16182,-300,101,57,12,6,250,99,0,3584
RAW_IMU,610470210,48,16209,-255,114,41,1,13,254,105,0,3520
RAW_IMU,610491211,139,16368,-455,93,31,36,15,244,95,0,3488
RAW_IMU,610512211,303,16308,-496,-1,47,-4,18,251,95,0,3536
RAW_IMU,610533211,325,16339,-378,-65,50,3,10,254,93,0,3536
RAW_IMU,610554211,180,16276,-348,-113,15,0,13,251,100,0,3584
RAW_IMU,610575208,168,16139,-270,-37,31,6,11,245,99,0,3536
RAW_IMU,610596209,256,16214,-289,12,95,14,10,256,95,0,3440
RAW_IMU,610617209,197,16023,-175,75,126,-4,18,251,100,0,3488
RAW_IMU,610638210,34,16250,-192,144,124,24,10,254,100,0,3584
RAW_IMU,610659210,142,16281,-565,116,53,22,7,249,100,0,3520
RAW_IMU,610680211,290,16376,-679,25,29,17,9,250,99,0,3488
RAW_IMU,610701211,350,16364,-481,-153,2,1,3,243,89,0,3488
RAW_IMU,610722211,77,16337,-321,-231,8,-18,15,251,85,0,3600
RAW_IMU,610743211,-57,16202,-309,-233,15,-8,14,255,96,0,3600
RAW_IMU,610764208,126,16247,-250,-202,-5,-11,13,254,98,0,3552
RAW_IMU,610785209,415,16222,-215,-191,-16,-2,14,250,91,0,3440
RAW_IMU,610806209,196,16051,-195,-121,-2,0,16,255,94,0,3488
RAW_IMU,610827210,57,16035,-88,12,25,18,6,248,96,0,3520
RAW_IMU,610848375,176,16120,-156,143,50,39,11,248,96,0,3488
RAW_IMU,610869209,300,16086,-177,246,122,50,9,253,96,0,3472
RAW_IMU,610890210,151,16330,-412,248,154,37,14,238,94,0,3440
RAW_IMU,610911210,99,16342,-507,194,101,28,18,251,100,0,3584
RAW_IMU,610932211,124,16289,-552,100,22,18,14,243,94,0,3552
RAW_IMU,610953209,244,16389,-730,-51,-21,6,15,256,100,0,3472
RAW_IMU,610974209,75,16323,-577,-149,-20,-7,18,249,88,0,3536
RAW_IMU,610995210,213,16333,-439,-239,-11,-16,13,254,90,0,3440
RAW_IMU,611016212,289,16171,-523,-238,8,-14,7,249,93,0,3584
RAW_IMU,611037209,318,16099,-331,-204,69,-21,14,245,99,0,3536
RAW_IMU,611058211,212,16152,-157,-143,105,8,23,249,103,0,3536
RAW_IMU,611079211,117,16090,-176,-74,114,-4,9,245,96,0,3552
RAW_IMU,611100208,97,16134,-361,-60,64,0,26,251,95,0,3408
RAW_IMU,611121209,145,16200,-245,-52,36,-5,19,248,99,0,3488
RAW_IMU,611142209,203,16193,-263,-35,10,8,16,253,96,0,3488
RAW_IMU,611163212,150,16333,-310,-37,15,12,7,256,103,0,3520
RAW_IMU,611184209,61,16295,-582,-94,16,1,20,249,98,0,3488
RAW_IMU,611205209,199,16196,-420,-123,49,-2,19,255,91,0,3472
RAW_IMU,611226210,296,16216,-399,-110,80,3,23,249,95,0,3552
RAW_IMU,611247210,188,16175,-222,-108,109,-5,15,259,98,0,3552
RAW_IMU,611268209,78,16161,-240,-91,100,-4,18,249,93,0,3488
RAW_IMU,611289209,130,16076,-158,3,79,9,14,248,96,0,3408
RAW_IMU,611310209,139,16211,-244,99,33,17,16,243,99,0,3536
RAW_IMU,611331209,346,16394,-556,-12,40,1,6,248,94,0,3552
RAW_IMU,611352210,277,16164,-369,-58,34,-6,16,255,94,0,3440
RAW_IMU,16926209,-135,-495,16659,-54,48,21,121,127,322,0,3376
RAW_IMU,16947210,-12,-430,16613,-54,31,14,122,133,331,0,3360
RAW_IMU,16968375,10,-341,16624,-57,45,28,123,136,327,0,3264
RAW_IMU,16989209,-48,-587,16632,-66,42,4,122,118,333,0,3296
RAW_IMU,17010208,-126,-535,16602,-56,39,12,126,139,325,0,3264
RAW_IMU,17031209,-4,-522,16602,-57,52,3,122,130,328,0,3296
RAW_IMU,17052209,7,-485,16576,-50,48,13,123,131,325,0,3312
RAW_IMU,17073212,-31,-534,16624,-69,62,14,125,133,326,0,3312
RAW_IMU,17094209,-19,-486,16668,-70,39,24,126,124,334,0,3312
RAW_IMU,17115209,5,-463,16599,-74,55,10,123,124,337,0,3376
RAW_IMU,17136210,-6,-542,16637,-72,36,-3,118,141,329,0,3360
RAW_IMU,17157210,-77,-573,16527,-47,62,11,130,135,336,0,3296
RAW_IMU,17178208,1,-435,16639,-54,55,14,122,125,331,0,3344
RAW_IMU,17199209,-10,-412,16592,-58,49,25,123,131,332,0,3344
RAW_IMU,17220209,-50,-592,16606,-62,63,24,121,127,334,0,3344
RAW_IMU,17241210,-125,-606,16630,-48,49,16,123,134,332,0,3360
RAW_IMU,17262210,-52,-538,16603,-53,54,11,121,124,329,0,3360
RAW_IMU,17283209,-23,-422,16631,-66,56,11,125,133,318,0,3376
RAW_IMU,17304209,-76,-526,16638,-57,50,13,121,129,322,0,3376
RAW_IMU,17325209,-130,-482,16660,-59,46,28,121,134,327,0,3344
RAW_IMU,17346209,-96,-550,16598,-60,48,10,120,130,323,0,3360
RAW_IMU,17367210,-16,-516,16650,-50,40,21,129,127,334,0,3360
RAW_IMU,17388208,-32,-488,16626,-64,44,16,129,134,329,0,3376
RAW_IMU,17409209,53,-489,16589,-72,57,25,118,127,334,0,3376
RAW_IMU,17430209,-105,-581,16678,-66,52,29,125,133,326,0,3376
RAW_IMU,17451210,-82,-563,16640,-74,49,0,122,125,321,0,3360
RAW_IMU,17472210,-32,-538,16576,-62,44,16,121,124,327,0,3248
RAW_IMU,17493209,-8,-467,16651,-70,40,21,117,125,333,0,3408
RAW_IMU,17514209,55,-416,16646,-45,51,5,121,129,334,0,3376
RAW_IMU,17535209,-101,-554,16635,-57,46,19,123,134,325,0,3376
RAW_IMU,17556209,19,-550,16632,-57,58,22,118,127,334,0,3312
RAW_IMU,17577209,47,-541,16615,-65,53,9,121,124,327,0,3312
RAW_IMU,17598209,-31,-469,16667,-45,39,21,120,135,340,0,3344
RAW_IMU,17619209,-35,-511,16632,-75,60,19,116,129,339,0,3376
RAW_IMU,17640209,80,-436,16600,-60,54,34,127,125,336,0,3360
RAW_IMU,17661209,-42,-515,16672,-64,52,26,112,128,331,0,3264
RAW_IMU,17682208,-37,-582,16685,-49,42,9,126,141,325,0,3296
RAW_IMU,17703209,-86,-557,16545,-51,46,15,120,135,321,0,3376
RAW_IMU,17724209,6,-406,16632,-66,54,6,133,128,328,0,3360
RAW_IMU,17745210,5,-484,16634,-65,45,26,114,130,323,0,3296
RAW_IMU,17766210,-21,-497,16595,-55,40,1,134,131,329,0,3248
RAW_IMU,17787210,-23,-524,16633,-75,38,1,123,131,329,0,3344
RAW_IMU,17808210,-92,-517,16620,-41,35,-1,126,127,327,0,3376
RAW_IMU,17829210,-31,-513,16614,-64,45,4,125,130,318,0,3264
RAW_IMU,17850210,-35,-474,16594,-56,54,17,123,129,329,0,3344
RAW_IMU,17871210,-15,-508,16502,-63,48,43,122,138,326,0,3296
RAW_IMU,17892209,-11,-486,16676,-52,35,7,117,130,340,0,3296
RAW_IMU,17913209,-31,-462,16572,-50,44,6,117,130,323,0,3376
RAW_IMU,17934210,-87,-530,16607,-62,41,15,120,125,326,0,3360
RAW_IMU,17955210,59,-527,16609,-66,40,19,122,130,331,0,3312
RAW_IMU,17976211,-62,-492,16622,-45,50,10,130,135,333,0,3296
RAW_IMU,17997209,-55,-506,16584,-48,56,26,121,127,327,0,3344
RAW_IMU,18018212,-49,-486,16663,-50,46,20,120,128,333,0,3264
RAW_IMU,18039209,-7,-504,16590,-55,50,34,116,139,329,0,3312
RAW_IMU,18060209,25,-548,16626,-64,50,7,126,119,327,0,3312
RAW_IMU,18081211,3,-559,16674,-48,44,18,116,127,332,0,3248
RAW_IMU,18102210,-51,-560,16614,-59,49,23,129,127,322,0,3344
RAW_IMU,18123210,27,-541,16627,-53,46,28,117,133,331,0,3264
RAW_IMU,18144211,9,-513,16668,-45,56,27,117,128,331,0,3360
RAW_IMU,18165211,-25,-504,16593,-48,45,25,117,123,328,0,3344
RAW_IMU,18186217,-2,-554,16629,-64,56,8,113,139,334,0,3312
RAW_IMU,18207211,-58,-611,16599,-36,48,9,127,138,326,0,3312
RAW_IMU,18228208,-60,-512,16620,-40,61,-6,118,129,332,0,3344
RAW_IMU,18249209,-44,-478,16636,-55,57,23,126,119,334,0,3296
RAW_IMU,18270209,-10,-532,16652,-70,48,8,131,129,332,0,3296
RAW_IMU,18291210,-8,-506,16624,-53,48,4,129,124,337,0,3344
RAW_IMU,18312210,-113,-555,16631,-58,39,10,127,135,336,0,3360
RAW_IMU,18333210,-83,-553,16621,-59,45,12,120,138,336,0,3344
RAW_IMU,18354211,47,-459,16651,-59,45,15,123,127,329,0,3232
RAW_IMU,18375211,5,-448,16665,-41,56,14,113,119,325,0,3200
RAW_IMU,18396211,27,-497,16624,-57,51,32,117,128,326,0,3360
RAW_IMU,18417211,-36,-518,16545,-69,52,-2,133,135,336,0,3360
RAW_IMU,18438211,-86,-519,16605,-63,57,11,118,134,332,0,3408
RAW_IMU,18459211,-81,-463,16661,-52,41,15,127,128,326,0,3312
RAW_IMU,18480211,-10,-412,16615,-61,54,29,118,134,325,0,3232
RAW_IMU,18501208,-30,-470,16657,-57,53,22,121,131,325,0,3360
RAW_IMU,18522209,-8,-522,16646,-53,48,23,117,130,323,0,3312
RAW_IMU,18543209,-58,-562,16601,-47,42,20,127,133,316,0,3312
RAW_IMU,18564210,-20,-457,16610,-52,49,12,127,133,331,0,3344
RAW_IMU,18585211,-18,-483,16686,-53,55,15,126,129,334,0,3248
RAW_IMU,18606210,-11,-517,16690,-52,42,29,121,125,338,0,3344
RAW_IMU,18627210,25,-449,16657,-61,46,25,123,129,322,0,3376
RAW_IMU,18648210,-110,-465,16627,-54,45,16,117,128,326,0,3360
RAW_IMU,18669210,6,-466,16583,-48,50,24,122,128,323,0,3360
RAW_IMU,18690211,24,-517,16600,-53,39,15,126,134,329,0,3296
RAW_IMU,18711210,37,-430,16639,-62,53,9,113,119,334,0,3408
RAW_IMU,18732211,-80,-518,16597,-65,57,39,118,119,322,0,3376
RAW_IMU,18753211,-71,-559,16665,-53,42,29,125,133,326,0,3344
RAW_IMU,18774211,-6,-518,16640,-53,45,13,116,129,329,0,3296
RAW_IMU,18795211,39,-551,16706,-53,55,25,118,127,327,0,3344
RAW_IMU,18816208,-28,-491,16639,-65,45,12,120,125,331,0,3408
RAW_IMU,18837209,-47,-456,16605,-64,53,32,117,130,316,0,3408
RAW_IMU,18858209,-79,-454,16646,-67,51,13,123,136,329,0,3376
RAW_IMU,18879210,-9,-496,16611,-62,44,21,123,127,327,0,3344
RAW_IMU,18900210,-37,-490,16659,-62,32,-2,125,130,326,0,3424
RAW_IMU,18921211,-33,-532,16674,-62,55,2,123,134,337,0,3440
RAW_IMU,18942211,-34,-546,16627,-48,49,19,120,133,316,0,3344
RAW_IMU,18963211,1,-513,16584,-54,44,9,122,130,328,0,3376
RAW_IMU,18984211,5,-488,16650,-82,45,22,126,122,332,0,3360
RAW_IMU,19005211,-33,-522,16600,-52,52,21,118,129,344,0,3376
RAW_IMU,19026211,-22,-539,16614,-63,44,7,116,129,332,0,3360
RAW_IMU,19047211,-75,-514,16613,-65,45,3,129,131,325,0,3296
RAW_IMU,19068211,-2,-531,16647,-68,40,16,126,136,334,0,3344
RAW_IMU,19089376,32,-520,16541,-57,47,21,129,131,332,0,3264
RAW_IMU,19110210,1,-477,16666,-63,46,24,114,128,323,0,3344
RAW_IMU,19131210,-90,-473,16694,-37,52,27,131,127,337,0,3360
RAW_IMU,19152210,-20,-528,16658,-51,46,19,122,128,323,0,3344
RAW_IMU,19173211,-19,-475,16666,-48,38,16,117,130,323,0,3376
RAW_IMU,19194209,-59,-493,16628,-48,48,28,118,122,325,0,3264
RAW_IMU,19215209,8,-436,16655,-57,44,25,122,123,328,0,3360
RAW_IMU,19236210,-25,-560,16607,-41,43,12,116,127,337,0,3376
RAW_IMU,19257210,-95,-540,16616,-47,52,9,113,134,327,0,3312
RAW_IMU,19278211,35,-560,16660,-43,51,15,129,131,334,0,3408
RAW_IMU,19299209,-112,-507,16575,-53,46,33,129,134,327,0,3296
RAW_IMU,19320209,11,-534,16641,-54,36,16,121,122,325,0,3344
RAW_IMU,19341209,30,-468,16589,-60,45,21,130,128,326,0,3360
RAW_IMU,19362209,-34,-599,16578,-71,46,25,122,128,323,0,3408
RAW_IMU,19383210,9,-568,16653,-56,54,7,130,125,338,0,3232
RAW_IMU,19404208,-46,-484,16579,-64,50,8,125,128,331,0,3360
RAW_IMU,19425209,-5,-484,16591,-51,47,19,123,129,329,0,3344
RAW_IMU,19446209,21,-458,16634,-71,54,10,122,133,331,0,3376
RAW_IMU,19467209,-1,-546,16616,-50,42,26,121,134,337,0,3312
RAW_IMU,19488210,9,-566,16585,-55,47,18,121,131,327,0,3376
RAW_IMU,19509208,23,-521,16661,-67,48,6,112,118,328,0,3344
RAW_IMU,19530209,-8,-502,16646,-58,48,23,122,133,328,0,3344
RAW_IMU,19551209,-73,-459,16643,-72,45,26,122,133,333,0,3312
RAW_IMU,19572210,-33,-579,16660,-46,60,24,125,130,333,0,3360
RAW_IMU,19593210,35,-523,16641,-56,45,7,113,131,332,0,3200
RAW_IMU,19614209,24,-545,16604,-52,57,7,127,125,323,0,3360
RAW_IMU,19635209,-49,-494,16686,-65,42,-14,127,128,326,0,3376
RAW_IMU,19656209,-40,-523,16638,-51,44,0,118,129,329,0,3376
RAW_IMU,19677209,-15,-553,16649,-50,40,10,131,129,322,0,3312
RAW_IMU,19698209,-58,-445,16663,-51,45,17,114,133,326,0,3248
RAW_IMU,19719209,10,-471,16617,-57,54,13,118,129,327,0,3312
RAW_IMU,19740209,44,-445,16611,-67,57,25,118,117,322,0,3312
RAW_IMU,19761209,28,-498,16628,-67,47,23,129,134,332,0,3360
RAW_IMU,19782209,-81,-554,16614,-55,50,9,116,139,327,0,3360
RAW_IMU,19803208,-62,-497,16628,-67,41,34,127,130,326,0,3312
RAW_IMU,19824209,-82,-459,16563,-64,35,37,125,135,331,0,3376
RAW_IMU,19845209,15,-518,16683,-70,51,31,116,134,334,0,3344
RAW_IMU,19866210,-20,-487,16644,-49,55,25,126,129,339,0,3424
RAW_IMU,19887210,-40,-534,16597,-50,47,12,110,129,332,0,3264
RAW_IMU,19908210,-69,-553,16555,-63,39,15,131,129,325,0,3360
RAW_IMU,19929210,-29,-519,16637,-56,67,12,123,127,342,0,3264
RAW_IMU,19950210,-45,-499,16654,-61,53,21,121,134,325,0,3344
RAW_IMU,19971210,41,-517,16590,-61,48,26,117,125,328,0,3344
RAW_IMU,19992210,-1,-486,16633,-51,39,24,117,128,331,0,3232
RAW_IMU,20013208,-99,-595,16658,-57,45,8,127,128,331,0,3296
RAW_IMU,20034210,-29,-491,16682,-60,45,13,131,127,332,0,3312
RAW_IMU,20055210,-25,-480,16672,-53,49,9,118,127,325,0,3312
RAW_IMU,20076211,-39,-523,16643,-54,51,21,121,124,327,0,3312
RAW_IMU,20097211,-12,-466,16599,-63,36,22,122,130,338,0,3312
RAW_IMU,20118209,-36,-477,16624,-61,49,13,125,123,321,0,3408
RAW_IMU,20139209,-55,-550,16671,-58,47,17,129,127,327,0,3344
RAW_IMU,20160210,-51,-474,16641,-51,40,7,125,125,326,0,3344
RAW_IMU,20181210,3,-417,16626,-42,54,18,131,127,322,0,3360
RAW_IMU,20202212,1,-556,16667,-66,43,13,122,123,331,0,3296
RAW_IMU,20223211,-59,-462,16624,-50,40,14,122,138,323,0,3408
RAW_IMU,20244211,-45,-540,16596,-69,50,15,114,130,323,0,3312
RAW_IMU,20265211,-10,-482,16598,-51,31,8,122,133,333,0,3264
RAW_IMU,20286208,-6,-480,16581,-50,33,26,121,131,334,0,3312
RAW_IMU,20307214,-11,-590,16610,-69,50,28,122,133,333,0,3232
RAW_IMU,20328212,-54,-479,16671,-55,61,14,125,133,333,0,3344
RAW_IMU,20349209,26,-427,16650,-64,54,13,123,134,327,0,3344
RAW_IMU,20370209,-36,-516,16645,-60,18,1,117,125,326,0,3312
RAW_IMU,20391210,-69,-475,16641,-47,47,18,118,127,337,0,3376
RAW_IMU,20412208,-25,-478,16612,-76,51,28,122,128,328,0,3360
RAW_IMU,20433209,-25,-524,16703,-67,58,14,126,122,329,0,3376
RAW_IMU,20454209,45,-510,16616,-54,54,-7,131,134,322,0,3424
RAW_IMU,20475210,6,-452,16629,-49,49,20,123,131,325,0,3360
RAW_IMU,20496210,-40,-526,16598,-49,44,21,126,124,325,0,3264
RAW_IMU,20517210,-40,-455,16620,-71,35,17,122,140,331,0,3360
RAW_IMU,20538210,-51,-475,16595,-45,42,7,122,118,336,0,3376
RAW_IMU,20559211,47,-548,16627,-46,59,21,129,129,325,0,3376
RAW_IMU,20580211,-61,-522,16604,-49,47,3,114,133,318,0,3376
RAW_IMU,20601211,-44,-554,16658,-72,67,15,125,130,333,0,3248
RAW_IMU,20622208,-35,-461,16613,-64,46,18,126,131,329,0,3376
RAW_IMU,20643209,-115,-502,16607,-53,32,-1,125,130,331,0,3312
RAW_IMU,20664209,19,-474,16638,-59,49,7,116,124,329,0,3376
RAW_IMU,20685210,6,-504,16692,-67,46,27,131,131,329,0,3376
RAW_IMU,20706211,-84,-488,16571,-53,43,25,125,130,323,0,3296
RAW_IMU,20727210,-68,-479,16628,-58,54,2,130,128,333,0,3408
RAW_IMU,20748210,-57,-492,16593,-55,52,20,120,128,326,0,3424
RAW_IMU,20769210,-25,-522,16602,-66,44,13,118,129,334,0,3344
RAW_IMU,20790210,-41,-512,16613,-57,46,4,120,133,328,0,3408
RAW_IMU,20811211,-13,-456,16576,-52,58,28,129,131,332,0,3232
RAW_IMU,20832210,6,-499,16612,-61,48,21,123,136,332,0,3344
RAW_IMU,20853211,34,-532,16579,-58,45,23,130,130,331,0,3360
RAW_IMU,20874211,-14,-517,16639,-48,51,17,125,123,336,0,3360
RAW_IMU,20895211,-39,-512,16595,-63,45,-5,130,125,321,0,3376
RAW_IMU,20916211,-125,-416,16619,-47,44,32,116,127,325,0,3312
RAW_IMU,20937208,-28,-540,16665,-56,56,20,123,131,337,0,3360
RAW_IMU,20958209,21,-514,16655,-47,50,19,120,128,326,0,3312
RAW_IMU,20979209,-70,-533,16670,-48,43,23,121,131,327,0,3376
RAW_IMU,21000289,-46,-563,16604,-55,52,21,126,122,327,0,3376
RAW_IMU,21021209,-113,-490,16564,-47,53,6,122,128,323,0,3312
RAW_IMU,21042211,-10,-529,16598,-48,63,14,126,136,332,0,3296
RAW_IMU,21063211,-13,-503,16545,-54,55,23,129,131,325,0,3312
RAW_IMU,21084208,24,-488,16718,-55,43,9,123,141,337,0,3312
RAW_IMU,21105209,-19,-581,16569,-53,47,10,117,125,328,0,3200
RAW_IMU,21126212,-65,-540,16669,-57,44,10,120,130,333,0,3312
RAW_IMU,21147209,5,-496,16649,-70,48,12,126,119,325,0,3360
RAW_IMU,21168209,-39,-452,16639,-58,63,4,127,135,336,0,3344
RAW_IMU,21189210,-6,-418,16633,-65,57,27,126,124,332,0,3408
RAW_IMU,21210375,-7,-484,16664,-47,54,7,120,135,328,0,3344
RAW_IMU,21231209,-6,-522,16554,-52,58,17,120,130,331,0,3376
RAW_IMU,21252209,-57,-506,16624,-67,52,7,118,139,329,0,3360
RAW_IMU,21273210,-47,-534,16631,-57,55,19,127,130,333,0,3296
RAW_IMU,21294210,-94,-483,16697,-59,48,32,114,121,333,0,3312
RAW_IMU,21315208,-3,-589,16592,-63,48,31,127,133,328,0,3296
RAW_IMU,21336209,-49,-484,16652,-69,60,9,121,139,322,0,3408
RAW_IMU,21357209,-71,-407,16716,-60,39,-6,121,134,334,0,3360
RAW_IMU,21378210,-12,-473,16634,-61,60,6,123,131,337,0,3312
RAW_IMU,21399210,-29,-513,16668,-57,39,18,123,122,342,0,3344
RAW_IMU,21420208,22,-512,16575,-52,60,29,126,131,320,0,3248
RAW_IMU,21441209,33,-449,16594,-61,52,23,129,129,327,0,3296
RAW_IMU,21462209,56,-460,16647,-68,41,16,117,130,328,0,3344
RAW_IMU,21483209,-14,-473,16622,-56,55,17,131,131,325,0,3312
RAW_IMU,21504210,23,-409,16660,-57,56,-1,130,133,323,0,3360
RAW_IMU,21525208,25,-466,16607,-58,51,14,118,129,337,0,3248
RAW_IMU,21546209,-34,-533,16592,-55,53,26,127,123,328,0,3360
RAW_IMU,21567209,-59,-445,16670,-55,48,17,125,133,321,0,3296
RAW_IMU,21588209,-68,-510,16621,-51,54,23,118,127,332,0,3344
RAW_IMU,21609210,19,-539,16661,-63,49,-6,116,131,329,0,3312
RAW_IMU,21630208,26,-524,16669,-38,61,21,126,129,317,0,3344
RAW_IMU,21651209,-21,-541,16695,-70,38,27,127,130,331,0,3296
RAW_IMU,21672209,-41,-460,16661,-56,56,15,114,135,333,0,3296
RAW_IMU,21693210,-61,-567,16608,-63,38,26,123,129,320,0,3312
RAW_IMU,21714210,-73,-511,16644,-54,44,14,123,134,322,0,3296
RAW_IMU,21735209,8,-468,16648,-46,54,30,126,127,334,0,3376
RAW_IMU,21756209,50,-427,16638,-58,62,3,117,135,328,0,3360
RAW_IMU,21777209,-23,-474,16690,-58,47,19,112,123,336,0,3344
RAW_IMU,21798209,-26,-513,16639,-75,58,23,121,129,327,0,3344
RAW_IMU,21819209,-80,-477,16556,-59,63,10,122,125,333,0,3248
RAW_IMU,21840209,-43,-506,16656,-58,55,10,127,128,321,0,3376
RAW_IMU,21861209,23,-534,16637,-83,48,1,114,130,331,0,3376
RAW_IMU,21882209,19,-441,16664,-68,35,11,129,131,332,0,3408
RAW_IMU,21903209,36,-460,16650,-51,60,24,130,125,333,0,3376
RAW_IMU,21924208,32,-509,16637,-63,50,14,116,131,339,0,3296
RAW_IMU,21945209,-7,-498,16608,-56,47,1,131,127,327,0,3376
RAW_IMU,21966209,-40,-548,16683,-68,43,3,121,131,322,0,3360
RAW_IMU,21987210,-37,-493,16600,-62,54,20,122,133,333,0,3312
RAW_IMU,22008212,-27,-544,16617,-63,48,22,118,129,329,0,3296
RAW_IMU,22029208,24,-458,16637,-63,49,4,122,130,328,0,3264
RAW_IMU,22050209,7,-464,16614,-68,46,28,122,128,331,0,3344
RAW_IMU,22071209,-50,-455,16624,-53,54,35,125,125,326,0,3408
RAW_IMU,22092210,10,-526,16653,-57,56,4,131,129,325,0,3408
RAW_IMU,22113210,-51,-481,16706,-49,47,15,121,127,332,0,3312
RAW_IMU,22134209,-17,-520,16676,-58,49,16,117,128,326,0,3232
RAW_IMU,22155209,-55,-518,16628,-55,36,28,121,129,322,0,3296
RAW_IMU,22176210,-4,-561,16672,-56,47,6,120,125,321,0,3344
RAW_IMU,22197210,-10,-392,16651,-75,44,1,123,134,334,0,3312
RAW_IMU,22218211,-17,-555,16570,-49,53,1,118,129,332,0,3296
RAW_IMU,22239209,-91,-539,16628,-54,48,12,121,129,337,0,3408
RAW_IMU,22260209,2,-534,16721,-59,60,13,120,133,331,0,3360
RAW_IMU,22281209,-33,-524,16634,-56,53,14,123,129,325,0,3360
RAW_IMU,22302210,-17,-558,16662,-65,32,-1,116,131,320,0,3360
RAW_IMU,22323212,5,-497,16649,-51,41,15,112,130,333,0,3296
RAW_IMU,22344211,-3,-507,16677,-47,56,5,109,133,336,0,3376
RAW_IMU,22365211,-13,-538,16645,-49,50,7,125,123,326,0,3360
RAW_IMU,22386211,11,-483,16624,-63,52,12,116,122,332,0,3376
RAW_IMU,22407208,11,-469,16705,-50,44,15,118,129,329,0,3360
RAW_IMU,22428214,12,-460,16636,-62,44,25,121,127,322,0,3296
RAW_IMU,22449212,-8,-436,16606,-42,48,18,126,136,322,0,3376
RAW_IMU,22470209,29,-501,16582,-59,59,44,120,133,331,0,3424
RAW_IMU,22491209,-29,-517,16657,-52,50,17,130,133,336,0,3360
RAW_IMU,22512210,26,-565,16634,-65,52,15,120,130,338,0,3408
RAW_IMU,22533208,-10,-489,16749,-55,49,10,125,121,336,0,3296
RAW_IMU,22554209,-5,-484,16620,-48,45,26,105,139,322,0,3376
RAW_IMU,22575209,-9,-500,16655,-63,42,31,123,131,325,0,3408
RAW_IMU,22596210,-9,-566,16676,-52,26,24,129,124,325,0,3360
RAW_IMU,22617210,31,-511,16745,-67,50,14,114,121,323,0,3344
RAW_IMU,22638210,-32,-497,16600,-54,47,8,110,129,320,0,3296
RAW_IMU,22659210,-58,-476,16699,-55,62,32,123,131,332,0,3360
RAW_IMU,22680211,-19,-559,16616,-54,52,32,120,133,328,0,3408
RAW_IMU,22701211,4,-458,16663,-54,45,17,126,131,327,0,3376
RAW_IMU,22722211,3,-484,16646,-55,47,7,125,130,331,0,3296
RAW_IMU,22743208,-39,-511,16630,-55,43,19,127,121,331,0,3360
RAW_IMU,22764209,-45,-491,16620,-57,46,19,120,142,323,0,3312
RAW_IMU,22785209,13,-509,16651,-61,35,38,125,128,318,0,3344
RAW_IMU,22806210,-112,-458,16670,-59,45,23,130,128,328,0,3376
RAW_IMU,22827211,-33,-528,16644,-60,66,11,122,130,321,0,3312
RAW_IMU,22848210,-24,-561,16652,-56,55,-4,120,128,326,0,3344
RAW_IMU,22869210,13,-494,16645,-57,40,30,120,128,340,0,3360
RAW_IMU,22890210,30,-496,16695,-59,50,17,116,124,327,0,3376
RAW_IMU,22911210,-53,-486,16619,-50,59,19,117,130,323,0,3296
RAW_IMU,22932211,-17,-486,16644,-60,50,2,118,134,317,0,3248
RAW_IMU,22953210,-39,-500,16641,-72,47,23,129,136,327,0,3376
RAW_IMU,22974211,-11,-451,16680,-56,47,25,121,129,334,0,3344
RAW_IMU,22995211,-51,-472,16598,-57,60,12,130,128,333,0,3408
RAW_IMU,23016210,-9,-408,16674,-54,54,20,120,133,331,0,3408
RAW_IMU,23037210,-37,-535,16670,-53,62,7,125,121,323,0,3296
RAW_IMU,23058210,-21,-436,16623,-62,59,13,129,139,327,0,3296
RAW_IMU,23079210,-52,-484,16598,-50,53,3,112,135,321,0,3312
RAW_IMU,23100211,4,-563,16661,-53,51,0,123,136,334,0,3376
RAW_IMU,23121211,-50,-489,16598,-64,39,11,122,135,326,0,3360
RAW_IMU,23142208,-34,-519,16643,-53,46,24,117,121,338,0,3296
RAW_IMU,23163209,-46,-566,16624,-65,43,-3,125,123,333,0,3376
RAW_IMU,23184209,12,-566,16649,-60,40,28,120,125,323,0,3408
RAW_IMU,23205210,37,-465,16656,-53,56,28,120,140,331,0,3360
RAW_IMU,23226210,0,-423,16685,-56,43,1,112,133,333,0,3408
RAW_IMU,23247208,-50,-462,16610,-57,42,36,120,133,326,0,3296
RAW_IMU,23268209,39,-548,16685,-71,61,29,113,129,327,0,3312
RAW_IMU,23289209,21,-497,16669,-52,65,22,122,133,331,0,3344
RAW_IMU,23310209,-75,-564,16626,-54,52,21,121,129,329,0,3344
RAW_IMU,23331375,0,-512,16620,-60,45,26,125,128,321,0,3360
RAW_IMU,23352209,-30,-502,16605,-58,56,26,122,133,326,0,3344
RAW_IMU,23373209,45,-470,16669,-55,36,9,121,131,332,0,3360
RAW_IMU,23394210,-62,-545,16586,-51,49,15,123,127,329,0,3408
RAW_IMU,23415210,-44,-405,16603,-49,42,25,126,134,332,0,3360
RAW_IMU,23436208,-17,-570,16631,-43,54,7,125,135,333,0,3296
RAW_IMU,23457209,-53,-428,16673,-72,54,17,126,136,332,0,3376
RAW_IMU,23478209,-4,-544,16518,-70,50,23,126,139,327,0,3344
RAW_IMU,23499210,-38,-510,16669,-64,35,25,133,130,331,0,3360
RAW_IMU,23520210,10,-534,16646,-51,43,29,125,128,321,0,3312
RAW_IMU,23541208,-10,-494,16571,-57,41,9,126,134,332,0,3312
RAW_IMU,23562209,-67,-449,16624,-50,47,11,113,127,329,0,3360
RAW_IMU,23583209,-54,-554,16645,-56,56,16,121,122,337,0,3360
RAW_IMU,23604209,-79,-462,16586,-69,46,33,114,125,338,0,3376
RAW_IMU,23625210,-20,-488,16677,-66,34,18,116,131,332,0,3360
RAW_IMU,23646208,14,-444,16670,-54,55,30,125,130,328,0,3344
RAW_IMU,23667209,-34,-520,16649,-69,34,6,127,130,328,0,3376
RAW_IMU,23688209,-4,-497,16675,-69,46,4,118,136,325,0,3408
RAW_IMU,23709209,-119,-489,16666,-53,50,12,117,138,336,0,3344
RAW_IMU,23730210,-97,-515,16604,-43,39,23,121,127,327,0,3360
RAW_IMU,23751208,24,-564,16725,-50,54,28,118,127,339,0,3264
RAW_IMU,23772209,-78,-560,16651,-55,45,19,125,133,331,0,3376
RAW_IMU,23793209,94,-475,16677,-60,48,16,113,122,327,0,3408
RAW_IMU,23814210,12,-451,16667,-55,39,6,122,128,333,0,3312
RAW_IMU,23835210,-6,-490,16600,-59,44,5,113,129,334,0,3264
RAW_IMU,23856209,-39,-466,16604,-55,48,8,120,130,336,0,3312
RAW_IMU,23877209,-40,-473,16587,-45,51,19,125,130,321,0,3376
RAW_IMU,23898209,-29,-430,16667,-56,41,13,126,124,329,0,3344
RAW_IMU,23919209,-14,-527,16664,-63,66,17,120,123,321,0,3344
RAW_IMU,23940209,21,-458,16609,-50,41,11,113,129,329,0,3296
RAW_IMU,23961209,-15,-460,16596,-42,64,9,117,135,316,0,3312
RAW_IMU,23982209,-56,-509,16655,-78,52,14,127,133,321,0,3360
RAW_IMU,24003216,-37,-560,16658,-57,58,15,118,129,332,0,3376
RAW_IMU,24024210,-35,-541,16625,-51,51,22,118,131,329,0,3312
RAW_IMU,24045210,19,-500,16511,-58,57,23,120,130,338,0,3360
RAW_IMU,24066211,-20,-459,16670,-65,51,15,129,131,334,0,3376
RAW_IMU,24087208,-12,-459,16640,-53,50,23,116,129,337,0,3360
RAW_IMU,24108209,-93,-489,16637,-57,58,10,118,119,325,0,3312
RAW_IMU,24129209,7,-476,16615,-50,55,10,121,136,334,0,3360
RAW_IMU,24150209,-46,-482,16623,-64,46,19,121,134,325,0,3312
RAW_IMU,24171210,-72,-500,16670,-57,54,15,120,128,326,0,3312
RAW_IMU,24192210,-25,-505,16638,-57,51,10,135,130,328,0,3360
RAW_IMU,24213210,-53,-511,16653,-55,45,16,121,124,327,0,3408
RAW_IMU,24234211,19,-525,16603,-68,42,25,121,122,315,0,3408
RAW_IMU,24255209,-1,-495,16670,-63,36,6,123,119,322,0,3312
RAW_IMU,24276209,20,-503,16678,-61,33,12,117,121,331,0,3408
RAW_IMU,24297210,38,-470,16584,-56,45,17,113,129,337,0,3344
RAW_IMU,24318210,-42,-507,16622,-53,50,2,125,130,321,0,3376
RAW_IMU,24339211,-24,-465,16636,-64,58,22,118,127,329,0,3312
RAW_IMU,24360209,-47,-527,16669,-57,48,24,129,129,329,0,3312
RAW_IMU,24381209,11,-491,16595,-48,39,12,125,125,318,0,3408
RAW_IMU,24402209,-37,-519,16617,-59,41,12,129,127,332,0,3296
RAW_IMU,24423210,-58,-522,16687,-51,39,18,122,128,338,0,3376
RAW_IMU,24444212,-32,-485,16604,-42,63,29,121,124,332,0,3296
RAW_IMU,24465211,4,-516,16695,-38,54,10,118,124,334,0,3440
RAW_IMU,24486211,-60,-517,16710,-49,56,22,118,131,332,0,3440
RAW_IMU,24507211,-16,-567,16643,-51,49,21,117,128,333,0,3344
RAW_IMU,24528208,33,-437,16560,-58,38,14,125,125,331,0,3312
RAW_IMU,24549214,-17,-448,16651,-42,44,41,122,135,323,0,3376
RAW_IMU,24570212,-45,-506,16628,-53,40,33,113,131,332,0,3408
RAW_IMU,24591209,-5,-496,16702,-44,52,20,122,140,331,0,3344
RAW_IMU,24612209,-74,-555,16594,-63,49,21,118,144,327,0,3376
RAW_IMU,24633210,-90,-514,16698,-61,46,4,122,140,336,0,3312
RAW_IMU,24654208,17,-500,16622,-59,44,19,121,127,327,0,3312
RAW_IMU,24675209,-112,-458,16607,-70,39,15,116,122,329,0,3376
RAW_IMU,24696209,-46,-510,16635,-34,40,7,127,125,333,0,3360
RAW_IMU,24717210,2,-493,16636,-68,64,31,120,128,331,0,3344
RAW_IMU,24738210,-3,-480,16668,-62,44,19,118,127,332,0,3376
RAW_IMU,24759210,-20,-452,16637,-60,48,-4,116,131,329,0,3312
RAW_IMU,24780210,-9,-494,16653,-49,56,-1,120,118,338,0,3376
RAW_IMU,24801211,-72,-537,16647,-62,52,15,112,133,331,0,3408
RAW_IMU,24822211,48,-545,16606,-37,37,22,127,138,323,0,3344
RAW_IMU,24843211,12,-473,16608,-71,56,27,110,136,332,0,3376
RAW_IMU,24864208,-22,-515,16666,-65,41,42,120,130,333,0,3312
RAW_IMU,24885209,-4,-567,16638,-66,45,20,125,123,331,0,3360
RAW_IMU,24906209,-44,-487,16587,-63,41,0,110,127,329,0,3408
RAW_IMU,24927210,-3,-515,16617,-61,32,12,122,130,331,0,3360
RAW_IMU,24948211,-32,-506,16705,-64,49,2,129,124,329,0,3376
RAW_IMU,24969210,39,-500,16578,-51,56,18,123,131,329,0,3376
RAW_IMU,24990210,-80,-517,16689,-71,49,20,118,131,317,0,3376
RAW_IMU,25011212,-32,-403,16619,-59,51,12,118,136,325,0,3312
RAW_IMU,25032209,-14,-500,16715,-64,41,30,129,127,327,0,3312
RAW_IMU,25053210,-16,-512,16623,-55,59,27,123,127,327,0,3296
RAW_IMU,25074209,-5,-512,16649,-52,64,22,118,124,334,0,3344
RAW_IMU,25095210,12,-507,16622,-65,70,30,118,131,329,0,3312
RAW_IMU,25116210,-53,-501,16641,-70,48,13,112,135,340,0,3360
RAW_IMU,25137211,-10,-540,16669,-60,47,19,127,135,333,0,3312
RAW_IMU,25158210,-47,-570,16667,-61,41,17,120,128,328,0,3312
RAW_IMU,25179210,-11,-483,16648,-63,61,19,118,136,322,0,3376
RAW_IMU,25200210,39,-512,16617,-58,53,17,116,127,332,0,3360
RAW_IMU,25221211,-1,-519,16636,-56,52,12,131,129,329,0,3312
RAW_IMU,25242211,33,-549,16647,-58,64,27,116,131,325,0,3376
RAW_IMU,25263208,-42,-480,16661,-63,51,23,130,135,328,0,3296
RAW_IMU,25284209,8,-437,16768,-65,51,19,114,133,333,0,3344
RAW_IMU,25305209,-49,-543,16609,-46,44,20,125,135,333,0,3360
RAW_IMU,25326210,24,-522,16624,-58,59,30,118,131,329,0,3408
RAW_IMU,25347210,-22,-502,16616,-49,48,22,125,130,331,0,3376
RAW_IMU,25368208,-68,-486,16647,-57,44,20,114,138,336,0,3360
RAW_IMU,25389209,-7,-503,16683,-45,39,16,123,129,329,0,3376
RAW_IMU,25410209,-26,-457,16579,-65,57,14,117,135,328,0,3376
RAW_IMU,25431209,-72,-508,16648,-53,39,26,121,122,325,0,3376
RAW_IMU,25452375,1,-465,16611,-63,47,15,118,134,325,0,3344
RAW_IMU,25473209,0,-409,16636,-39,50,20,118,127,329,0,3296
RAW_IMU,25494209,-19,-481,16642,-46,53,25,125,128,336,0,3376
RAW_IMU,25515210,39,-526,16674,-69,51,26,116,139,334,0,3360
RAW_IMU,25536210,-54,-478,16660,-61,62,14,126,124,320,0,3376
RAW_IMU,25557208,16,-556,16676,-57,59,18,118,131,327,0,3312
RAW_IMU,25578209,-32,-538,16644,-60,52,19,129,131,329,0,3408
RAW_IMU,25599209,22,-495,16575,-54,42,26,129,131,329,0,3408
RAW_IMU,25620210,6,-517,16668,-52,39,13,118,127,329,0,3360
RAW_IMU,25641210,-13,-462,16585,-61,55,11,125,125,333,0,3472
RAW_IMU,25662208,-34,-503,16616,-58,49,10,127,133,331,0,3312
RAW_IMU,25683209,-9,-457,16704,-55,54,27,126,129,337,0,3408
RAW_IMU,25704209,-40,-434,16551,-52,49,11,122,125,331,0,3408
RAW_IMU,25725209,3,-504,16626,-42,37,15,123,127,339,0,3376
RAW_IMU,25746210,64,-522,16652,-57,49,15,126,129,327,0,3408
RAW_IMU,25767208,-47,-499,16655,-57,64,7,123,124,327,0,3248
RAW_IMU,25788209,10,-509,16621,-63,62,10,122,128,323,0,3376
RAW_IMU,25809209,31,-503,16581,-51,44,15,122,133,328,0,3376
RAW_IMU,25830209,-43,-555,16586,-48,46,14,126,141,332,0,3376
RAW_IMU,25851210,-44,-501,16649,-76,52,19,116,127,332,0,3376
RAW_IMU,25872208,-7,-493,16633,-60,42,21,110,122,337,0,3296
RAW_IMU,25893209,25,-466,16559,-75,46,6,122,123,331,0,3360
RAW_IMU,25914209,-36,-518,16665,-56,39,27,126,134,339,0,3376
RAW_IMU,25935210,34,-508,16647,-56,55,15,129,136,322,0,3344
RAW_IMU,25956210,6,-511,16644,-53,40,20,114,130,326,0,3360
RAW_IMU,25977209,-3,-497,16693,-63,35,21,121,139,332,0,3312
RAW_IMU,25998209,-14,-451,16645,-46,50,15,117,138,323,0,3312
RAW_IMU,26019211,-18,-533,16638,-51,51,-1,113,122,329,0,3376
RAW_IMU,26040208,-57,-531,16693,-50,52,26,122,133,326,0,3376
RAW_IMU,26061212,12,-503,16673,-43,46,16,120,125,340,0,3360
RAW_IMU,26082212,-23,-547,16611,-64,56,11,118,136,329,0,3296
RAW_IMU,26103209,-66,-441,16613,-46,48,12,123,131,332,0,3376
RAW_IMU,26124209,35,-559,16599,-58,47,28,123,122,329,0,3408
RAW_IMU,26145210,33,-491,16628,-62,49,6,126,127,325,0,3408
RAW_IMU,26166209,-46,-452,16683,-61,52,25,110,127,327,0,3296
RAW_IMU,26187209,-34,-443,16653,-60,54,25,123,136,322,0,3360
RAW_IMU,26208209,26,-470,16693,-55,36,18,113,129,329,0,3376
RAW_IMU,26229210,-46,-507,16680,-61,43,14,123,127,327,0,3312
RAW_IMU,26250210,0,-546,16643,-50,61,22,125,130,321,0,3344
RAW_IMU,26271210,-19,-488,16658,-53,49,14,121,129,327,0,3312
RAW_IMU,26292210,-27,-560,16652,-54,45,19,129,124,322,0,3312
RAW_IMU,26313210,-49,-523,16636,-50,42,8,130,138,328,0,3376
RAW_IMU,26334210,-42,-576,16677,-61,48,3,120,121,336,0,3344
