mavpackettype,time_usec,xacc,yacc,zacc,xgyro,ygyro,zgyro,xmag,ymag,zmag,id,temperature
RAW_IMU,245028209,-16517,-492,-271,-100,46,36,472,-111,80,0,2992
RAW_IMU,245049212,-16510,-469,-300,-92,59,25,474,-123,80,0,3024
RAW_IMU,245070209,-16532,-484,-251,-76,42,15,482,-116,98,0,2992
RAW_IMU,245091209,-16564,-401,-251,-101,58,24,470,-110,89,0,3008
RAW_IMU,245112210,-16500,-435,-227,-87,58,37,468,-117,77,0,3008
RAW_IMU,245133214,-16475,-414,-297,-97,47,25,470,-112,89,0,3024
RAW_IMU,245154211,-16548,-433,-220,-93,55,27,478,-107,89,0,3008
RAW_IMU,245175208,-16515,-379,-266,-97,57,26,473,-112,91,0,3008
RAW_IMU,245196209,-16529,-463,-245,-75,40,22,478,-107,91,0,2992
RAW_IMU,245217209,-16512,-424,-216,-97,54,28,474,-121,83,0,3008
RAW_IMU,245238210,-16489,-315,-263,-150,58,-1,482,-125,90,0,3072
RAW_IMU,245259210,-16506,-353,-242,-197,67,30,477,-121,93,0,2912
RAW_IMU,245280210,-16445,-301,-213,-293,52,14,484,-119,94,0,2992
RAW_IMU,245301211,-16602,-364,-157,-456,55,1,482,-111,93,0,3008
RAW_IMU,245322211,-16429,-371,-278,-595,56,20,481,-115,96,0,3008
RAW_IMU,245343211,-16609,-159,-292,-773,14,6,472,-108,90,0,3072
RAW_IMU,245364211,-16363,-2,-86,-1015,24,30,481,-112,89,0,2960
RAW_IMU,245385211,-16364,-219,-275,-1357,55,1,480,-108,93,0,3088
RAW_IMU,245406211,-16722,-148,-773,-1539,50,8,487,-116,83,0,3024
RAW_IMU,245427211,-16579,-500,-880,-1564,-11,-5,480,-118,78,0,2992
RAW_IMU,245448208,-16631,-685,-57,-1460,-72,-17,467,-111,83,0,3008
RAW_IMU,245469209,-16230,-533,485,-1243,43,7,473,-107,84,0,2896
RAW_IMU,245490209,-16646,-975,-24,-1118,127,-11,477,-121,80,0,3136
RAW_IMU,245511210,-16455,-554,-338,-1011,-31,27,476,-117,77,0,3008
RAW_IMU,245532211,-16180,-496,-643,-940,118,4,477,-113,80,0,3008
RAW_IMU,245553210,-16648,-528,-685,-603,-50,40,485,-113,73,0,3008
RAW_IMU,245574210,-16269,-404,-62,-195,24,26,477,-113,78,0,2944
RAW_IMU,245595210,-16683,-497,241,137,22,38,487,-106,73,0,2944
RAW_IMU,245616210,-16326,-474,-22,145,105,9,481,-115,74,0,3008
RAW_IMU,245637211,-16691,-591,-435,36,95,9,482,-111,73,0,3072
RAW_IMU,245658210,-16448,-450,-620,12,50,29,472,-106,76,0,3088
RAW_IMU,245679211,-16598,-336,-329,75,50,42,484,-124,79,0,2912
RAW_IMU,245700211,-16451,-309,-79,108,37,26,487,-108,73,0,3056
RAW_IMU,245721211,-16601,-423,-133,80,108,13,472,-101,83,0,3024
RAW_IMU,245742211,-16513,-370,-350,-14,46,19,486,-112,82,0,3136
RAW_IMU,245763208,-16558,-452,-405,-149,74,14,484,-112,74,0,2912
RAW_IMU,245784209,-16579,-555,-312,-129,34,39,470,-117,82,0,3072
RAW_IMU,245805209,-16447,-420,-101,-66,38,26,484,-119,69,0,3008
RAW_IMU,245826210,-16438,-381,-182,-49,33,33,480,-113,85,0,3088
RAW_IMU,245847210,-16478,-401,-266,-67,78,31,477,-123,71,0,3072
RAW_IMU,245868211,-16595,-447,-315,-78,38,28,489,-115,72,0,3088
RAW_IMU,245889211,-16475,-534,-220,-34,31,22,473,-115,77,0,2960
RAW_IMU,245910211,-16589,-436,-161,-32,48,38,482,-113,73,0,3088
RAW_IMU,245931211,-16483,-427,-205,-62,46,16,477,-113,76,0,3008
RAW_IMU,245952208,-16532,-341,-316,-56,45,35,477,-121,80,0,3008
RAW_IMU,245973209,-16517,-461,-262,-73,49,42,477,-108,76,0,2960
RAW_IMU,245994209,-16510,-465,-190,-51,39,40,482,-116,66,0,3088
RAW_IMU,246015210,-16466,-439,-217,-53,67,29,476,-117,74,0,3088
RAW_IMU,246036375,-16643,-423,-285,-38,60,17,473,-110,82,0,3072
RAW_IMU,246057209,-16455,-485,-264,-31,70,21,474,-116,76,0,3024
RAW_IMU,246078209,-16478,-450,-287,22,43,43,477,-111,78,0,2912
RAW_IMU,246099210,-16472,-523,-280,23,60,18,482,-104,78,0,3072
RAW_IMU,246120210,-16497,-313,-170,40,71,24,484,-119,74,0,3008
RAW_IMU,284193210,-16509,-495,-326,-66,56,33,477,-113,83,0,3056
RAW_IMU,284214375,-16517,-415,-255,-55,50,24,480,-113,93,0,3072
RAW_IMU,284235209,-16495,-388,-290,-57,56,28,480,-111,85,0,2960
RAW_IMU,284256210,-16512,-433,-228,-71,51,32,470,-105,96,0,3072
RAW_IMU,284277210,-16504,-492,-370,-54,62,20,482,-108,88,0,3024
RAW_IMU,284298211,-16527,-451,-247,-78,60,36,481,-105,87,0,3024
RAW_IMU,284319209,-16527,-409,-249,-76,51,34,480,-111,83,0,3008
RAW_IMU,284340209,-16523,-384,-267,-50,49,38,474,-108,80,0,3136
RAW_IMU,284361210,-16456,-412,-197,-60,47,5,481,-115,87,0,2912
RAW_IMU,284382210,-16472,-427,-312,-71,66,23,480,-116,80,0,3072
RAW_IMU,284403211,-16557,-462,-272,-74,47,28,478,-112,79,0,3008
RAW_IMU,284424209,-16499,-489,-304,-76,54,33,484,-115,94,0,3008
RAW_IMU,284445209,-16468,-446,-295,-59,50,38,487,-108,85,0,3088
RAW_IMU,284466209,-16478,-357,-283,-54,57,35,484,-115,87,0,2880
RAW_IMU,284487209,-16417,-328,-321,-55,41,27,477,-113,83,0,3088
RAW_IMU,284508210,-16644,-425,-371,-66,51,25,481,-110,94,0,3088
RAW_IMU,284529208,-16574,-468,-389,-69,58,29,482,-111,85,0,3072
RAW_IMU,284550209,-16648,-409,-320,-58,31,27,480,-106,83,0,3056
RAW_IMU,284571209,-16527,-339,-320,-75,56,30,476,-105,82,0,2912
RAW_IMU,284592209,-16581,-376,-315,-58,47,37,485,-113,85,0,3088
RAW_IMU,284613210,-16551,-415,-268,-74,51,29,473,-110,82,0,3072
RAW_IMU,284634208,-16618,-388,-337,-68,64,28,481,-107,82,0,2960
RAW_IMU,284655209,-16465,-412,-369,-70,48,25,482,-104,94,0,3088
RAW_IMU,284676209,-16553,-450,-334,-78,58,29,472,-111,80,0,2960
RAW_IMU,284697210,-16483,-426,-163,-72,40,22,482,-118,78,0,3008
RAW_IMU,284718210,-16581,-438,-248,-58,62,19,474,-111,93,0,2960
RAW_IMU,284739209,-16475,-412,-393,-64,52,23,480,-116,80,0,3024
RAW_IMU,284760209,-16507,-423,-408,-60,40,43,484,-122,84,0,3072
RAW_IMU,284781209,-16465,-434,-236,-54,56,28,485,-118,85,0,2992
RAW_IMU,284802209,-16506,-464,-279,-73,57,31,478,-117,82,0,3008
RAW_IMU,284823209,-16518,-402,-322,-61,50,32,481,-107,79,0,3024
RAW_IMU,284844209,-16523,-361,-303,-56,48,42,480,-121,85,0,2960
RAW_IMU,284865209,-16466,-387,-296,-41,51,29,476,-107,87,0,2960
RAW_IMU,284886209,-16473,-509,-254,-57,52,8,477,-113,78,0,3088
RAW_IMU,284907209,-16522,-549,-333,-71,59,33,469,-104,93,0,3008
RAW_IMU,284928208,-16541,-404,-351,-54,35,19,474,-108,88,0,3072
RAW_IMU,284949209,-16538,-382,-274,-59,35,27,480,-118,85,0,3008
RAW_IMU,284970209,-16553,-339,-213,-63,50,17,477,-116,85,0,2896
RAW_IMU,284991210,-16476,-413,-286,-58,45,40,478,-117,82,0,3072
RAW_IMU,285012212,-16596,-419,-271,-68,54,31,467,-111,78,0,3088
RAW_IMU,285033208,-16459,-451,-365,-78,49,19,473,-110,89,0,3072
RAW_IMU,285054209,-16422,-479,-277,-74,68,32,470,-105,82,0,3056
RAW_IMU,285075209,-16390,-342,-314,-73,49,36,470,-115,89,0,2896
RAW_IMU,285096210,-16372,-383,-226,-70,53,20,478,-107,84,0,3024
RAW_IMU,285117210,-16544,-529,-263,-67,58,29,476,-115,91,0,3056
RAW_IMU,285138209,-16524,-382,-278,-62,50,13,465,-122,89,0,3008
RAW_IMU,285159209,-16379,-405,-329,-81,63,15,484,-112,77,0,3024
RAW_IMU,285180210,-16573,-427,-242,-74,31,20,482,-113,88,0,2960
RAW_IMU,285201210,-16484,-382,-337,-63,60,18,468,-107,89,0,3088
RAW_IMU,285222211,-16581,-357,-500,-55,70,38,468,-107,87,0,3024
RAW_IMU,285243209,-16509,-411,-237,-66,-3,37,473,-112,91,0,3024
RAW_IMU,285264209,-16486,-400,-1,-72,84,17,486,-110,82,0,3136
RAW_IMU,285285209,-16488,-412,-329,-58,68,33,484,-117,82,0,3008
RAW_IMU,285306210,-16546,-424,-473,-63,80,13,474,-106,78,0,2992
RAW_IMU,285327212,-16472,-414,-400,-62,23,25,476,-119,87,0,3088
RAW_IMU,285348211,-16534,-506,-183,-51,40,26,481,-110,82,0,2992
RAW_IMU,285369211,-16457,-424,-126,-70,57,28,480,-121,76,0,3088
RAW_IMU,285390211,-16501,-382,-432,-66,72,18,470,-112,96,0,2960
RAW_IMU,285411208,-16478,-455,-403,-57,37,36,477,-108,88,0,3088
RAW_IMU,285432214,-16609,-476,-333,-73,40,22,470,-110,89,0,3072
RAW_IMU,285453212,-16537,-458,-131,-76,36,29,478,-110,91,0,3136
RAW_IMU,285474209,-16544,-366,-296,-73,89,27,481,-115,77,0,2992
RAW_IMU,285495209,-16463,-379,-440,-61,62,30,468,-117,91,0,3024
RAW_IMU,285516210,-16515,-413,-381,-49,45,45,472,-111,98,0,3088
RAW_IMU,285537208,-16497,-341,-234,-56,49,9,481,-112,84,0,3024
RAW_IMU,285558209,-16476,-451,-274,-63,52,27,491,-122,84,0,3024
RAW_IMU,285579209,-16580,-386,-458,-63,73,23,472,-113,85,0,2960
RAW_IMU,285600210,-16522,-415,-425,-51,46,39,470,-110,91,0,3056
RAW_IMU,285621210,-16444,-372,-192,-78,26,33,482,-106,78,0,3072
RAW_IMU,285642210,-16556,-442,-137,-75,59,18,476,-110,84,0,3120
RAW_IMU,285663210,-16501,-460,-326,-55,70,32,485,-108,80,0,2992
RAW_IMU,285684211,-16502,-365,-459,-53,46,19,477,-108,83,0,2992
RAW_IMU,285705211,-16483,-406,-323,-76,38,24,476,-119,79,0,3024
RAW_IMU,285726211,-16453,-479,-134,-77,32,8,473,-112,89,0,3008
RAW_IMU,285747208,-16467,-326,-191,-79,53,21,472,-118,78,0,3008
RAW_IMU,285768209,-16560,-353,-372,-63,70,23,486,-102,89,0,3024
RAW_IMU,285789209,-16515,-444,-480,-63,38,21,480,-108,88,0,2960
RAW_IMU,285810210,-16597,-509,-235,-69,51,30,477,-104,76,0,3120
RAW_IMU,285831211,-16493,-399,-174,-50,49,6,478,-117,89,0,3120
RAW_IMU,285852210,-16435,-458,-313,-41,60,28,480,-116,83,0,3024
RAW_IMU,285873210,-16507,-479,-352,-55,56,32,477,-104,85,0,3072
RAW_IMU,285894210,-16505,-454,-238,-46,41,31,480,-104,76,0,3072
RAW_IMU,285915210,-16562,-384,-168,-77,62,37,478,-117,84,0,3008
RAW_IMU,285936211,-16574,-424,-307,-79,71,36,490,-113,85,0,3072
RAW_IMU,285957210,-16557,-455,-383,-81,54,32,472,-113,90,0,3008
RAW_IMU,285978211,-16518,-373,-310,-65,48,31,470,-110,89,0,3120
RAW_IMU,285999211,-16539,-490,-248,-73,53,24,473,-112,89,0,2960
RAW_IMU,286020209,-16483,-438,-310,-88,57,23,484,-115,84,0,3024
RAW_IMU,286041208,-16595,-498,-329,-49,57,29,491,-115,84,0,2912
RAW_IMU,286062209,-16539,-411,-337,-51,36,21,484,-110,74,0,3120
RAW_IMU,286083209,-16554,-361,-240,-52,64,17,476,-115,84,0,2960
RAW_IMU,286104210,-16538,-396,-293,-56,71,27,472,-106,90,0,3008
RAW_IMU,286125210,-16552,-348,-386,-83,59,46,474,-113,83,0,3008
RAW_IMU,286146211,-16545,-451,-352,-71,49,37,484,-105,87,0,3072
RAW_IMU,286167211,-16523,-461,-262,-59,39,26,477,-113,85,0,3024
RAW_IMU,286188208,-16582,-397,-298,-74,65,36,485,-116,85,0,2896
RAW_IMU,286209209,-16508,-489,-329,-63,50,22,480,-113,85,0,2992
RAW_IMU,286230209,-16491,-469,-394,-59,65,33,482,-116,80,0,3056
RAW_IMU,286251208,-16489,-389,-216,-68,45,34,480,-113,85,0,3088
RAW_IMU,286272209,-16467,-456,-170,-47,57,27,487,-111,83,0,3136
RAW_IMU,286293209,-16502,-399,-276,-68,57,28,474,-125,85,0,2960
RAW_IMU,286314210,-16547,-454,-395,-53,51,15,478,-117,79,0,3008
RAW_IMU,286335375,-16502,-363,-261,-59,48,39,474,-108,73,0,3088
RAW_IMU,286356209,-16524,-462,-316,-90,48,26,478,-117,74,0,3072
RAW_IMU,286377210,-16549,-502,-267,-59,61,28,477,-116,73,0,3088
RAW_IMU,286398210,-16477,-378,-290,-39,49,28,486,-110,82,0,3008
RAW_IMU,286419211,-16426,-484,-199,-36,45,28,482,-106,88,0,3120
RAW_IMU,286440209,-16555,-443,-400,-36,61,27,491,-112,82,0,3072
RAW_IMU,286461209,-16493,-360,-462,-46,52,30,478,-119,91,0,3008
RAW_IMU,286482210,-16584,-477,-297,-57,39,27,482,-118,88,0,3088
RAW_IMU,286503210,-16432,-444,-125,-22,35,33,470,-119,84,0,2992
RAW_IMU,286524211,-16538,-478,-170,1,74,24,476,-110,89,0,3072
RAW_IMU,286545209,-16433,-456,-289,24,76,13,484,-102,79,0,3072
RAW_IMU,286566209,-16506,-454,-398,24,58,33,485,-113,80,0,3008
RAW_IMU,286587209,-16563,-411,-269,8,35,26,478,-105,79,0,2944
RAW_IMU,286608209,-16453,-374,-146,16,58,18,482,-108,88,0,3008
RAW_IMU,286629210,-16537,-466,-307,62,57,31,481,-112,96,0,3008
RAW_IMU,286650208,-16537,-604,-331,168,49,30,485,-121,78,0,3088
RAW_IMU,286671209,-16534,-637,-273,349,74,28,478,-110,89,0,3008
RAW_IMU,286692209,-16472,-444,-326,504,87,48,478,-115,82,0,2960
RAW_IMU,286713209,-16515,-504,-328,592,79,38,477,-116,80,0,2992
RAW_IMU,286734210,-16496,-550,-171,715,41,57,481,-107,84,0,3072
RAW_IMU,286755208,-16526,-641,-133,804,90,29,465,-105,91,0,3072
RAW_IMU,286776209,-16530,-578,-304,990,107,27,477,-116,88,0,3008
RAW_IMU,286797209,-16445,-705,-371,1251,74,44,490,-116,80,0,2912
RAW_IMU,286818210,-16689,-650,-698,1503,97,59,480,-121,88,0,3088
RAW_IMU,286839210,-16482,-436,-361,1669,39,91,472,-108,98,0,2960
RAW_IMU,286860209,-16519,-559,43,1741,114,55,477,-125,95,0,3072
RAW_IMU,286881209,-16473,-667,-218,1842,121,41,482,-116,95,0,3072
RAW_IMU,286902209,-16610,-941,-464,2001,149,77,482,-111,98,0,2912
RAW_IMU,286923209,-16442,-646,-441,2264,97,84,468,-117,101,0,3008
RAW_IMU,286944209,-16476,-624,-108,2457,132,92,473,-112,109,0,2992
RAW_IMU,286965209,-16480,-604,-391,2670,146,80,467,-121,103,0,3008
RAW_IMU,286986209,-16515,-608,-317,2895,93,122,485,-117,104,0,3008
RAW_IMU,287007210,-16548,-683,-265,3117,220,89,470,-105,106,0,2960
RAW_IMU,287028210,-16893,-441,-656,3300,96,91,480,-106,112,0,3120
RAW_IMU,287049209,-16573,-398,-552,3466,100,82,485,-113,115,0,3072
RAW_IMU,287070209,-16967,-723,-334,3667,269,137,472,-116,122,0,3088
RAW_IMU,287091209,-16738,-757,-333,3976,13,212,470,-117,126,0,3136
RAW_IMU,287112209,-16728,-373,-296,3978,331,112,485,-116,132,0,2912
RAW_IMU,287133210,-16415,-1276,-142,4326,31,149,478,-110,121,0,3072
RAW_IMU,287154209,-16262,-529,-372,4379,279,25,477,-104,130,0,3072
RAW_IMU,287175210,-16459,118,-861,4616,31,119,474,-121,142,0,3088
RAW_IMU,287196210,-16451,-261,-273,4681,128,108,480,-113,139,0,2960
RAW_IMU,287217211,-17129,-421,-373,4708,128,139,472,-111,142,0,3120
RAW_IMU,287238211,-15916,-337,-490,4665,226,206,478,-110,143,0,3024
RAW_IMU,287259208,-16187,250,-843,4605,92,-52,487,-104,149,0,3072
RAW_IMU,287280209,-17053,-440,-712,4509,172,145,478,-105,163,0,2960
RAW_IMU,287301209,-15421,-1589,-218,4462,183,265,477,-111,164,0,3008
RAW_IMU,287322210,-16032,572,-314,4305,95,-3,476,-102,168,0,3088
RAW_IMU,287343210,-16321,-278,-370,4302,200,339,473,-100,170,0,3136
RAW_IMU,287364209,-17250,-949,-475,4106,87,-17,480,-104,176,0,3056
RAW_IMU,287385209,-15690,412,-667,4099,208,174,470,-98,172,0,3008
RAW_IMU,287406210,-16165,-1148,-15,3972,154,148,481,-105,172,0,2944
RAW_IMU,287427210,-16834,-493,-738,3794,-24,99,473,-100,177,0,3136
RAW_IMU,287448210,-16614,-583,-389,3766,352,191,482,-101,188,0,3120
RAW_IMU,287469208,-16634,-1033,-423,3584,-25,54,482,-92,193,0,3056
RAW_IMU,287490209,-16856,-219,-708,3450,296,90,477,-96,188,0,3088
RAW_IMU,287511209,-16894,-699,-583,3414,-33,75,476,-90,187,0,2944
RAW_IMU,287532210,-16529,-637,-909,3252,294,114,480,-92,191,0,2992
RAW_IMU,287553214,-16716,-121,-64,3209,-48,99,460,-90,195,0,3088
RAW_IMU,287574211,-15840,-197,-134,3016,365,49,465,-85,202,0,3072
RAW_IMU,287595208,-17021,-233,-668,3007,44,68,467,-87,203,0,3072
RAW_IMU,287616209,-15977,206,-510,2965,3,134,470,-71,199,0,2912
RAW_IMU,287637209,-16818,-523,-366,2780,269,107,470,-73,212,0,3008
RAW_IMU,287658210,-16113,-489,-269,2703,-50,200,467,-72,213,0,3136
RAW_IMU,287679210,-16090,-463,3,2472,214,86,470,-71,217,0,3024
RAW_IMU,287700210,-16723,-420,7,2460,-33,14,472,-70,215,0,3072
RAW_IMU,287721211,-16465,-100,-350,2290,219,20,474,-70,218,0,2992
RAW_IMU,287742211,-16707,-170,-687,2101,17,88,467,-72,210,0,3008
RAW_IMU,287763211,-16196,-133,-491,1942,196,78,461,-82,218,0,3008
RAW_IMU,287784211,-16804,-557,-535,1837,70,87,469,-77,215,0,3008
RAW_IMU,287805211,-16265,-111,-643,1660,145,72,468,-66,219,0,2992
RAW_IMU,287826211,-16800,-338,-732,1595,59,97,473,-66,222,0,3024
RAW_IMU,287847211,-16361,-548,-200,1556,-9,69,474,-65,223,0,3056
RAW_IMU,287868208,-16708,-414,-256,1512,175,22,476,-59,217,0,3008
RAW_IMU,287889209,-16443,-486,-170,1467,-3,40,467,-62,228,0,3072
RAW_IMU,287910209,-16470,-295,-414,1404,204,38,469,-67,220,0,3008
RAW_IMU,287931210,-16665,-572,-810,1457,17,82,473,-49,226,0,3008
RAW_IMU,287952211,-16295,-813,-477,1576,91,52,460,-64,226,0,2992
RAW_IMU,287973210,-16685,-906,-509,1774,112,82,476,-64,226,0,3008
RAW_IMU,287994210,-16340,-382,-353,1917,55,90,476,-52,226,0,2960
RAW_IMU,288015211,-16645,-325,-259,2111,142,66,467,-65,235,0,2992
RAW_IMU,288036211,-15923,-504,-254,2430,45,50,461,-58,228,0,3072
RAW_IMU,288057212,-16864,-963,-441,2620,231,73,472,-50,225,0,3088
RAW_IMU,288078211,-16466,-573,-511,2920,102,170,476,-42,234,0,3024
RAW_IMU,288099211,-16311,-1173,-270,3118,185,77,465,-44,236,0,3024
RAW_IMU,288120208,-16343,-1159,-256,3318,176,103,472,-53,230,0,2960
RAW_IMU,288141209,-16425,-716,-478,3480,25,62,477,-46,235,0,3008
RAW_IMU,288162211,-16525,-896,-710,3422,200,6,472,-48,242,0,3088
RAW_IMU,288183211,-16912,-274,-466,3598,26,123,468,-35,244,0,3008
RAW_IMU,288204208,-16151,-730,-253,3811,177,157,477,-38,237,0,3024
RAW_IMU,288225209,-17109,-763,-329,4056,236,128,468,-27,251,0,2912
RAW_IMU,288246209,-15847,-700,-348,4141,95,131,472,-26,242,0,3072
RAW_IMU,288267208,-16773,-845,-768,4426,231,120,465,-25,244,0,3088
RAW_IMU,288288209,-15811,-699,-14,4649,-16,189,472,-31,240,0,3072
RAW_IMU,288309209,-16852,-171,-220,4715,196,78,474,-9,252,0,2944
RAW_IMU,288330209,-17533,-376,-915,4968,147,290,464,-16,257,0,3024
RAW_IMU,288351210,-16535,-1153,-673,4916,64,-52,467,-4,250,0,3088
RAW_IMU,288372208,-16312,146,-1154,4854,362,114,472,0,252,0,2960
RAW_IMU,288393209,-17026,-250,-514,4809,36,187,469,2,250,0,2944
RAW_IMU,288414209,-16499,-1454,-988,4727,228,174,469,-2,267,0,2960
RAW_IMU,288435209,-16349,19,-635,4679,99,119,474,0,260,0,3024
RAW_IMU,288456375,-16915,321,-445,4534,165,154,474,9,255,0,3056
RAW_IMU,288477209,-16339,-933,-150,4309,111,-15,470,13,263,0,3088
RAW_IMU,288498209,-16168,-48,-535,4192,228,34,470,10,266,0,3056
RAW_IMU,288519210,-16889,-291,-652,4138,73,162,468,20,253,0,2944
RAW_IMU,288540210,-15960,127,-279,3904,218,62,468,27,253,0,2992
RAW_IMU,288561208,-16836,-123,-656,3852,101,176,470,32,268,0,3088
RAW_IMU,288582209,-16175,-781,102,3756,166,116,463,37,261,0,3136
RAW_IMU,288603209,-16869,-583,-516,3607,138,130,467,26,255,0,3088
RAW_IMU,288624210,-16377,-262,-440,3436,169,116,473,37,263,0,2960
RAW_IMU,288645210,-16752,-1076,-366,3345,127,153,464,46,262,0,3008
RAW_IMU,288666208,-16621,-630,-444,3204,98,86,464,50,257,0,2960
RAW_IMU,288687209,-16251,-943,-352,3065,122,93,454,53,264,0,3088
RAW_IMU,288708209,-16774,-312,-561,2951,91,20,460,47,256,0,2960
RAW_IMU,288729209,-16282,-248,-444,2858,96,94,468,44,266,0,3008
RAW_IMU,288750210,-16471,-411,-509,2762,197,88,468,64,251,0,2960
RAW_IMU,288771208,-16511,-184,-251,2664,-2,44,460,52,244,0,3088
RAW_IMU,288792209,-16632,-159,-353,2556,181,85,469,60,264,0,3136
RAW_IMU,288813209,-16474,-697,-498,2383,124,137,467,62,257,0,3088
RAW_IMU,288834209,-16474,-882,-409,2286,147,123,461,58,257,0,2960
RAW_IMU,288855210,-16535,-681,-163,2119,91,110,465,59,258,0,3024
RAW_IMU,288876208,-16121,-213,-248,1908,79,17,465,64,256,0,3072
RAW_IMU,288897209,-16739,-583,-520,1711,123,11,467,75,247,0,3008
RAW_IMU,288918209,-16557,-514,-269,1643,-7,52,464,72,250,0,2960
RAW_IMU,288939210,-16619,-358,-380,1462,142,33,467,79,260,0,3088
RAW_IMU,288960210,-16565,-370,-416,1235,69,65,468,66,248,0,3088
RAW_IMU,288981209,-16471,-296,-496,1132,121,40,467,87,250,0,3072
RAW_IMU,289002211,-16485,-598,-445,1190,60,65,464,77,250,0,3056
RAW_IMU,289023209,-16433,-916,-404,1293,123,54,476,71,244,0,3024
RAW_IMU,289044210,-16586,-974,-411,1436,57,68,470,76,244,0,3088
RAW_IMU,289065209,-16360,-902,-217,1618,100,71,456,75,252,0,3088
RAW_IMU,289086209,-16579,-791,-247,1818,140,70,470,83,253,0,3088
RAW_IMU,289107209,-16484,-639,-218,2074,65,56,470,78,248,0,3072
RAW_IMU,289128210,-16497,-874,-94,2329,118,48,468,76,248,0,2992
RAW_IMU,289149210,-16398,-1021,-195,2515,137,54,469,92,247,0,3072
RAW_IMU,289170209,-16682,-796,-413,2740,130,105,467,89,255,0,3120
RAW_IMU,289191209,-16464,-754,-498,2862,184,131,465,93,246,0,3072
RAW_IMU,289212209,-16483,-639,-451,2984,106,90,469,94,245,0,3120
RAW_IMU,289233209,-16517,-686,-453,3248,106,133,469,96,240,0,3008
RAW_IMU,289254210,-16302,-1154,-257,3512,99,108,468,88,244,0,3024
RAW_IMU,289275209,-16777,-1042,-485,3771,213,108,473,98,236,0,3072
RAW_IMU,289296210,-16055,-370,-67,4044,23,77,477,104,233,0,3072
RAW_IMU,289317210,-16978,-785,-616,4294,402,163,464,101,235,0,3120
RAW_IMU,289338211,-16114,-776,-337,4499,14,254,465,107,224,0,2992
RAW_IMU,289359211,-16992,-295,-522,4569,185,39,464,111,233,0,3056
RAW_IMU,289380208,-16238,-1142,-328,4816,90,171,470,110,234,0,3088
RAW_IMU,289401209,-17037,-838,213,4795,114,-13,469,121,223,0,3168
RAW_IMU,289422209,-15837,889,-292,4888,343,177,468,115,222,0,3024
RAW_IMU,289443210,-15531,-677,52,4898,102,246,464,113,233,0,2960
RAW_IMU,289464210,-15797,-67,-750,4682,218,-22,464,121,215,0,3072
RAW_IMU,289485209,-16675,-200,-107,4703,18,59,476,129,207,0,3120
RAW_IMU,289506209,-15823,-167,271,4543,123,163,470,136,212,0,3024
RAW_IMU,289527210,-16595,-559,-250,4325,366,5,464,130,206,0,3008
RAW_IMU,289548210,-16643,-1524,-74,4391,-48,193,478,144,202,0,3008
RAW_IMU,289569210,-17002,-737,-714,4275,396,91,484,136,207,0,3088
RAW_IMU,289590208,-16731,-292,-782,4199,82,145,461,147,196,0,3088
RAW_IMU,289611209,-16521,-719,-482,4096,150,150,469,142,196,0,3056
RAW_IMU,289632209,-16377,-1127,-189,3932,190,113,473,151,197,0,2944
RAW_IMU,289653210,-16606,-378,-10,3917,154,61,468,148,195,0,3008
RAW_IMU,289674214,-16134,-954,-466,3704,209,85,469,152,193,0,3024
RAW_IMU,289695211,-16855,-1245,-100,3715,64,118,468,148,187,0,3008
RAW_IMU,289716208,-16313,-438,-16,3646,142,41,474,140,193,0,3072
RAW_IMU,289737209,-16387,-135,-398,3554,108,117,476,151,180,0,2960
RAW_IMU,289758209,-16954,-881,-619,3488,154,82,477,155,174,0,3024
RAW_IMU,289779210,-15760,-83,-320,3390,161,119,469,159,179,0,3008
RAW_IMU,289800210,-17031,-234,-449,3283,63,8,465,153,180,0,3008
RAW_IMU,289821210,-15641,-234,117,3233,52,87,463,158,177,0,3008
RAW_IMU,289842211,-17059,-581,-468,3186,323,143,470,153,163,0,2960
RAW_IMU,289863211,-16136,-465,-322,3071,-97,188,472,157,161,0,3072
RAW_IMU,289884211,-15985,-269,-395,2904,346,-47,476,168,160,0,3088
RAW_IMU,289905211,-17183,-657,-462,2868,14,74,476,163,163,0,3088
RAW_IMU,289926211,-15563,-185,48,2794,86,129,469,164,157,0,3088
RAW_IMU,289947211,-16571,-7,-389,2537,287,-71,487,176,164,0,2960
RAW_IMU,289968211,-16319,-905,-391,2552,-70,179,468,168,160,0,3072
RAW_IMU,289989208,-15819,-908,34,2335,268,60,474,159,152,0,3008
RAW_IMU,290010211,-16876,-788,-260,2285,38,25,465,173,145,0,3088
RAW_IMU,290031211,-16079,-374,37,2256,-19,73,465,163,143,0,2944
RAW_IMU,290052211,-16765,-489,-232,2097,305,70,468,165,148,0,3072
RAW_IMU,290073212,-16357,-427,-354,2010,-44,145,481,170,143,0,3008
RAW_IMU,290094211,-16394,-635,-301,1831,225,10,468,165,148,0,3088
RAW_IMU,290115211,-16656,-1013,-180,1715,-9,71,476,173,145,0,3072
RAW_IMU,290136211,-16202,-626,-79,1526,177,14,477,167,134,0,2960
RAW_IMU,290157211,-16727,-475,-376,1367,73,31,476,168,143,0,3008
RAW_IMU,290178212,-16281,-428,-338,1333,57,54,482,174,139,0,3088
RAW_IMU,290199211,-16794,-788,-448,1371,131,62,472,157,130,0,3008
RAW_IMU,290220211,-16261,-728,-91,1380,23,100,477,162,139,0,3008
RAW_IMU,290241208,-16563,-942,-4,1353,139,43,473,180,136,0,3008
RAW_IMU,290262209,-16511,-1028,-268,1294,35,70,476,173,133,0,3088
RAW_IMU,290283211,-16297,-612,-165,1213,109,42,465,165,138,0,3008
RAW_IMU,290304211,-17148,-1030,-295,1111,87,53,477,179,127,0,3008
RAW_IMU,290325208,-16223,-388,-201,1028,3,64,472,167,130,0,3024
RAW_IMU,290346209,-16710,-985,-89,969,168,3,474,169,132,0,3008
RAW_IMU,290367209,-16827,-1022,-36,1062,26,27,469,164,130,0,3008
RAW_IMU,290388208,-16485,-797,-147,1052,122,7,484,178,128,0,3088
RAW_IMU,290409209,-16610,-716,-301,1088,54,36,476,173,118,0,3120
RAW_IMU,290430209,-16415,-647,-282,1020,86,61,476,180,131,0,3008
RAW_IMU,290451209,-16593,-688,-408,975,99,71,484,175,118,0,2960
RAW_IMU,290472210,-16573,-550,-266,830,28,48,480,169,112,0,3088
RAW_IMU,290493208,-16439,-446,-108,656,75,30,474,171,132,0,3008
RAW_IMU,290514209,-16525,-600,-103,539,64,38,477,171,117,0,3088
RAW_IMU,290535209,-16534,-646,-173,409,90,35,469,171,125,0,3072
RAW_IMU,290556209,-16537,-742,-271,363,62,37,477,167,120,0,2912
RAW_IMU,290577375,-16454,-712,-293,330,81,27,486,180,123,0,3072
RAW_IMU,290598209,-16600,-630,-305,376,55,36,463,175,118,0,3088
RAW_IMU,290619209,-16464,-655,-205,412,52,45,469,171,127,0,3024
RAW_IMU,290640210,-16586,-734,-168,461,59,29,473,170,118,0,2960
RAW_IMU,290661210,-16489,-761,-222,482,89,32,480,171,125,0,3136
RAW_IMU,290682208,-16471,-808,-153,458,53,59,485,171,115,0,3008
RAW_IMU,290703209,-16406,-647,-25,453,82,28,478,175,123,0,3200
RAW_IMU,290724209,-16508,-486,-233,409,51,41,482,164,120,0,3008
RAW_IMU,290745210,-16442,-614,-120,400,65,40,472,186,117,0,3088
RAW_IMU,290766210,-16494,-805,-163,440,67,47,472,167,125,0,3088
RAW_IMU,290787208,-16459,-653,-249,495,83,46,469,174,110,0,3088
RAW_IMU,290808209,-16502,-673,-227,508,50,39,469,167,110,0,3088
RAW_IMU,290829209,-16472,-641,-262,464,61,31,477,176,110,0,3072
RAW_IMU,290850209,-16447,-724,-207,407,56,49,485,184,107,0,3008
RAW_IMU,290871210,-16546,-722,-156,374,83,33,478,165,109,0,3120
RAW_IMU,290892208,-16458,-726,-261,375,70,54,478,178,114,0,3088
RAW_IMU,290913209,-16468,-665,-234,348,63,20,474,167,112,0,3056
RAW_IMU,290934209,-16484,-433,-149,277,56,29,473,165,118,0,3024
RAW_IMU,290955209,-16455,-567,-189,181,54,43,472,169,105,0,2992
RAW_IMU,290976210,-16559,-536,-98,102,61,39,472,176,110,0,3088
RAW_IMU,290997208,-16491,-606,-167,27,46,25,485,171,117,0,3024
RAW_IMU,291018211,-16494,-630,-206,-48,54,19,473,176,105,0,3136
RAW_IMU,291039211,-16495,-704,-335,-99,61,32,478,175,109,0,3024
RAW_IMU,291060208,-16520,-781,-239,-167,39,24,477,184,112,0,3072
RAW_IMU,291081209,-16589,-747,-166,-179,50,29,476,173,116,0,3008
RAW_IMU,291102210,-16428,-746,-210,-183,50,24,482,174,100,0,3072
RAW_IMU,291123210,-16424,-655,-246,-151,52,20,478,165,106,0,3008
RAW_IMU,291144210,-16568,-729,-232,-142,42,24,467,179,107,0,3024
RAW_IMU,291165210,-16517,-676,-159,-101,62,28,472,176,117,0,2960
RAW_IMU,291186209,-16460,-677,-284,-56,63,35,478,170,109,0,3024
RAW_IMU,291207209,-16489,-612,-175,-51,47,31,476,175,116,0,3088
RAW_IMU,291228209,-16500,-722,-176,-26,52,28,473,170,116,0,3136
RAW_IMU,291249210,-16533,-699,-110,-30,61,20,477,171,107,0,2960
RAW_IMU,291270210,-16541,-668,-235,-41,52,21,481,178,106,0,3136
RAW_IMU,291291210,-16488,-666,-272,-42,43,41,470,175,111,0,3120
RAW_IMU,291312211,-16492,-712,-241,-60,50,11,477,174,105,0,3072
RAW_IMU,291333208,-16530,-730,-134,-76,22,39,473,187,111,0,3136
RAW_IMU,291354209,-16436,-727,-177,-64,51,-2,468,180,116,0,3008
RAW_IMU,291375209,-16481,-625,-193,-38,48,18,480,171,100,0,3024
RAW_IMU,291396209,-16460,-793,-160,16,45,23,473,165,116,0,3072
RAW_IMU,291417210,-16528,-679,-234,74,60,21,482,174,105,0,3088
RAW_IMU,291438210,-16534,-702,-352,125,60,34,476,173,109,0,3008
RAW_IMU,291459210,-16530,-749,-249,174,41,44,476,170,116,0,3008
RAW_IMU,291480211,-16469,-741,-64,171,44,22,481,173,114,0,3088
RAW_IMU,291501209,-16528,-763,-73,191,61,38,478,175,116,0,3120
RAW_IMU,291522209,-16501,-657,-208,220,64,21,477,179,112,0,3072
RAW_IMU,291543210,-16522,-679,-327,247,65,45,478,168,109,0,3088
RAW_IMU,291564210,-16448,-743,-302,267,65,49,478,178,114,0,3024
RAW_IMU,291585211,-16504,-623,-55,245,38,41,473,175,114,0,3120
RAW_IMU,291606209,-16467,-499,-103,225,54,35,485,169,110,0,3008
RAW_IMU,291627209,-16467,-548,-187,103,53,-7,482,164,100,0,3024
RAW_IMU,291648209,-16582,-735,-270,3,51,18,473,182,111,0,3088
RAW_IMU,291669210,-16548,-805,-324,56,54,28,477,176,105,0,2992
RAW_IMU,291690212,-16476,-667,-247,99,56,26,484,178,109,0,3072
RAW_IMU,291711211,-16557,-765,-120,177,38,18,482,174,98,0,3136
RAW_IMU,291732211,-16480,-596,-78,138,59,29,478,173,109,0,3072
RAW_IMU,291753211,-16581,-564,-148,-5,56,37,480,181,103,0,2960
RAW_IMU,291774208,-16531,-690,-290,-91,72,27,473,178,111,0,2992
RAW_IMU,291795214,-16527,-707,-326,-87,32,21,477,171,110,0,3088
RAW_IMU,291816212,-16464,-742,-112,-38,34,34,481,170,101,0,3072
RAW_IMU,291837209,-16482,-662,-89,-22,44,33,474,176,105,0,3008
RAW_IMU,291858209,-16492,-691,-206,-7,70,32,481,168,99,0,3008
RAW_IMU,291879210,-16511,-721,-304,-17,44,30,482,167,103,0,3088
RAW_IMU,291900208,-16488,-642,-233,-38,57,23,480,179,105,0,3024
RAW_IMU,291921209,-16547,-731,-219,-45,47,39,473,170,114,0,3008
RAW_IMU,291942209,-16505,-710,-228,-45,55,28,484,170,111,0,3024
RAW_IMU,291963210,-16467,-613,-193,-80,29,35,484,175,99,0,2960
RAW_IMU,291984210,-16449,-661,-174,-88,50,38,478,170,116,0,3008
RAW_IMU,292005209,-16546,-713,-162,-61,52,21,476,178,99,0,3008
RAW_IMU,292026211,-16482,-708,-291,-67,50,37,480,176,105,0,3008
RAW_IMU,292047208,-16545,-717,-225,-57,33,24,478,175,114,0,3072
RAW_IMU,292068209,-16502,-662,-147,-74,60,34,482,174,110,0,3072
RAW_IMU,292089209,-16484,-696,-194,-68,52,19,477,167,105,0,3120
RAW_IMU,292110208,-16448,-758,-255,-91,53,18,473,175,101,0,3024
RAW_IMU,292131209,-16533,-573,-237,-64,54,11,473,170,111,0,3056
RAW_IMU,292152209,-16544,-644,-248,-88,48,27,473,170,116,0,3088
RAW_IMU,292173209,-16537,-665,-121,-99,57,25,467,176,115,0,2992
RAW_IMU,292194210,-16561,-737,-239,-104,61,21,480,171,105,0,3088
RAW_IMU,292215210,-16524,-695,-191,-65,61,26,477,169,105,0,3072
RAW_IMU,292236210,-16538,-736,-285,-40,58,16,477,174,117,0,3072
RAW_IMU,292257210,-16529,-630,-196,-48,52,26,477,176,115,0,3088
RAW_IMU,292278210,-16468,-686,-216,-24,62,17,473,175,109,0,2944
RAW_IMU,292299211,-16505,-685,-172,-1,47,29,474,171,107,0,3088
RAW_IMU,292320210,-16521,-733,-210,23,43,35,469,179,100,0,3072
RAW_IMU,292341211,-16593,-798,-162,90,49,25,477,176,103,0,3136
RAW_IMU,292362211,-16450,-680,-369,179,54,34,481,173,114,0,3008
RAW_IMU,292383211,-16710,-733,-291,224,49,25,477,179,103,0,3056
RAW_IMU,292404211,-16378,-631,-85,259,26,44,470,175,114,0,3072
RAW_IMU,292425208,-16541,-681,-150,296,83,28,484,180,121,0,3008
RAW_IMU,292446209,-16387,-794,-247,345,44,45,478,178,106,0,3072
RAW_IMU,292467209,-16531,-787,-252,361,73,18,470,170,99,0,3136
RAW_IMU,292488210,-16455,-614,-176,288,29,41,470,175,114,0,3008
RAW_IMU,292509210,-16523,-450,-137,108,67,32,478,175,101,0,3072
RAW_IMU,292530211,-16471,-567,-240,-82,51,32,472,179,105,0,3072
RAW_IMU,292551211,-16508,-523,-365,-170,47,32,470,175,111,0,3088
RAW_IMU,292572211,-16609,-650,-353,-159,44,16,470,170,101,0,3072
RAW_IMU,292593211,-16537,-674,-217,-119,16,32,489,178,109,0,3088
RAW_IMU,292614208,-16507,-619,-109,-179,35,23,489,163,104,0,3008
RAW_IMU,292635209,-16459,-600,-96,-169,49,34,470,168,104,0,3072
RAW_IMU,292656209,-16484,-806,-235,-104,69,26,468,173,109,0,3088
RAW_IMU,292677210,-16344,-413,-285,-28,61,36,485,167,107,0,3072
RAW_IMU,292698375,-16563,-812,-336,-27,49,49,478,175,96,0,3168
RAW_IMU,292719209,-16456,-648,-208,-62,40,17,480,169,110,0,3120
RAW_IMU,292740210,-16507,-621,-139,-131,49,33,468,178,104,0,3072
RAW_IMU,292761210,-16536,-705,-165,-132,51,30,473,170,106,0,3120
RAW_IMU,292782211,-16509,-672,-134,-105,57,26,486,178,104,0,3008
RAW_IMU,292803209,-16558,-678,-131,-104,64,42,485,169,103,0,3056
RAW_IMU,292824209,-16593,-674,-212,-106,59,23,477,171,103,0,3088
RAW_IMU,292845210,-16506,-619,-230,-131,49,31,478,168,109,0,3024
RAW_IMU,292866210,-16517,-708,-234,-148,48,25,481,175,109,0,3088
RAW_IMU,292887211,-16486,-653,-249,-151,58,17,486,175,104,0,3008
RAW_IMU,292908209,-16494,-636,-191,-194,46,40,473,175,106,0,3136
RAW_IMU,292929209,-16515,-664,-135,-203,40,19,486,170,109,0,3088
RAW_IMU,292950209,-16522,-664,-137,-180,48,12,473,165,99,0,3008
RAW_IMU,292971209,-16548,-641,-231,-227,44,24,487,174,107,0,3008
RAW_IMU,292992210,-16478,-572,-185,-306,51,37,476,165,106,0,3072
RAW_IMU,293013211,-16489,-672,-193,-322,48,20,482,176,100,0,3088
RAW_IMU,293034211,-16506,-784,-169,-264,37,19,473,175,106,0,3088
RAW_IMU,293055211,-16444,-759,-224,-192,60,17,476,178,116,0,3024
RAW_IMU,293076211,-16485,-722,-299,-148,41,20,474,164,107,0,3008
RAW_IMU,293097211,-16470,-668,-159,-168,31,31,473,180,106,0,3088
RAW_IMU,293118209,-16522,-752,-58,-144,54,28,478,175,104,0,3136
RAW_IMU,293139210,-16510,-807,-85,-17,61,23,476,165,109,0,3024
RAW_IMU,293160210,-16497,-772,-281,84,71,24,476,163,114,0,3024
RAW_IMU,293181211,-16571,-812,-316,149,51,27,481,165,109,0,3024
RAW_IMU,293202211,-16564,-614,-372,71,36,42,477,169,107,0,3008
RAW_IMU,293223209,-16520,-484,-150,-105,36,27,481,173,101,0,3088
RAW_IMU,293244209,-16560,-664,-80,-195,73,24,474,176,107,0,3072
RAW_IMU,293265210,-16479,-806,-162,-169,49,21,472,167,112,0,3136
RAW_IMU,293286210,-16539,-818,-185,-95,65,25,481,173,99,0,3024
RAW_IMU,293307209,-16483,-786,-224,-19,43,42,478,182,109,0,3120
RAW_IMU,293328209,-16518,-708,-200,19,63,25,481,185,106,0,3120
RAW_IMU,293349209,-16518,-589,-271,-7,57,32,476,180,104,0,3056
RAW_IMU,293370210,-16524,-628,-294,-93,49,11,476,175,106,0,3056
RAW_IMU,293391210,-16517,-750,-201,-122,44,29,485,176,110,0,3024
RAW_IMU,293412210,-16488,-768,-144,-95,54,22,481,185,104,0,3072
RAW_IMU,293433211,-16509,-624,-274,-98,61,11,486,178,106,0,3072
RAW_IMU,293454208,-16590,-638,-340,-174,34,31,481,182,109,0,3120
RAW_IMU,293475209,-16448,-629,-133,-216,30,22,485,171,100,0,2960
RAW_IMU,293496209,-16531,-737,-1,-213,51,20,478,168,106,0,3120
RAW_IMU,293517209,-16487,-588,-257,-247,74,44,469,176,110,0,3088
RAW_IMU,293538210,-16599,-584,-318,-316,49,22,477,181,103,0,2960
RAW_IMU,293559210,-16456,-617,-206,-383,30,16,489,182,111,0,3008
