mavpackettype,time_usec,xacc,yacc,zacc,xgyro,ygyro,zgyro,xmag,ymag,zmag,id,temperature
RAW_IMU,300210914,48,241,16649,-75,43,8,339,62,375,0,3760
RAW_IMU,300231916,63,236,16616,-66,62,9,332,54,386,0,3728
RAW_IMU,300252915,1,268,16657,-54,35,15,328,55,380,0,3760
RAW_IMU,300273915,31,273,16598,-81,42,27,340,54,383,0,3664
RAW_IMU,300294915,183,249,16603,-68,49,25,334,53,387,0,3776
RAW_IMU,300315912,32,199,16561,-68,52,13,336,55,380,0,3728
RAW_IMU,300336918,69,230,16648,-75,43,20,334,55,387,0,3776
RAW_IMU,300357916,98,130,16658,-69,44,22,332,49,388,0,3696
RAW_IMU,300378913,-7,223,16668,-64,67,54,322,52,381,0,3728
RAW_IMU,300399913,1,294,16660,-68,44,23,335,54,371,0,3792
RAW_IMU,300420914,1,252,16661,-66,57,8,324,47,379,0,3728
RAW_IMU,300441912,24,179,16649,-48,43,32,334,53,387,0,3728
RAW_IMU,300462913,-34,228,16656,-53,45,58,326,55,375,0,3600
RAW_IMU,300483913,-51,268,16622,-55,60,38,327,44,381,0,3776
RAW_IMU,300504914,112,321,16613,-73,46,26,336,46,387,0,3760
RAW_IMU,300525914,22,233,16651,-67,54,27,339,46,387,0,3712
RAW_IMU,300546914,75,174,16616,-77,50,42,339,46,372,0,3728
RAW_IMU,300567914,8,215,16648,-72,62,8,336,55,387,0,3776
RAW_IMU,300588915,16,287,16632,-58,40,-5,335,49,381,0,3760
RAW_IMU,300609915,67,201,16646,-90,43,0,341,41,382,0,3696
RAW_IMU,300630915,82,182,16629,-64,57,-10,337,59,379,0,3776
RAW_IMU,300651912,15,177,16651,-79,64,7,330,49,386,0,3712
RAW_IMU,300672913,21,258,16664,-81,44,9,328,46,385,0,3664
RAW_IMU,300693913,31,264,16720,-76,50,25,328,50,390,0,3776
RAW_IMU,300714914,-9,173,16557,-84,50,24,331,53,377,0,3776
RAW_IMU,300735915,-16,131,16535,-62,37,39,331,55,387,0,3776
RAW_IMU,300756914,92,212,16652,-58,39,35,332,61,381,0,3728
RAW_IMU,300777914,60,269,16616,-81,49,34,328,48,385,0,3664
RAW_IMU,300798914,87,233,16618,-71,44,47,331,41,387,0,3776
RAW_IMU,300819914,130,256,16699,-80,39,40,328,53,385,0,3712
RAW_IMU,300840915,92,229,16656,-84,47,22,324,59,383,0,3776
RAW_IMU,300861914,76,270,16613,-62,35,17,323,50,387,0,3696
RAW_IMU,300882915,34,212,16631,-73,54,25,332,47,381,0,3760
RAW_IMU,300903915,52,235,16636,-71,53,39,330,52,379,0,3776
RAW_IMU,300924915,-22,193,16597,-78,49,57,334,53,380,0,3792
RAW_IMU,300945915,78,253,16611,-66,38,26,328,55,380,0,3728
RAW_IMU,300966912,67,252,16630,-73,35,26,328,48,385,0,3712
RAW_IMU,300987913,67,124,16626,-71,53,15,341,50,382,0,3840
RAW_IMU,301008913,56,201,16629,-68,49,30,328,48,394,0,3728
RAW_IMU,301029914,69,231,16653,-66,38,30,327,52,381,0,3728
RAW_IMU,301050914,59,287,16600,-66,59,21,324,54,381,0,3776
RAW_IMU,301071913,95,288,16594,-73,42,0,334,48,377,0,3776
RAW_IMU,301092914,88,241,16684,-66,53,-2,340,42,386,0,3664
RAW_IMU,301113914,71,239,16623,-63,51,1,332,56,379,0,3776
RAW_IMU,301134915,13,234,16643,-60,50,22,337,54,381,0,3776
RAW_IMU,301155913,-14,204,16682,-70,55,24,320,50,380,0,3696
RAW_IMU,301176913,120,199,16620,-74,52,8,332,44,379,0,3728
RAW_IMU,301197914,65,149,16645,-82,45,13,331,48,382,0,3760
RAW_IMU,301218914,153,150,16621,-59,48,-55,343,52,379,0,3728
RAW_IMU,301240079,-42,267,16673,-56,45,-54,326,50,380,0,3712
RAW_IMU,301260913,62,296,16641,-61,56,-51,336,53,392,0,3728
RAW_IMU,301281913,63,298,16709,-71,44,-32,336,53,377,0,3696
RAW_IMU,1619451913,-39,311,16618,-69,57,21,327,52,386,0,3424
RAW_IMU,1619472914,121,222,16622,-72,41,24,335,59,374,0,3376
RAW_IMU,1619493916,106,253,16623,-72,54,25,335,47,381,0,3408
RAW_IMU,1619514915,102,297,16668,-70,42,28,324,47,386,0,3424
RAW_IMU,1619535915,36,276,16646,-67,54,23,332,56,383,0,3408
RAW_IMU,1619556915,-71,270,16669,-65,49,38,341,53,370,0,3376
RAW_IMU,1619577912,-11,300,16629,-63,47,23,326,50,380,0,3376
RAW_IMU,1619598918,135,219,16548,-54,44,35,348,59,381,0,3408
RAW_IMU,1619619916,156,154,16636,-72,51,0,331,50,380,0,3360
RAW_IMU,1619640913,15,247,16616,-68,61,20,328,53,382,0,3472
RAW_IMU,1619661913,-1,326,16589,-68,39,45,339,43,370,0,3408
RAW_IMU,1619682914,-17,264,16636,-53,57,44,336,46,375,0,3312
RAW_IMU,1619703912,49,281,16672,-75,46,33,328,50,380,0,3488
RAW_IMU,1619724913,68,264,16593,-59,45,17,336,50,380,0,3408
RAW_IMU,1619745913,109,187,16604,-67,58,39,324,52,369,0,3424
RAW_IMU,1619766914,103,172,16631,-75,63,19,331,55,390,0,3440
RAW_IMU,1619787914,-20,247,16597,-60,49,28,331,46,375,0,3296
RAW_IMU,1619808914,14,299,16629,-61,49,28,332,47,379,0,3424
RAW_IMU,1619829914,72,289,16665,-72,57,18,336,48,380,0,3376
RAW_IMU,1619850915,51,82,16572,-58,41,14,337,44,381,0,3408
RAW_IMU,1619871915,62,234,16593,-55,34,20,332,47,391,0,3440
RAW_IMU,1619892915,124,232,16542,-66,46,35,330,56,383,0,3360
RAW_IMU,1619913912,36,181,16660,-53,74,14,318,55,390,0,3360
RAW_IMU,1619934913,-23,337,16563,-45,57,32,334,55,382,0,3408
RAW_IMU,1619955913,74,205,16581,-78,49,33,332,54,379,0,3440
RAW_IMU,1619976914,139,169,16606,-62,41,21,328,50,380,0,3312
RAW_IMU,1619997915,126,248,16628,-71,54,20,339,48,385,0,3472
RAW_IMU,1620018914,55,206,16628,-76,53,18,326,48,380,0,3424
RAW_IMU,1620039914,-9,249,16609,-57,45,43,336,58,382,0,3408
RAW_IMU,1620060915,68,272,16699,-55,60,30,344,55,385,0,3440
RAW_IMU,1620081915,-18,309,16614,-73,49,19,334,53,387,0,3376
RAW_IMU,1620102916,74,222,16611,-70,67,22,335,52,379,0,3440
RAW_IMU,1620123915,124,203,16694,-64,59,34,330,49,381,0,3424
RAW_IMU,1620144915,2,278,16573,-69,44,33,334,43,375,0,3440
RAW_IMU,1620165912,-32,276,16593,-82,42,38,327,56,381,0,3408
RAW_IMU,1620186913,51,223,16665,-62,53,14,337,47,381,0,3376
RAW_IMU,1620207915,145,268,16618,-69,56,28,332,47,376,0,3440
RAW_IMU,1620228915,146,253,16629,-61,54,21,337,49,381,0,3440
RAW_IMU,1620249912,102,204,16605,-70,56,43,332,47,383,0,3440
RAW_IMU,1620270913,87,226,16606,-85,55,28,335,47,383,0,3408
RAW_IMU,1620291913,56,230,16608,-68,49,42,336,58,387,0,3408
RAW_IMU,1620312912,-25,91,16660,-60,51,28,332,56,374,0,3472
RAW_IMU,1620333913,176,312,16598,-60,42,36,334,41,385,0,3472
RAW_IMU,1620354913,-10,90,16651,-52,57,58,334,50,380,0,3440
RAW_IMU,1620375913,91,226,16644,-71,51,57,331,43,375,0,3424
RAW_IMU,1620396914,160,351,16614,-67,42,51,334,53,365,0,3424
RAW_IMU,1620417912,5,259,16669,-73,39,5,326,46,370,0,3376
RAW_IMU,1620438913,19,166,16649,-65,45,-19,328,58,387,0,3472
RAW_IMU,1620459913,82,227,16620,-54,55,-26,335,52,386,0,3408
RAW_IMU,1620480913,113,207,16611,-71,37,3,327,42,371,0,3408
RAW_IMU,1620502079,108,233,16647,-52,46,29,332,54,383,0,3488
RAW_IMU,1620522913,-14,214,16542,-52,50,61,336,55,377,0,3376
RAW_IMU,1620543913,60,288,16660,-74,36,49,335,54,371,0,3424
RAW_IMU,1620564914,18,231,16646,-72,51,50,331,43,377,0,3440
RAW_IMU,1620585914,58,233,16637,-71,53,28,330,30,369,0,3408
RAW_IMU,1620606912,147,269,16581,-55,40,15,327,52,376,0,3440
RAW_IMU,1620627913,93,273,16574,-74,52,3,331,53,387,0,3424
RAW_IMU,1620648913,51,222,16589,-61,56,32,330,54,379,0,3440
RAW_IMU,1620669914,89,269,16606,-64,51,47,336,58,382,0,3472
RAW_IMU,1620690914,40,288,16671,-69,49,34,330,54,381,0,3360
RAW_IMU,1620711912,95,232,16623,-67,41,10,328,48,387,0,3424
RAW_IMU,1620732913,107,143,16686,-63,55,-1,330,54,381,0,3440
RAW_IMU,1620753913,20,286,16600,-63,49,-2,334,48,382,0,3408
RAW_IMU,1620774913,-34,299,16622,-75,48,0,332,52,381,0,3472
RAW_IMU,1620795914,102,155,16597,-67,40,-16,334,53,390,0,3344
RAW_IMU,1620816912,75,215,16626,-63,55,-19,331,50,380,0,3408
RAW_IMU,1620837913,2,276,16580,-64,36,-18,334,55,387,0,3440
RAW_IMU,1620858913,38,171,16532,-55,52,-29,330,47,381,0,3376
RAW_IMU,1620879913,70,201,16610,-69,54,-43,334,48,377,0,3440
RAW_IMU,1620900914,46,121,16611,-59,56,-99,328,53,390,0,3408
RAW_IMU,1620921912,48,216,16573,-71,61,-97,323,53,375,0,3440
RAW_IMU,1620942913,62,291,16610,-58,45,-160,347,43,390,0,3424
RAW_IMU,1620963913,85,153,16654,-49,58,-182,334,58,380,0,3408
RAW_IMU,1620984914,21,190,16603,-60,52,-227,330,44,371,0,3408
RAW_IMU,1621005914,28,35,16698,-64,37,-307,331,48,385,0,3376
RAW_IMU,1621026913,89,6,16598,-65,43,-417,326,46,397,0,3440
RAW_IMU,1621047913,55,143,16595,-74,45,-556,328,46,385,0,3408
RAW_IMU,1621068914,-171,422,16662,-60,40,-651,337,44,381,0,3472
RAW_IMU,1621089914,21,268,16604,-83,24,-665,334,46,385,0,3376
RAW_IMU,1621110913,121,162,16650,-89,19,-747,332,52,383,0,3472
RAW_IMU,1621131913,120,76,16629,-78,25,-821,330,54,383,0,3408
RAW_IMU,1621152914,88,94,16560,-85,46,-916,328,43,372,0,3440
RAW_IMU,1621173914,147,100,16638,-88,62,-1025,340,42,386,0,3424
RAW_IMU,1621194915,141,345,16616,-78,41,-1104,331,38,382,0,3360
RAW_IMU,1621215914,98,473,16607,-78,46,-1200,334,48,385,0,3440
RAW_IMU,1621236915,185,363,16560,-68,14,-1291,332,42,381,0,3440
RAW_IMU,1621257912,8,179,16423,-61,33,-1421,335,44,391,0,3376
RAW_IMU,1621278913,-48,31,16542,-66,23,-1492,345,39,386,0,3440
RAW_IMU,1621299913,209,81,16636,-86,17,-1520,332,52,383,0,3360
RAW_IMU,1621320913,33,135,16589,-76,2,-1567,330,37,386,0,3440
RAW_IMU,1621341914,132,492,16713,-76,4,-1661,327,49,383,0,3440
RAW_IMU,1621362914,-217,487,16595,-104,26,-1687,339,26,377,0,3408
RAW_IMU,1621383914,203,82,16649,-78,9,-1681,334,36,382,0,3408
RAW_IMU,1621404915,-296,216,16718,-64,32,-1609,332,42,376,0,3376
RAW_IMU,1621425913,131,198,16735,-68,15,-1624,331,36,382,0,3424
RAW_IMU,1621446913,185,284,16532,-72,-11,-1677,341,36,383,0,3440
RAW_IMU,1621467914,-1,588,16634,-69,16,-1738,334,33,382,0,3424
RAW_IMU,1621488914,-191,310,16601,-79,18,-1761,322,27,386,0,3408
RAW_IMU,1621509915,85,259,16637,-69,23,-1789,320,29,377,0,3376
RAW_IMU,1621530913,33,266,16853,-88,-18,-1792,331,31,382,0,3488
RAW_IMU,1621551913,-141,5,16485,-68,-1,-1767,326,26,382,0,3440
RAW_IMU,1621572913,142,367,16601,-47,30,-1794,334,21,382,0,3440
RAW_IMU,1621593914,199,286,16713,-63,16,-1847,328,24,380,0,3408
RAW_IMU,1621614916,97,208,16525,-104,1,-1835,326,16,382,0,3488
RAW_IMU,1621635915,-211,343,16565,-84,-20,-1807,323,16,382,0,3424
RAW_IMU,1621656915,40,-30,16704,-84,17,-1820,326,19,380,0,3408
RAW_IMU,1621677915,23,234,16715,-77,-7,-1883,327,15,379,0,3408
RAW_IMU,1621698912,149,356,16554,-100,7,-1870,328,12,380,0,3408
RAW_IMU,1621719918,-4,140,16603,-92,21,-1930,327,18,381,0,3472
RAW_IMU,1621740916,149,94,16535,-81,31,-1961,331,4,377,0,3408
RAW_IMU,1621761913,-101,126,16661,-80,3,-2021,317,8,386,0,3440
RAW_IMU,1621782913,-248,223,16685,-63,26,-2094,326,16,385,0,3408
RAW_IMU,1621803914,80,266,16342,-107,16,-2085,320,4,375,0,3376
RAW_IMU,1621824912,503,-46,16644,-102,9,-2108,335,3,381,0,3488
RAW_IMU,1621866913,-189,454,16684,-71,11,-2123,324,15,379,0,3408
RAW_IMU,1621908914,52,656,16567,-84,-2,-2146,327,-3,379,0,3360
RAW_IMU,1621929914,258,159,16666,-30,-43,-2103,320,2,390,0,3424
RAW_IMU,1621950914,-54,45,16444,-84,2,-2052,318,-4,380,0,3408
RAW_IMU,1621971915,151,169,16272,-131,-14,-2066,322,-10,381,0,3440
RAW_IMU,1621992915,201,-69,16614,-87,14,-2094,315,-4,382,0,3408
RAW_IMU,1622013915,-434,-3,16971,-64,49,-2064,324,-20,383,0,3440
RAW_IMU,1622034915,103,218,16738,-91,-21,-1979,322,-15,381,0,3408
RAW_IMU,1622055915,728,410,16277,-118,14,-1897,322,-13,383,0,3424
RAW_IMU,1622076915,370,443,16519,-87,41,-1854,319,-18,388,0,3424
RAW_IMU,1622097915,114,583,16721,-78,29,-1805,315,-9,367,0,3520
RAW_IMU,1622118916,237,-92,16693,-70,65,-1800,332,-10,376,0,3424
RAW_IMU,1622139915,110,659,16514,-94,19,-1809,314,-8,379,0,3440
RAW_IMU,1622160915,160,499,16642,-52,33,-1694,309,-20,388,0,3408
RAW_IMU,1622181915,-151,554,16484,-70,16,-1586,320,-24,390,0,3488
RAW_IMU,1622202915,-118,194,16553,-62,0,-1673,318,-19,382,0,3312
RAW_IMU,1622223916,-83,116,16482,-70,9,-1722,319,-25,376,0,3488
RAW_IMU,1622244915,-190,337,16605,-77,23,-1717,322,-27,381,0,3408
RAW_IMU,1622265915,288,536,16677,-59,14,-1710,314,-25,376,0,3440
RAW_IMU,1622286912,87,360,16763,-72,16,-1679,319,-27,383,0,3424
RAW_IMU,1622307913,203,322,16595,-101,11,-1684,305,-26,370,0,3360
RAW_IMU,1622328915,-22,269,16619,-98,47,-1683,309,-23,379,0,3440
RAW_IMU,1622349915,-49,200,16457,-83,38,-1705,309,-25,381,0,3440
RAW_IMU,1622370912,-417,55,16657,-76,11,-1852,305,-29,380,0,3376
RAW_IMU,1622391913,-385,422,16705,-59,-40,-2055,310,-29,380,0,3440
RAW_IMU,1622412913,348,-132,16618,-54,15,-2196,301,-25,381,0,3424
RAW_IMU,1622433912,362,-50,16662,-48,45,-2279,301,-30,374,0,3376
RAW_IMU,1622454913,-73,588,16649,-94,20,-2333,296,-27,381,0,3408
RAW_IMU,1622475913,101,396,16749,-107,13,-2327,296,-30,383,0,3408
RAW_IMU,1622496913,-358,-26,16860,-64,7,-2352,300,-33,380,0,3360
RAW_IMU,1622517914,-146,683,16750,-66,-11,-2340,303,-39,381,0,3376
RAW_IMU,1622538912,-115,517,16598,-71,-15,-2366,307,-33,385,0,3408
RAW_IMU,1622559913,398,147,16503,-88,23,-2472,296,-44,379,0,3408
RAW_IMU,1622580913,-136,162,16743,-107,49,-2513,302,-41,380,0,3520
RAW_IMU,1622601913,-303,389,16807,-61,-3,-2525,300,-38,375,0,3360
RAW_IMU,1622623079,-246,171,16559,-76,15,-2521,297,-43,385,0,3408
RAW_IMU,1622643913,-503,301,16512,-68,-11,-2531,296,-42,374,0,3408
RAW_IMU,1622664913,-498,250,16613,-115,21,-2480,285,-49,369,0,3408
RAW_IMU,1622685914,-2,558,17106,-157,0,-2508,284,-43,387,0,3408
RAW_IMU,1622706914,-117,465,17017,-71,34,-2478,277,-56,381,0,3408
RAW_IMU,1622727912,-225,650,16971,-81,26,-2485,287,-48,372,0,3376
RAW_IMU,1622748913,-50,585,17081,-67,-50,-2474,285,-47,381,0,3440
RAW_IMU,1622769913,58,787,16693,-81,-36,-2455,279,-58,385,0,3440
RAW_IMU,1622790914,3,241,16665,-60,26,-2428,281,-53,394,0,3424
RAW_IMU,1622811914,71,-106,16415,-118,-22,-2387,279,-50,385,0,3408
RAW_IMU,1622832912,-486,384,15943,-68,41,-2341,277,-64,391,0,3408
RAW_IMU,1622853913,-417,123,16564,-128,75,-2387,277,-64,376,0,3408
RAW_IMU,1622874913,-585,178,17373,-59,30,-2413,273,-58,380,0,3472
RAW_IMU,1622895913,-331,390,16885,-134,-16,-2405,267,-61,383,0,3424
RAW_IMU,1622916914,-366,384,16594,-53,-50,-2402,272,-66,374,0,3344
RAW_IMU,1622937912,533,-527,16210,-114,-44,-2457,272,-66,376,0,3440
RAW_IMU,1622958913,91,40,16269,-108,-11,-2421,270,-66,376,0,3376
RAW_IMU,1622979913,-5,-15,16450,-71,24,-2319,268,-65,377,0,3360
RAW_IMU,1623000913,105,247,16904,-63,-38,-2384,270,-69,381,0,3408
RAW_IMU,1623021914,-421,346,16749,-80,5,-2488,266,-72,377,0,3440
RAW_IMU,1623042915,-207,-101,16467,-55,-22,-2515,264,-76,376,0,3488
RAW_IMU,1623063915,-192,385,17030,-66,-42,-2605,260,-72,377,0,3488
RAW_IMU,1623084915,-90,48,16509,-89,57,-2571,260,-82,385,0,3440
RAW_IMU,1623105915,308,16,16803,-117,24,-2591,255,-72,385,0,3440
RAW_IMU,1623126915,-676,358,16894,-70,-8,-2673,255,-67,380,0,3376
RAW_IMU,1623147913,223,128,16867,-57,9,-2716,260,-70,372,0,3424
RAW_IMU,1623168913,-404,761,16670,-50,-60,-2718,507,-71,374,0,3408
RAW_IMU,1623189914,258,-279,16588,-99,-10,-2707,250,-75,377,0,3440
RAW_IMU,1623210914,-492,128,16590,-55,-34,-2740,245,-79,382,0,3424
RAW_IMU,1623231913,168,382,16728,-88,13,-2703,251,-73,381,0,3312
RAW_IMU,1623252913,-474,175,16493,-89,19,-2661,254,-93,379,0,3408
RAW_IMU,1623273913,-71,224,17092,-86,-14,-2594,243,-81,381,0,3440
RAW_IMU,1623294914,213,99,16567,-87,5,-2523,242,-84,387,0,3440
RAW_IMU,1623315914,34,581,15909,-97,-2,-2370,237,-70,375,0,3376
RAW_IMU,1623336914,4,818,16688,-102,4,-2350,237,-82,372,0,3424
RAW_IMU,1623357915,-187,419,16789,-32,30,-2200,237,-82,380,0,3408
RAW_IMU,1623378912,-859,-132,16642,-53,26,-2063,238,-81,379,0,3472
RAW_IMU,1623399913,147,671,16644,-90,-77,-2010,240,-82,375,0,3440
RAW_IMU,1623420913,-183,269,16640,-63,9,-1895,228,-85,371,0,3344
RAW_IMU,1623441913,41,-85,16574,-87,54,-1752,228,-83,381,0,3408
RAW_IMU,1623462914,-150,407,16933,-77,-3,-1700,229,-89,382,0,3376
RAW_IMU,1623483914,378,209,16587,-39,29,-1742,240,-87,367,0,3440
RAW_IMU,1623504914,306,234,16478,-103,30,-1891,227,-89,372,0,3440
RAW_IMU,1623525915,153,502,16460,-98,50,-1983,223,-90,371,0,3376
RAW_IMU,1623546913,300,465,16269,-81,74,-1991,220,-90,371,0,3424
RAW_IMU,1623567913,-283,92,17368,-43,27,-2024,219,-96,382,0,3488
RAW_IMU,1623588914,-68,239,17127,-61,46,-2033,219,-94,375,0,3440
RAW_IMU,1623609914,77,22,17128,-84,-28,-2119,215,-93,376,0,3440
RAW_IMU,1623630915,-1369,531,16761,-68,55,-2228,223,-88,366,0,3440
RAW_IMU,1623651913,471,630,16593,-95,-50,-2301,216,-94,372,0,3424
RAW_IMU,1623672913,-1892,128,17011,-105,-51,-2386,217,-81,371,0,3440
RAW_IMU,1623693913,1226,782,15803,-105,-1,-2602,216,-82,370,0,3408
RAW_IMU,1623714914,-1451,-1087,18468,-96,-137,-2628,200,-92,367,0,3488
RAW_IMU,1623735916,500,1321,15007,-145,81,-2619,199,-98,376,0,3360
RAW_IMU,1623756915,-1442,-281,18042,-15,-100,-2593,202,-88,381,0,3520
RAW_IMU,1623777915,-475,634,15792,-97,100,-2597,206,-89,370,0,3472
RAW_IMU,1623798915,-601,748,17746,-56,-109,-2586,190,-99,372,0,3408
RAW_IMU,1623819912,-510,270,16163,-112,16,-2485,197,-90,381,0,3488
RAW_IMU,1623840918,-386,278,16519,-57,-37,-2393,202,-88,374,0,3408
RAW_IMU,1623861916,-255,-353,16430,-81,14,-2454,204,-95,369,0,3424
RAW_IMU,1623882913,-112,293,16700,-93,16,-2527,190,-92,372,0,3440
RAW_IMU,1623903913,-380,242,16933,-77,-1,-2553,187,-101,372,0,3376
RAW_IMU,1623924914,-234,138,16585,-91,-29,-2617,183,-90,369,0,3376
RAW_IMU,1623945912,20,79,16244,-117,-57,-2647,190,-94,380,0,3488
RAW_IMU,1623966913,-88,-249,16530,-41,10,-2842,178,-98,376,0,3424
RAW_IMU,1623987913,374,28,16599,-69,17,-2989,174,-89,380,0,3408
RAW_IMU,1624008914,-231,725,16275,-65,-35,-3041,181,-95,376,0,3472
RAW_IMU,1624029914,128,124,16282,-60,19,-3061,178,-100,374,0,3408
RAW_IMU,1624050913,150,697,16222,-26,60,-3058,170,-98,376,0,3440
RAW_IMU,1624071915,-77,507,16268,-65,-27,-3049,168,-95,381,0,3424
RAW_IMU,1624092915,-1273,45,17457,15,-29,-3008,169,-96,363,0,3440
RAW_IMU,1624113915,-842,-569,16919,-140,14,-2859,167,-101,377,0,3424
RAW_IMU,1624134912,-493,65,16778,-70,-2,-2757,152,-98,369,0,3408
RAW_IMU,1624155913,-342,-80,16092,-60,6,-2672,165,-90,376,0,3440
RAW_IMU,1624176914,-128,480,16482,-39,24,-2667,156,-94,372,0,3424
RAW_IMU,1624197914,-459,220,16656,-86,14,-2576,147,-93,386,0,3472
RAW_IMU,1624218915,-477,62,16640,-80,68,-2415,156,-101,375,0,3408
RAW_IMU,1624239916,-733,518,16864,-41,6,-2376,152,-88,374,0,3360
RAW_IMU,1624260915,-417,181,17088,-110,19,-2242,143,-96,380,0,3424
RAW_IMU,1624281915,14,295,16588,-72,58,-2041,138,-99,372,0,3424
RAW_IMU,1624302915,-363,491,16904,-86,31,-1927,147,-93,369,0,3376
RAW_IMU,1624323915,20,726,16722,-79,-9,-1955,142,-95,381,0,3472
RAW_IMU,1624344916,-602,533,16667,-42,-23,-1968,136,-81,374,0,3344
RAW_IMU,1624365915,-410,523,16680,-57,11,-1933,142,-85,374,0,3408
RAW_IMU,1624386915,-246,168,16627,-86,16,-2001,142,-85,361,0,3472
RAW_IMU,1624407912,-328,66,16957,-101,21,-2074,123,-85,379,0,3440
RAW_IMU,1624428913,-387,494,17053,-87,-6,-2071,134,-93,371,0,3376
RAW_IMU,1624449915,-59,0,16626,-64,31,-2016,123,-81,376,0,3440
RAW_IMU,1624470915,-334,299,16683,-50,-18,-2193,136,-88,374,0,3408
RAW_IMU,1624491912,-230,153,16387,-68,-39,-2296,138,-84,367,0,3424
RAW_IMU,1624512913,-158,226,16629,-123,-5,-2391,125,-92,375,0,3408
RAW_IMU,1624533913,-213,84,16792,-67,-4,-2504,125,-79,377,0,3408
RAW_IMU,1624554912,-94,-150,16566,-106,-7,-2597,126,-78,386,0,3408
RAW_IMU,1624575913,-117,228,16505,-80,-8,-2692,123,-90,381,0,3408
RAW_IMU,1624596913,-113,233,16676,-73,0,-2767,123,-81,376,0,3440
RAW_IMU,1624617913,135,305,16515,-88,25,-2865,123,-76,366,0,3440
RAW_IMU,1624638914,-336,265,16332,-97,19,-2914,106,-87,375,0,3344
RAW_IMU,1624659912,-719,219,16616,-11,12,-2951,106,-82,377,0,3440
RAW_IMU,1624680913,-757,6,16770,-46,-44,-2915,110,-76,374,0,3440
RAW_IMU,1624701913,-387,259,16962,-63,-61,-2991,110,-78,381,0,3536
RAW_IMU,1624722913,158,75,16550,-36,-38,-2959,103,-66,376,0,3488
RAW_IMU,1624744079,-97,509,16682,-55,-90,-2978,106,-67,377,0,3424
RAW_IMU,1624764913,115,581,16354,-91,-48,-2911,103,-61,374,0,3376
RAW_IMU,1624785913,-80,-68,17092,-81,22,-2848,95,-71,371,0,3408
RAW_IMU,1624806914,260,147,16137,-153,29,-2676,96,-65,380,0,3408
RAW_IMU,1624827914,425,-386,16060,-108,17,-2606,99,-77,375,0,3408
RAW_IMU,1624848912,-67,1223,15843,-35,-30,-2506,96,-70,372,0,3376
RAW_IMU,1624869913,13,1251,16592,-47,-54,-2460,105,-71,369,0,3440
RAW_IMU,1624890913,-278,865,17095,-97,-17,-2414,90,-66,371,0,3408
RAW_IMU,1624911914,-591,-285,16712,-21,-18,-2353,100,-64,374,0,3408
RAW_IMU,1624932914,-544,-90,17353,-109,-36,-2437,92,-61,374,0,3440
RAW_IMU,1624953912,-290,8,16625,-108,-21,-2341,95,-69,371,0,3408
RAW_IMU,1624974913,14,292,16500,-81,28,-2311,91,-65,372,0,3440
RAW_IMU,1624995913,-457,665,16674,-83,-7,-2252,79,-64,374,0,3424
RAW_IMU,1625016913,-34,723,16602,-75,-21,-2208,88,-58,365,0,3408
RAW_IMU,1625037914,-173,-239,16789,-121,13,-2225,90,-61,369,0,3440
RAW_IMU,1625058912,-419,-1105,17271,-94,-19,-2272,82,-54,374,0,3440
RAW_IMU,1625079913,-197,960,17063,-70,-13,-2233,80,-55,372,0,3440
RAW_IMU,1625100913,-160,111,16401,-113,44,-2179,80,-53,370,0,3424
RAW_IMU,1625121914,-139,415,16532,-73,29,-2214,69,-59,361,0,3488
RAW_IMU,1625142914,-355,503,16391,-59,-16,-2183,83,-50,370,0,3360
RAW_IMU,1625163913,0,294,16663,-113,-5,-2163,79,-56,366,0,3472
RAW_IMU,1625184913,-86,-399,16748,-107,12,-2178,76,-49,381,0,3440
RAW_IMU,1625205913,-1033,50,16742,-89,29,-2228,80,-48,375,0,3408
RAW_IMU,1625226913,-455,-78,16879,-89,4,-2257,71,-44,369,0,3472
RAW_IMU,1625247914,-491,314,16696,-122,5,-2274,61,-49,371,0,3376
RAW_IMU,1625268913,-255,240,16743,-77,2,-2337,69,-39,374,0,3440
RAW_IMU,1625289913,-331,46,16643,-137,24,-2397,63,-35,369,0,3472
RAW_IMU,1625310913,-135,68,16583,-124,8,-2389,70,-36,365,0,3472
RAW_IMU,1625331914,-505,-156,16680,-90,35,-2408,67,-38,370,0,3424
RAW_IMU,1625352913,-154,-70,16613,-68,-12,-2378,61,-42,359,0,3344
RAW_IMU,1625373913,-294,431,16397,-54,22,-2369,60,-33,365,0,3408
RAW_IMU,1625394913,-208,560,16131,-89,-1,-2399,65,-41,372,0,3472
RAW_IMU,1625415914,54,498,16606,-84,-13,-2441,58,-37,376,0,3408
RAW_IMU,1625436914,-190,186,16894,-29,-12,-2441,57,-33,375,0,3408
RAW_IMU,1625457914,-394,-488,16768,12,-69,-2360,56,-37,366,0,3344
RAW_IMU,1625478915,-184,35,16520,-96,-46,-2434,54,-26,372,0,3424
RAW_IMU,1625499912,-142,-187,16628,-89,-19,-2498,48,-15,369,0,3440
RAW_IMU,1625520913,-190,70,16296,-92,7,-2412,67,-26,360,0,3472
RAW_IMU,1625541913,-24,268,16617,-115,-16,-2414,65,-29,372,0,3440
RAW_IMU,1625562913,-364,155,16823,-57,34,-2407,56,-15,379,0,3408
RAW_IMU,1625583914,-452,446,17119,-85,-7,-2348,56,-20,369,0,3408
RAW_IMU,1625604914,-341,349,16966,-87,-9,-2318,50,-15,366,0,3488
RAW_IMU,1625625914,-321,3,16453,-48,19,-2294,46,-16,367,0,3488
RAW_IMU,1625646915,-499,-161,16589,-77,18,-2282,45,-15,359,0,3376
RAW_IMU,1625667913,-270,236,16469,-107,-15,-2282,46,-9,372,0,3408
RAW_IMU,1625688913,-492,-88,16814,-91,23,-2221,49,-16,363,0,3424
RAW_IMU,1625709914,-425,195,16628,-100,17,-2142,52,-2,375,0,3408
RAW_IMU,1625730914,-301,268,16528,-47,16,-1962,44,-2,363,0,3440
RAW_IMU,1625751915,-156,281,16455,-80,-4,-1824,41,-4,360,0,3408
RAW_IMU,1625772913,134,532,16666,-92,-3,-1758,37,-6,369,0,3424
RAW_IMU,1625793913,-52,741,16738,-70,13,-1672,48,-8,369,0,3488
RAW_IMU,1625814913,-142,750,16648,-84,8,-1507,45,-3,364,0,3440
RAW_IMU,1625835914,-323,616,16491,-64,22,-1339,44,2,370,0,3408
RAW_IMU,1625856916,-416,314,16588,-86,30,-1256,40,-1,366,0,3408
RAW_IMU,1625877915,-275,273,16672,-95,35,-1256,48,3,371,0,3488
RAW_IMU,1625898915,-72,320,16635,-60,39,-1224,35,1,359,0,3472
RAW_IMU,1625919915,-115,98,16712,-71,30,-1190,46,-2,367,0,3424
RAW_IMU,1625940912,-110,155,16622,-79,11,-1164,35,8,371,0,3424
RAW_IMU,1625961918,-8,144,16572,-93,28,-1211,48,-1,359,0,3344
RAW_IMU,1625982916,-368,339,16652,-80,-6,-1298,35,10,369,0,3440
RAW_IMU,1626003913,-284,147,16660,-94,14,-1511,49,12,367,0,3440
RAW_IMU,1626024913,-267,-140,16729,-96,-6,-1710,37,10,366,0,3408
RAW_IMU,1626045912,-146,-481,16610,-78,27,-1861,36,7,370,0,3408
RAW_IMU,1626066913,-250,337,16572,-67,24,-1904,41,4,365,0,3408
RAW_IMU,1626087913,-194,527,16680,-61,-1,-1935,39,19,367,0,3408
RAW_IMU,1626108914,-328,352,16700,-69,-8,-1960,43,20,374,0,3376
RAW_IMU,1626129914,-19,330,16551,-98,21,-1927,40,13,364,0,3488
RAW_IMU,1626150915,466,-2204,16182,-70,26,-1739,35,18,369,0,3472
RAW_IMU,1626171914,64,-492,16508,-126,61,-1632,40,18,354,0,3472
RAW_IMU,1626192914,-245,185,16989,-84,57,-1468,36,16,377,0,3408
RAW_IMU,1626213914,-327,508,16761,-64,49,-1369,40,20,364,0,3440
RAW_IMU,1626234914,66,239,16613,-76,50,-1271,39,19,365,0,3408
RAW_IMU,1626255914,-74,132,16632,-71,56,-1097,36,21,367,0,3376
RAW_IMU,1626276913,-332,515,16499,-40,46,-965,41,21,365,0,3488
RAW_IMU,1626297914,-295,34,16697,-79,16,-807,33,26,370,0,3424
RAW_IMU,1626318914,-282,308,16618,-81,37,-749,45,25,366,0,3408
RAW_IMU,1626339915,-282,137,16687,-68,47,-739,48,23,359,0,3424
RAW_IMU,1626360916,-233,138,16568,-75,41,-767,45,25,356,0,3408
RAW_IMU,1626381915,-170,244,16562,-55,32,-794,37,30,361,0,3440
RAW_IMU,1626402915,-196,189,16615,-93,29,-782,40,27,366,0,3440
RAW_IMU,1626423915,-247,127,16642,-88,32,-778,36,26,365,0,3376
RAW_IMU,1626444915,-119,184,16625,-74,40,-781,44,31,353,0,3408
RAW_IMU,1626465916,-195,-42,16691,-80,40,-764,39,21,375,0,3312
RAW_IMU,1626486915,-291,22,16671,-62,44,-757,41,29,365,0,3472
RAW_IMU,1626507915,-409,338,16723,-62,42,-665,39,33,363,0,3472
RAW_IMU,1626528912,-339,211,16633,-45,53,-604,44,29,358,0,3440
RAW_IMU,1626549913,-69,204,16619,-63,38,-564,44,31,370,0,3440
RAW_IMU,1626570915,-238,190,16651,-70,46,-546,30,30,379,0,3408
RAW_IMU,1626591915,-247,91,16603,-84,39,-519,37,35,359,0,3408
RAW_IMU,1626612912,-153,150,16664,-85,31,-478,40,20,364,0,3424
RAW_IMU,1626633913,-184,113,16693,-82,30,-512,39,33,358,0,3424
RAW_IMU,1626654913,-154,49,16620,-70,30,-528,50,32,369,0,3408
RAW_IMU,1626675912,-321,19,16619,-63,37,-523,43,30,359,0,3360
RAW_IMU,1626696913,-183,165,16636,-68,40,-454,41,29,372,0,3440
RAW_IMU,1626717913,-165,221,16610,-84,51,-365,37,25,364,0,3472
RAW_IMU,1626738913,-219,187,16642,-62,48,-289,35,37,356,0,3472
RAW_IMU,1626759914,-238,285,16667,-66,49,-243,32,35,356,0,3408
RAW_IMU,1626780912,-340,338,16617,-66,48,-225,39,33,370,0,3376
RAW_IMU,1626801913,-211,260,16603,-79,48,-171,32,32,364,0,3424
RAW_IMU,1626822913,-141,153,16562,-65,42,-98,35,35,371,0,3488
RAW_IMU,1626843913,-200,267,16605,-68,40,-19,39,36,370,0,3488
RAW_IMU,1626865079,-141,298,16667,-76,39,81,31,38,370,0,3376
RAW_IMU,1626885913,-167,29,16605,-71,71,62,37,39,364,0,3440
RAW_IMU,1626906913,-178,28,16603,-58,47,12,31,36,372,0,3408
RAW_IMU,1626927914,-220,62,16635,-69,56,-21,46,33,370,0,3488
RAW_IMU,1626948914,-206,190,16703,-71,33,-74,36,41,365,0,3488
RAW_IMU,1626969912,-267,259,16648,-69,38,-88,39,38,367,0,3408
RAW_IMU,1626990913,-214,147,16616,-62,39,-24,35,30,366,0,3440
RAW_IMU,1627011913,-168,108,16673,-71,51,-9,40,37,369,0,3472
RAW_IMU,1627032992,-128,145,16593,-62,40,28,39,38,370,0,3408
RAW_IMU,1627053914,-267,231,16631,-71,60,40,26,36,367,0,3408
RAW_IMU,1627074912,-283,190,16643,-62,51,32,33,36,372,0,3344
RAW_IMU,1627095913,-281,123,16629,-75,56,18,31,33,377,0,3440
RAW_IMU,1627116913,-141,30,16658,-71,60,14,36,33,365,0,3472
RAW_IMU,1627137914,-186,168,16649,-76,51,-23,44,36,358,0,3440
RAW_IMU,1627158914,-245,114,16633,-70,38,-48,37,37,369,0,3408
RAW_IMU,1627179913,-306,101,16652,-60,54,-103,43,27,364,0,3408
RAW_IMU,1627200913,-208,122,16658,-67,40,-136,37,42,359,0,3488
RAW_IMU,1627221913,-183,255,16627,-61,44,-114,44,33,370,0,3488
RAW_IMU,1627242913,-293,260,16656,-67,56,-35,35,35,364,0,3408
RAW_IMU,1627263914,-133,181,16581,-69,42,74,39,26,367,0,3408
RAW_IMU,1627284912,-100,38,16588,-60,47,90,26,33,365,0,3520
RAW_IMU,1627305913,-191,79,16671,-71,60,74,44,29,365,0,3440
RAW_IMU,1627326913,-295,235,16725,-78,52,64,39,36,363,0,3424
RAW_IMU,1627347914,-297,152,16645,-57,40,87,37,42,364,0,3488
RAW_IMU,1627368914,-162,190,16596,-68,38,77,37,27,361,0,3376
RAW_IMU,1627389913,-135,145,16659,-57,39,56,32,30,369,0,3488
RAW_IMU,1627410913,-281,75,16655,-61,55,31,41,38,365,0,3488
RAW_IMU,1627431913,-296,154,16659,-79,44,40,35,30,361,0,3376
RAW_IMU,1627452913,-206,99,16584,-56,37,43,36,36,365,0,3408
RAW_IMU,1627473913,-131,157,16673,-61,52,39,33,33,365,0,3408
RAW_IMU,1627494913,-227,126,16571,-74,48,26,44,31,377,0,3440
RAW_IMU,1627515913,-217,108,16590,-78,54,18,39,33,367,0,3408
RAW_IMU,1627536913,-256,131,16659,-71,53,26,35,32,369,0,3408
RAW_IMU,1627557913,-177,172,16638,-85,52,32,41,31,365,0,3424
RAW_IMU,1627578912,-235,119,16644,-71,45,13,37,32,366,0,3360
RAW_IMU,1627599913,-220,115,16550,-62,42,7,37,37,369,0,3440
RAW_IMU,1627620913,-175,80,16590,-76,46,22,39,33,375,0,3488
RAW_IMU,1627641914,-191,138,16595,-54,40,30,35,47,369,0,3424
RAW_IMU,1627662914,-202,182,16623,-64,54,22,30,35,369,0,3440
RAW_IMU,1627683914,-285,99,16619,-72,31,33,40,30,364,0,3408
RAW_IMU,1627704914,-220,19,16645,-81,48,15,36,31,367,0,3472
RAW_IMU,1627725914,-181,190,16618,-50,50,29,43,32,361,0,3488
RAW_IMU,1627746914,-220,68,16670,-79,60,10,46,43,365,0,3440
RAW_IMU,1627767914,-269,147,16612,-75,61,39,30,39,361,0,3440
RAW_IMU,1627788913,-235,196,16613,-53,45,10,43,35,374,0,3440
RAW_IMU,1627809913,-247,101,16665,-61,47,10,44,38,372,0,3408
RAW_IMU,1627830914,-208,158,16632,-76,49,7,35,37,356,0,3408
RAW_IMU,1627851914,-207,136,16627,-57,53,3,32,37,359,0,3424
RAW_IMU,1627872915,-197,122,16626,-67,35,9,28,31,367,0,3344
RAW_IMU,1627893913,-251,100,16653,-68,35,11,44,36,377,0,3440
RAW_IMU,1627914913,-230,202,16625,-72,50,30,31,26,365,0,3408
RAW_IMU,1627935913,-163,118,16668,-79,41,21,31,36,365,0,3440
RAW_IMU,1627956914,-175,183,16686,-67,51,0,41,38,377,0,3408
RAW_IMU,1627977916,-277,148,16654,-75,52,10,43,47,364,0,3408
RAW_IMU,1627998915,-269,51,16679,-66,39,31,36,36,360,0,3376
RAW_IMU,1628019915,-261,133,16629,-66,39,36,40,30,369,0,3424
RAW_IMU,1628040913,-192,143,16614,-68,59,26,37,39,369,0,3472
RAW_IMU,1628061914,-351,131,16705,-57,67,23,43,35,361,0,3408
RAW_IMU,1628082919,-249,126,16736,-85,42,19,50,37,356,0,3360
RAW_IMU,1628103914,-195,133,16684,-68,34,29,30,35,364,0,3520
RAW_IMU,1628124914,-226,111,16671,-67,39,19,37,32,366,0,3488
RAW_IMU,1628145914,-231,117,16639,-72,43,5,27,42,369,0,3424
RAW_IMU,1628166915,-207,147,16646,-64,51,24,35,35,359,0,3424
RAW_IMU,1628187914,-183,182,16558,-62,53,31,41,31,364,0,3424
RAW_IMU,1628208914,-119,161,16700,-81,56,28,32,35,364,0,3424
RAW_IMU,1628229915,-206,99,16627,-69,50,33,45,30,371,0,3424
RAW_IMU,1628250915,-255,116,16634,-55,45,30,36,36,363,0,3424
RAW_IMU,1628271915,-185,91,16728,-73,47,13,41,29,375,0,3408
RAW_IMU,1628292915,-208,121,16647,-63,49,31,50,35,352,0,3408
RAW_IMU,1628313915,-157,163,16599,-58,48,44,33,33,358,0,3424
RAW_IMU,1628334915,-304,121,16667,-85,42,19,30,27,371,0,3360
RAW_IMU,1628355915,-292,130,16591,-64,54,34,35,35,364,0,3472
RAW_IMU,1628376915,-157,218,16647,-70,64,13,37,30,356,0,3376
RAW_IMU,1628397912,-115,112,16617,-74,43,42,36,38,365,0,3440
RAW_IMU,1628418913,-188,170,16663,-65,42,38,39,29,367,0,3488
RAW_IMU,1628439913,-279,114,16596,-62,50,25,30,35,361,0,3440
RAW_IMU,1628460914,-181,107,16644,-61,52,35,30,32,369,0,3424
RAW_IMU,1628481915,-265,162,16613,-70,44,39,37,42,361,0,3376
RAW_IMU,1628502914,-125,197,16637,-61,46,35,39,38,367,0,3424
RAW_IMU,1628523914,-230,139,16607,-64,50,19,32,32,369,0,3424
RAW_IMU,1628544914,-210,102,16648,-68,50,41,39,41,370,0,3440
RAW_IMU,1628565914,-267,114,16582,-52,59,51,33,36,367,0,3488
RAW_IMU,1628586915,-218,166,16652,-56,59,24,37,42,366,0,3408
RAW_IMU,1628607914,-237,149,16640,-62,58,33,36,31,367,0,3408
RAW_IMU,1628628915,-229,104,16631,-64,47,47,35,30,369,0,3488
RAW_IMU,1628649915,-254,110,16671,-66,49,51,41,31,370,0,3472
RAW_IMU,1628670915,-195,231,16644,-63,39,26,39,29,367,0,3472
RAW_IMU,1628691915,-178,55,16618,-85,53,29,26,36,365,0,3360
RAW_IMU,1628712912,-183,184,16586,-68,52,21,27,44,366,0,3472
RAW_IMU,1628733913,-234,193,16616,-67,48,55,35,32,371,0,3408
RAW_IMU,1628754913,-205,109,16655,-68,65,50,33,36,367,0,3376
RAW_IMU,1628775914,-220,171,16625,-74,45,19,30,32,374,0,3424
RAW_IMU,1628796914,-214,96,16577,-69,40,17,36,41,358,0,3344
RAW_IMU,1628817915,-276,115,16618,-66,36,10,49,31,370,0,3472
RAW_IMU,1628838915,-192,124,16661,-63,48,35,36,46,363,0,3472
RAW_IMU,1628859915,-160,144,16664,-65,49,30,36,38,365,0,3440
RAW_IMU,1628880915,-192,120,16662,-75,57,29,39,41,367,0,3440
