mavpackettype,time_usec,xacc,yacc,zacc,xgyro,ygyro,zgyro,xmag,ymag,zmag,abs_pressure,diff_pressure,pressure_alt,temperature,fields_updated,id
HIGHRES_IMU,1288014358,-0.145294189453125,-0.042449951171875,9.92767333984375,-1.28173828125,0.6561279296875,0.152587890625,0.36944580078125,0.09783935546875,-0.37530517578125,0.0,0.0,0.0,32.2618408203125,0,0
HIGHRES_IMU,1288035355,-0.129150390625,-0.039459228515625,9.888214111328125,-1.373291015625,0.6561279296875,0.30517578125,0.37677001953125,0.10223388671875,-0.37530517578125,0.0,0.0,0.0,32.166015625,0,0
HIGHRES_IMU,1288056358,-0.124359130859375,0.010772705078125,9.885833740234375,-1.2664794921875,0.885009765625,0.2593994140625,0.388458251953125,0.105133056640625,-0.360687255859375,0.0,0.0,0.0,31.734710693359375,0,0
HIGHRES_IMU,1288077358,-0.154266357421875,0.024505615234375,9.919921875,-0.9307861328125,0.701904296875,0.1983642578125,0.385528564453125,0.106597900390625,-0.36944580078125,0.0,0.0,0.0,32.309783935546875,0,0
HIGHRES_IMU,1288098358,-0.127960205078125,0.00897216796875,9.932464599609375,-0.8087158203125,0.7476806640625,0.457763671875,0.37823486328125,0.1138916015625,-0.366546630859375,0.0,0.0,0.0,32.309783935546875,0,0
HIGHRES_IMU,1288119357,-0.139312744140625,-0.040069580078125,9.95458984375,-0.7781982421875,0.79345703125,0.48828125,0.382598876953125,0.1138916015625,-0.362152099609375,0.0,0.0,0.0,31.97430419921875,0,0
HIGHRES_IMU,1288140358,-0.101043701171875,0.01434326171875,9.93365478515625,-0.732421875,0.640869140625,0.579833984375,0.37823486328125,0.103668212890625,-0.3563232421875,0.0,0.0,0.0,32.309783935546875,0,0
HIGHRES_IMU,1288161358,-0.13153076171875,-0.03167724609375,9.9312744140625,-0.885009765625,0.823974609375,0.30517578125,0.365081787109375,0.109527587890625,-0.360687255859375,0.0,0.0,0.0,32.166015625,0,0
HIGHRES_IMU,1288182358,-0.098052978515625,0.03289794921875,9.88165283203125,-0.6256103515625,0.762939453125,0.2593994140625,0.3548583984375,0.110992431640625,-0.366546630859375,0.0,0.0,0.0,32.309783935546875,0,0
HIGHRES_IMU,1288203357,-0.121368408203125,0.046630859375,9.914520263671875,-1.03759765625,0.732421875,0.335693359375,0.366546630859375,0.106597900390625,-0.3519287109375,0.0,0.0,0.0,32.309783935546875,0,0
HIGHRES_IMU,1288224358,-0.113616943359375,-0.075347900390625,9.950408935546875,-1.1138916015625,0.7171630859375,0.3662109375,0.37677001953125,0.105133056640625,-0.368011474609375,0.0,0.0,0.0,32.2618408203125,0,0
HIGHRES_IMU,1288245357,-0.150665283203125,0.021514892578125,9.949798583984375,-0.579833984375,0.91552734375,0.244140625,0.379669189453125,0.109527587890625,-0.368011474609375,0.0,0.0,0.0,31.782623291015625,0,0
HIGHRES_IMU,1288266357,-0.09326171875,0.02392578125,9.9259033203125,-0.7476806640625,0.6256103515625,0.4730224609375,0.37530517578125,0.110992431640625,-0.36944580078125,0.0,0.0,0.0,32.118072509765625,0,0
HIGHRES_IMU,1288287360,-0.172210693359375,-0.044830322265625,9.92291259765625,-0.9613037109375,0.701904296875,0.2288818359375,0.365081787109375,0.09783935546875,-0.365081787109375,0.0,0.0,0.0,32.2618408203125,0,0
HIGHRES_IMU,1288308358,-0.145904541015625,-0.004180908203125,9.88763427734375,-0.823974609375,0.9002685546875,0.152587890625,0.384063720703125,0.109527587890625,-0.3577880859375,0.0,0.0,0.0,32.309783935546875,0,0
HIGHRES_IMU,1288329355,-0.11419677734375,0.051422119140625,9.927093505859375,-1.03759765625,1.0223388671875,0.1068115234375,0.37823486328125,0.10076904296875,-0.3519287109375,0.0,0.0,0.0,31.97430419921875,0,0
HIGHRES_IMU,1288350356,-0.151275634765625,0.0579833984375,9.92230224609375,-1.190185546875,0.701904296875,0.2288818359375,0.37530517578125,0.110992431640625,-0.3563232421875,0.0,0.0,0.0,31.9263916015625,0,0
HIGHRES_IMU,1288371357,-0.092071533203125,-0.02569580078125,9.93963623046875,-1.28173828125,0.7171630859375,0.274658203125,0.37823486328125,0.106597900390625,-0.359222412109375,0.0,0.0,0.0,32.166015625,0,0
HIGHRES_IMU,1288392359,-0.138702392578125,-0.028106689453125,9.931854248046875,-0.9613037109375,0.8087158203125,0.1678466796875,0.37677001953125,0.1153564453125,-0.365081787109375,0.0,0.0,0.0,32.070159912109375,0,0
HIGHRES_IMU,1288413358,-0.1405029296875,-0.016143798828125,9.91033935546875,-0.4730224609375,0.7171630859375,0.2288818359375,0.37530517578125,0.103668212890625,-0.366546630859375,0.0,0.0,0.0,32.166015625,0,0
HIGHRES_IMU,1288434357,-0.133941650390625,-0.053802490234375,9.907958984375,-0.8392333984375,1.0528564453125,0.1373291015625,0.37091064453125,0.09637451171875,-0.366546630859375,0.0,0.0,0.0,32.166015625,0,0
HIGHRES_IMU,1288455358,-0.1351318359375,-0.0059814453125,9.890625,-0.4730224609375,0.946044921875,0.1983642578125,0.37823486328125,0.10076904296875,-0.366546630859375,0.0,0.0,0.0,32.070159912109375,0,0
HIGHRES_IMU,1288476354,-0.150665283203125,0.0179443359375,9.924102783203125,-0.67138671875,0.79345703125,0.3204345703125,0.366546630859375,0.110992431640625,-0.366546630859375,0.0,0.0,0.0,32.2618408203125,0,0
HIGHRES_IMU,1288497359,-0.1763916015625,-0.0579833984375,9.933074951171875,-1.1138916015625,0.79345703125,0.0762939453125,0.37823486328125,0.10076904296875,-0.3563232421875,0.0,0.0,0.0,32.070159912109375,0,0
HIGHRES_IMU,1288518358,-0.16082763671875,0.00299072265625,9.909759521484375,-0.4425048828125,0.6561279296875,0.030517578125,0.366546630859375,0.089080810546875,-0.362152099609375,0.0,0.0,0.0,32.166015625,0,0
HIGHRES_IMU,1288539357,-0.17279052734375,0.03228759765625,9.8553466796875,-0.885009765625,0.701904296875,0.3662109375,0.359222412109375,0.09637451171875,-0.362152099609375,0.0,0.0,0.0,32.118072509765625,0,0
HIGHRES_IMU,1288560358,-0.14111328125,0.02691650390625,9.930084228515625,-1.556396484375,0.5035400390625,0.30517578125,0.37823486328125,0.103668212890625,-0.366546630859375,0.0,0.0,0.0,31.830535888671875,0,0
HIGHRES_IMU,1288581357,-0.09149169921875,-0.0233154296875,9.9013671875,-1.0986328125,0.91552734375,0.18310546875,0.365081787109375,0.09490966796875,-0.368011474609375,0.0,0.0,0.0,32.166015625,0,0
HIGHRES_IMU,1288602355,-0.153656005859375,-0.03765869140625,9.9306640625,-0.8392333984375,0.91552734375,0.1220703125,0.389892578125,0.106597900390625,-0.366546630859375,0.0,0.0,0.0,31.97430419921875,0,0
HIGHRES_IMU,1288623358,-0.134521484375,0.013763427734375,9.92291259765625,-0.79345703125,0.7781982421875,0.3662109375,0.366546630859375,0.110992431640625,-0.37384033203125,0.0,0.0,0.0,32.309783935546875,0,0
HIGHRES_IMU,1288644355,-0.18475341796875,-0.0286865234375,9.913330078125,-1.1444091796875,0.9307861328125,0.2288818359375,0.37823486328125,0.09637451171875,-0.366546630859375,0.0,0.0,0.0,32.118072509765625,0,0
HIGHRES_IMU,1288665358,-0.10882568359375,-0.07952880859375,9.91033935546875,-0.701904296875,0.9307861328125,0.4730224609375,0.37530517578125,0.10076904296875,-0.366546630859375,0.0,0.0,0.0,31.97430419921875,0,0
HIGHRES_IMU,1288686357,-0.1578369140625,-0.013763427734375,9.921112060546875,-0.6561279296875,0.79345703125,0.1678466796875,0.363616943359375,0.10076904296875,-0.36944580078125,0.0,0.0,0.0,31.97430419921875,0,0
HIGHRES_IMU,1288707355,-0.121978759765625,0.0113525390625,9.942626953125,-0.67138671875,0.8392333984375,0.274658203125,0.366546630859375,0.10076904296875,-0.366546630859375,0.0,0.0,0.0,32.166015625,0,0
HIGHRES_IMU,1288728355,-0.15185546875,0.025115966796875,9.9019775390625,-0.8544921875,0.579833984375,0.2288818359375,0.363616943359375,0.093475341796875,-0.37384033203125,0.0,0.0,0.0,32.309783935546875,0,0
HIGHRES_IMU,1288749356,-0.139923095703125,-0.004180908203125,9.8953857421875,-1.190185546875,0.8697509765625,0.213623046875,0.366546630859375,0.10076904296875,-0.366546630859375,0.0,0.0,0.0,32.166015625,0,0
HIGHRES_IMU,1288770358,-0.127349853515625,0.016143798828125,9.913330078125,-0.9765625,0.67138671875,0.0457763671875,0.385528564453125,0.093475341796875,-0.362152099609375,0.0,0.0,0.0,32.309783935546875,0,0
HIGHRES_IMU,1288791357,-0.142303466796875,0.049041748046875,9.923492431640625,-1.0986328125,0.67138671875,0.3204345703125,0.382598876953125,0.106597900390625,-0.366546630859375,0.0,0.0,0.0,32.309783935546875,0,0
HIGHRES_IMU,1288812355,-0.151275634765625,-0.007781982421875,9.891815185546875,-1.3885498046875,0.823974609375,0.1220703125,0.37091064453125,0.089080810546875,-0.36944580078125,0.0,0.0,0.0,32.2618408203125,0,0
HIGHRES_IMU,1288833358,-0.1004638671875,-0.019744873046875,9.944427490234375,-1.0833740234375,0.762939453125,0.2899169921875,0.37091064453125,0.103668212890625,-0.349029541015625,0.0,0.0,0.0,32.2618408203125,0,0
HIGHRES_IMU,1288854357,-0.180572509765625,-0.04962158203125,9.8953857421875,-0.8697509765625,0.91552734375,0.1678466796875,0.379669189453125,0.109527587890625,-0.3533935546875,0.0,0.0,0.0,31.97430419921875,0,0
HIGHRES_IMU,1288875357,-0.092071533203125,0.007171630859375,9.906158447265625,-0.7476806640625,0.8544921875,0.152587890625,0.37677001953125,0.09783935546875,-0.360687255859375,0.0,0.0,0.0,32.070159912109375,0,0
HIGHRES_IMU,1288896357,-0.139923095703125,0.02392578125,9.938446044921875,-1.0986328125,0.701904296875,0.3662109375,0.37091064453125,0.106597900390625,-0.366546630859375,0.0,0.0,0.0,32.2618408203125,0,0
HIGHRES_IMU,1288917356,-0.132720947265625,0.018524169921875,9.91693115234375,-1.2054443359375,0.823974609375,0.1678466796875,0.37677001953125,0.09490966796875,-0.37237548828125,0.0,0.0,0.0,32.309783935546875,0,0
HIGHRES_IMU,1288938357,-0.1297607421875,0.016143798828125,9.902557373046875,-1.1138916015625,0.8087158203125,0.0762939453125,0.37091064453125,0.110992431640625,-0.362152099609375,0.0,0.0,0.0,32.2618408203125,0,0
HIGHRES_IMU,1288959356,-0.129150390625,0.00238037109375,9.912139892578125,-1.1138916015625,0.823974609375,0.244140625,0.382598876953125,0.093475341796875,-0.36944580078125,0.0,0.0,0.0,32.309783935546875,0,0
HIGHRES_IMU,1288980358,-0.145294189453125,-0.017333984375,9.9486083984375,-0.9002685546875,0.946044921875,0.335693359375,0.382598876953125,0.106597900390625,-0.366546630859375,0.0,0.0,0.0,32.309783935546875,0,0
HIGHRES_IMU,1289001357,-0.12554931640625,-0.045440673828125,9.915130615234375,-0.9765625,0.7476806640625,0.152587890625,0.365081787109375,0.105133056640625,-0.360687255859375,0.0,0.0,0.0,31.97430419921875,0,0
HIGHRES_IMU,1289022357,-0.1351318359375,-0.03167724609375,9.942626953125,-0.6256103515625,0.5950927734375,0.30517578125,0.3533935546875,0.10223388671875,-0.343170166015625,0.0,0.0,0.0,32.070159912109375,0,0
HIGHRES_IMU,1289043358,-0.150665283203125,0.0006103515625,9.907958984375,-0.7476806640625,0.9002685546875,0.4119873046875,0.366546630859375,0.089080810546875,-0.362152099609375,0.0,0.0,0.0,32.166015625,0,0
HIGHRES_IMU,1289064357,-0.115997314453125,0.031097412109375,9.966552734375,-0.701904296875,0.7781982421875,0.335693359375,0.382598876953125,0.089080810546875,-0.37384033203125,0.0,0.0,0.0,31.97430419921875,0,0
HIGHRES_IMU,1289085358,-0.17279052734375,-0.006591796875,9.935455322265625,-1.007080078125,0.8392333984375,0.1373291015625,0.37091064453125,0.103668212890625,-0.36944580078125,0.0,0.0,0.0,32.166015625,0,0
HIGHRES_IMU,1289106358,-0.124969482421875,-0.059783935546875,9.888214111328125,-1.373291015625,0.885009765625,0.274658203125,0.360687255859375,0.105133056640625,-0.3577880859375,0.0,0.0,0.0,32.118072509765625,0,0
HIGHRES_IMU,1289127354,-0.15606689453125,-0.007171630859375,9.918701171875,-1.1444091796875,0.9307861328125,0.3509521484375,0.36944580078125,0.109527587890625,-0.360687255859375,0.0,0.0,0.0,32.166015625,0,0
HIGHRES_IMU,1289148357,-0.1405029296875,-0.03466796875,9.900177001953125,-0.518798828125,0.8697509765625,0.244140625,0.3577880859375,0.09490966796875,-0.368011474609375,0.0,0.0,0.0,32.309783935546875,0,0
HIGHRES_IMU,1289169355,-0.11956787109375,0.0286865234375,9.92529296875,-0.396728515625,0.8544921875,0.30517578125,0.37237548828125,0.112457275390625,-0.368011474609375,0.0,0.0,0.0,31.97430419921875,0,0
HIGHRES_IMU,1289190356,-0.109405517578125,0.057403564453125,9.909759521484375,-1.03759765625,0.8697509765625,0.1983642578125,0.366546630859375,0.09637451171875,-0.384063720703125,0.0,0.0,0.0,32.070159912109375,0,0
HIGHRES_IMU,1289211358,-0.15545654296875,-0.047821044921875,9.897186279296875,-0.9307861328125,0.8392333984375,0.1678466796875,0.37091064453125,0.089080810546875,-0.362152099609375,0.0,0.0,0.0,31.9263916015625,0,0
HIGHRES_IMU,1289232355,-0.14410400390625,0.015533447265625,9.9246826171875,-0.762939453125,0.885009765625,0.3204345703125,0.366546630859375,0.106597900390625,-0.362152099609375,0.0,0.0,0.0,32.2618408203125,0,0
HIGHRES_IMU,1289253358,-0.1578369140625,0.06158447265625,9.92529296875,-1.0833740234375,0.5340576171875,0.0152587890625,0.363616943359375,0.103668212890625,-0.366546630859375,0.0,0.0,0.0,32.309783935546875,0,0
HIGHRES_IMU,1289274357,-0.123779296875,0.0233154296875,9.9139404296875,-1.0986328125,0.5645751953125,0.48828125,0.37530517578125,0.09637451171875,-0.366546630859375,0.0,0.0,0.0,31.734710693359375,0,0
HIGHRES_IMU,1289295357,-0.1578369140625,-0.050811767578125,9.891815185546875,-1.0833740234375,0.6256103515625,0.18310546875,0.37530517578125,0.106597900390625,-0.362152099609375,0.0,0.0,0.0,32.2618408203125,0,0
HIGHRES_IMU,1289316355,-0.12255859375,-0.03167724609375,9.93963623046875,-0.946044921875,0.9002685546875,0.2288818359375,0.365081787109375,0.112457275390625,-0.3533935546875,0.0,0.0,0.0,32.2618408203125,0,0
HIGHRES_IMU,1289337358,-0.136932373046875,-0.277435302734375,9.92828369140625,-0.823974609375,1.0223388671875,0.0762939453125,0.379669189453125,0.09783935546875,-0.360687255859375,0.0,0.0,0.0,32.309783935546875,0,0
HIGHRES_IMU,1289358355,-0.1112060546875,0.038848876953125,9.937255859375,-0.518798828125,0.732421875,0.1373291015625,0.37823486328125,0.1138916015625,-0.359222412109375,0.0,0.0,0.0,31.9263916015625,0,0
HIGHRES_IMU,1289379355,-0.15545654296875,0.016143798828125,9.88641357421875,-0.6103515625,0.7476806640625,0.244140625,0.37237548828125,0.112457275390625,-0.360687255859375,0.0,0.0,0.0,32.070159912109375,0,0
HIGHRES_IMU,1289400355,-0.14886474609375,0.00537109375,9.92230224609375,-1.28173828125,0.885009765625,0.5035400390625,0.37530517578125,0.09637451171875,-0.362152099609375,0.0,0.0,0.0,32.118072509765625,0,0
HIGHRES_IMU,1289421358,-0.141693115234375,-0.035888671875,9.9013671875,-1.15966796875,0.701904296875,0.274658203125,0.3577880859375,0.109527587890625,-0.365081787109375,0.0,0.0,0.0,32.50146484375,0,0
HIGHRES_IMU,1289442357,-0.1524658203125,-0.01434326171875,9.926483154296875,-0.640869140625,0.732421875,0.244140625,0.379669189453125,0.10223388671875,-0.368011474609375,0.0,0.0,0.0,32.357696533203125,0,0
HIGHRES_IMU,1289463356,-0.1405029296875,0.030487060546875,9.921112060546875,-0.701904296875,0.6561279296875,0.1678466796875,0.37823486328125,0.110992431640625,-0.366546630859375,0.0,0.0,0.0,31.830535888671875,0,0
HIGHRES_IMU,1289484355,-0.12255859375,0.016143798828125,9.91033935546875,-1.220703125,0.640869140625,0.1983642578125,0.385528564453125,0.09637451171875,-0.362152099609375,0.0,0.0,0.0,32.166015625,0,0
HIGHRES_IMU,1289505359,-0.16204833984375,-0.10284423828125,9.8900146484375,-0.823974609375,0.6866455078125,0.1678466796875,0.37237548828125,0.09490966796875,-0.365081787109375,0.0,0.0,0.0,32.118072509765625,0,0
HIGHRES_IMU,1289526358,-0.121368408203125,0.016754150390625,9.915130615234375,-0.48828125,0.640869140625,0.030517578125,0.379669189453125,0.105133056640625,-0.3577880859375,0.0,0.0,0.0,32.166015625,0,0
HIGHRES_IMU,1289547357,-0.11181640625,0.006591796875,9.94024658203125,-0.8697509765625,0.701904296875,0.244140625,0.37530517578125,0.103668212890625,-0.362152099609375,0.0,0.0,0.0,32.309783935546875,0,0
HIGHRES_IMU,1289568519,-0.19012451171875,0.00299072265625,9.943817138671875,-0.4119873046875,0.7781982421875,0.30517578125,0.363616943359375,0.10076904296875,-0.362152099609375,0.0,0.0,0.0,31.830535888671875,0,0
HIGHRES_IMU,1289589357,-0.13812255859375,0.07293701171875,9.911529541015625,-0.7781982421875,0.6866455078125,0.1678466796875,0.363616943359375,0.10076904296875,-0.37677001953125,0.0,0.0,0.0,32.166015625,0,0
HIGHRES_IMU,1289610360,-0.177581787109375,-0.013153076171875,9.940826416015625,-1.2664794921875,0.6256103515625,0.2899169921875,0.384063720703125,0.10223388671875,-0.368011474609375,0.0,0.0,0.0,32.309783935546875,0,0
HIGHRES_IMU,1289631354,-0.112396240234375,-0.0352783203125,9.905548095703125,-0.79345703125,0.6256103515625,0.1220703125,0.37091064453125,0.09637451171875,-0.366546630859375,0.0,0.0,0.0,32.2618408203125,0,0
HIGHRES_IMU,1289652357,-0.092681884765625,-0.001800537109375,9.94561767578125,-0.823974609375,0.9613037109375,0.18310546875,0.379669189453125,0.090545654296875,-0.365081787109375,0.0,0.0,0.0,32.357696533203125,0,0
HIGHRES_IMU,1289673358,-0.09088134765625,-0.016143798828125,9.940826416015625,-0.640869140625,0.6866455078125,0.2899169921875,0.36944580078125,0.1153564453125,-0.37237548828125,0.0,0.0,0.0,31.830535888671875,0,0
HIGHRES_IMU,1289694358,-0.12255859375,-0.041259765625,9.8953857421875,0.0152587890625,1.0833740234375,0.18310546875,0.382598876953125,0.106597900390625,-0.362152099609375,0.0,0.0,0.0,31.97430419921875,0,0
HIGHRES_IMU,1289715357,-0.16143798828125,0.09149169921875,9.9013671875,-0.244140625,0.9918212890625,0.152587890625,0.36944580078125,0.090545654296875,-0.360687255859375,0.0,0.0,0.0,32.118072509765625,0,0
HIGHRES_IMU,1289736358,-0.110015869140625,0.001190185546875,9.938446044921875,-0.9613037109375,0.79345703125,0.0762939453125,0.379669189453125,0.09783935546875,-0.360687255859375,0.0,0.0,0.0,32.118072509765625,0,0
HIGHRES_IMU,1289757357,-0.1524658203125,0.021514892578125,9.921112060546875,-0.6561279296875,0.823974609375,0.1220703125,0.37091064453125,0.093475341796875,-0.366546630859375,0.0,0.0,0.0,32.357696533203125,0,0
HIGHRES_IMU,1289778358,-0.13751220703125,0.035888671875,9.877471923828125,-1.0986328125,0.7781982421875,0.3204345703125,0.379669189453125,0.1197509765625,-0.379669189453125,0.0,0.0,0.0,31.97430419921875,0,0
HIGHRES_IMU,1289799360,-0.157257080078125,0.00238037109375,9.9139404296875,-1.2664794921875,0.79345703125,0.4425048828125,0.382598876953125,0.110992431640625,-0.366546630859375,0.0,0.0,0.0,32.166015625,0,0
HIGHRES_IMU,1289820358,-0.138702392578125,-0.052032470703125,9.929473876953125,-0.79345703125,1.0528564453125,0.18310546875,0.379669189453125,0.090545654296875,-0.360687255859375,0.0,0.0,0.0,32.2618408203125,0,0
HIGHRES_IMU,1289841357,-0.151275634765625,0.03466796875,9.871490478515625,-0.946044921875,0.6256103515625,0.1983642578125,0.37677001953125,0.109527587890625,-0.3533935546875,0.0,0.0,0.0,32.070159912109375,0,0
HIGHRES_IMU,1289862356,-0.13812255859375,-0.033477783203125,9.9073486328125,-0.7781982421875,0.9613037109375,0.30517578125,0.366546630859375,0.1138916015625,-0.37384033203125,0.0,0.0,0.0,31.97430419921875,0,0
HIGHRES_IMU,1289883354,-0.107635498046875,0.00299072265625,9.918121337890625,-0.6256103515625,0.79345703125,0.1983642578125,0.379669189453125,0.09783935546875,-0.360687255859375,0.0,0.0,0.0,32.166015625,0,0
HIGHRES_IMU,1289904354,-0.173980712890625,0.0992431640625,9.88641357421875,-0.5340576171875,0.79345703125,0.335693359375,0.382598876953125,0.086151123046875,-0.366546630859375,0.0,0.0,0.0,31.97430419921875,0,0
HIGHRES_IMU,1289925357,-0.165618896484375,0.024505615234375,9.947418212890625,-1.4801025390625,0.7476806640625,0.4119873046875,0.365081787109375,0.105133056640625,-0.3577880859375,0.0,0.0,0.0,32.2618408203125,0,0
HIGHRES_IMU,1289946356,-0.15185546875,-0.041839599609375,9.89300537109375,-0.8087158203125,0.8544921875,0.1220703125,0.37823486328125,0.106597900390625,-0.37677001953125,0.0,0.0,0.0,32.166015625,0,0
HIGHRES_IMU,1289967355,-0.107635498046875,0.066375732421875,9.944427490234375,-0.9307861328125,0.8392333984375,0.0762939453125,0.366546630859375,0.103668212890625,-0.362152099609375,0.0,0.0,0.0,31.9263916015625,0,0
HIGHRES_IMU,1289988354,-0.118988037109375,0.004791259765625,9.947998046875,-0.823974609375,0.701904296875,0.2288818359375,0.36944580078125,0.090545654296875,-0.37237548828125,0.0,0.0,0.0,32.45355224609375,0,0
HIGHRES_IMU,1290009358,-0.176971435546875,-0.00897216796875,9.90496826171875,-0.8392333984375,0.9613037109375,0.274658203125,0.37677001953125,0.10223388671875,-0.385528564453125,0.0,0.0,0.0,32.357696533203125,0,0
HIGHRES_IMU,1290030358,-0.09686279296875,0.0286865234375,9.908538818359375,-0.79345703125,0.79345703125,-0.0457763671875,0.36944580078125,0.09783935546875,-0.368011474609375,0.0,0.0,0.0,32.166015625,0,0
HIGHRES_IMU,1290051355,-0.12677001953125,-0.00238037109375,9.913330078125,-0.6866455078125,0.7171630859375,0.1983642578125,0.363616943359375,0.10076904296875,-0.362152099609375,0.0,0.0,0.0,32.2618408203125,0,0
HIGHRES_IMU,1290072358,-0.12255859375,-0.035888671875,9.9432373046875,-0.8697509765625,0.67138671875,0.30517578125,0.37530517578125,0.106597900390625,-0.37677001953125,0.0,0.0,0.0,31.782623291015625,0,0
HIGHRES_IMU,1290093358,-0.1177978515625,-0.001800537109375,9.92767333984375,-0.5645751953125,0.8087158203125,0.3204345703125,0.37823486328125,0.09637451171875,-0.36944580078125,0.0,0.0,0.0,32.2618408203125,0,0
HIGHRES_IMU,1290114358,-0.10821533203125,-0.015533447265625,9.926483154296875,-0.4425048828125,0.640869140625,0.1068115234375,0.37091064453125,0.093475341796875,-0.366546630859375,0.0,0.0,0.0,32.118072509765625,0,0
HIGHRES_IMU,1290135357,-0.09088134765625,0.056793212890625,9.882232666015625,-0.8544921875,0.885009765625,0.335693359375,0.37677001953125,0.09490966796875,-0.360687255859375,0.0,0.0,0.0,32.309783935546875,0,0
HIGHRES_IMU,1290156358,-0.144683837890625,0.006591796875,9.908538818359375,-1.129150390625,0.4730224609375,0.1983642578125,0.382598876953125,0.103668212890625,-0.36944580078125,0.0,0.0,0.0,32.166015625,0,0
HIGHRES_IMU,1290177357,-0.168609619140625,-0.042449951171875,9.941436767578125,-0.8087158203125,0.7171630859375,0.1983642578125,0.37677001953125,0.084686279296875,-0.37237548828125,0.0,0.0,0.0,31.97430419921875,0,0
HIGHRES_IMU,1290198355,-0.13751220703125,0.033477783203125,9.89898681640625,-0.8392333984375,0.640869140625,0.274658203125,0.3577880859375,0.09783935546875,-0.37237548828125,0.0,0.0,0.0,31.97430419921875,0,0
HIGHRES_IMU,1290219357,-0.133941650390625,0.049041748046875,9.9366455078125,-1.1749267578125,0.6866455078125,0.152587890625,0.37091064453125,0.106597900390625,-0.36944580078125,0.0,0.0,0.0,32.166015625,0,0
HIGHRES_IMU,1290240357,-0.1817626953125,-0.037078857421875,9.928863525390625,-1.28173828125,0.8697509765625,0.152587890625,0.382598876953125,0.093475341796875,-0.384063720703125,0.0,0.0,0.0,32.166015625,0,0
HIGHRES_IMU,1290261358,-0.1524658203125,0.046630859375,9.917510986328125,-1.15966796875,0.9002685546875,0.213623046875,0.37530517578125,0.093475341796875,-0.36944580078125,0.0,0.0,0.0,32.070159912109375,0,0
HIGHRES_IMU,1290282358,-0.130340576171875,0.034088134765625,9.891204833984375,-1.7242431640625,0.640869140625,0.3814697265625,0.363616943359375,0.1182861328125,-0.359222412109375,0.0,0.0,0.0,31.97430419921875,0,0
HIGHRES_IMU,1290303357,-0.16741943359375,-0.0699462890625,9.94024658203125,-1.1444091796875,0.701904296875,0.3509521484375,0.363616943359375,0.093475341796875,-0.359222412109375,0.0,0.0,0.0,32.2618408203125,0,0
HIGHRES_IMU,1290324355,-0.173980712890625,-0.049041748046875,9.924102783203125,-0.6103515625,0.91552734375,0.2593994140625,0.3577880859375,0.112457275390625,-0.346099853515625,0.0,0.0,0.0,32.166015625,0,0
HIGHRES_IMU,1290345358,-0.15008544921875,0.095672607421875,9.90496826171875,-1.1444091796875,0.7781982421875,0.213623046875,0.3577880859375,0.1153564453125,-0.343170166015625,0.0,0.0,0.0,31.97430419921875,0,0
HIGHRES_IMU,1290366355,-0.110015869140625,0.013153076171875,9.92529296875,-1.5869140625,0.732421875,0.3509521484375,0.363616943359375,0.124114990234375,-0.319793701171875,0.0,0.0,0.0,32.070159912109375,0,0
HIGHRES_IMU,1290387355,-0.115386962890625,0.037078857421875,9.9019775390625,-1.2664794921875,0.6561279296875,0.213623046875,0.3519287109375,0.128509521484375,-0.31689453125,0.0,0.0,0.0,32.166015625,0,0
HIGHRES_IMU,1290408358,-0.1405029296875,0.019744873046875,9.89300537109375,-1.6632080078125,0.7476806640625,0.3509521484375,0.365081787109375,0.1197509765625,-0.328582763671875,0.0,0.0,0.0,32.2618408203125,0,0
HIGHRES_IMU,1290429356,-0.121978759765625,-0.04425048828125,9.9599609375,-1.2054443359375,0.701904296875,0.335693359375,0.37091064453125,0.124114990234375,-0.319793701171875,0.0,0.0,0.0,32.166015625,0,0
HIGHRES_IMU,1290450357,-0.136322021484375,-0.03826904296875,9.92767333984375,-0.8544921875,0.6866455078125,0.213623046875,0.37091064453125,0.1138916015625,-0.341705322265625,0.0,0.0,0.0,32.166015625,0,0
HIGHRES_IMU,1290471357,-0.136322021484375,-0.0233154296875,9.961151123046875,-0.732421875,0.8697509765625,0.091552734375,0.37823486328125,0.1212158203125,-0.33441162109375,0.0,0.0,0.0,32.070159912109375,0,0
HIGHRES_IMU,1290492357,-0.092681884765625,0.043060302734375,9.873260498046875,-0.4730224609375,1.1749267578125,0.335693359375,0.344635009765625,0.1212158203125,-0.33441162109375,0.0,0.0,0.0,32.357696533203125,0,0
HIGHRES_IMU,1290513359,-0.232574462890625,0.10821533203125,9.96893310546875,-0.0762939453125,1.2664794921875,0.30517578125,0.3504638671875,0.109527587890625,-0.346099853515625,0.0,0.0,0.0,32.50146484375,0,0
HIGHRES_IMU,1290534358,-0.07293701171875,0.127960205078125,9.928863525390625,-2.0294189453125,0.7171630859375,0.3509521484375,0.37091064453125,0.1182861328125,-0.33734130859375,0.0,0.0,0.0,31.97430419921875,0,0
HIGHRES_IMU,1290555355,-0.118988037109375,-0.1470947265625,9.9725341796875,-1.40380859375,0.7781982421875,0.457763671875,0.37237548828125,0.1197509765625,-0.346099853515625,0.0,0.0,0.0,32.357696533203125,0,0
HIGHRES_IMU,1290576356,-0.156646728515625,-0.00836181640625,9.937255859375,-0.5340576171875,0.7171630859375,0.0,0.382598876953125,0.1212158203125,-0.33441162109375,0.0,0.0,0.0,32.166015625,0,0
HIGHRES_IMU,1290597356,-0.14349365234375,0.060394287109375,9.900177001953125,-1.15966796875,0.823974609375,0.1983642578125,0.363616943359375,0.143096923828125,-0.362152099609375,0.0,0.0,0.0,32.357696533203125,0,0
HIGHRES_IMU,1290618356,-0.153656005859375,-0.0233154296875,9.9552001953125,-0.79345703125,1.312255859375,0.4119873046875,0.341705322265625,0.13726806640625,-0.321258544921875,0.0,0.0,0.0,32.166015625,0,0
HIGHRES_IMU,1290639355,-0.17578125,0.011962890625,10.017364501953125,-0.244140625,0.54931640625,0.2899169921875,0.347564697265625,0.146026611328125,-0.31689453125,0.0,0.0,0.0,32.357696533203125,0,0
HIGHRES_IMU,1290660358,-0.21405029296875,0.072357177734375,9.94024658203125,-2.2430419921875,0.9918212890625,0.30517578125,0.3548583984375,0.124114990234375,-0.344635009765625,0.0,0.0,0.0,31.9263916015625,0,0
HIGHRES_IMU,1290681357,-0.09149169921875,-0.11956787109375,9.942626953125,-1.4190673828125,0.9002685546875,0.4119873046875,0.341705322265625,0.129974365234375,-0.321258544921875,0.0,0.0,0.0,31.97430419921875,0,0
HIGHRES_IMU,1290702357,-0.110626220703125,0.04364013671875,9.933074951171875,-0.823974609375,0.9002685546875,0.4730224609375,0.346099853515625,0.10223388671875,-0.365081787109375,0.0,0.0,0.0,32.309783935546875,0,0
HIGHRES_IMU,1290723358,-0.416748046875,0.57159423828125,9.855926513671875,-1.190185546875,1.03759765625,0.3662109375,0.33294677734375,0.106597900390625,-0.37677001953125,0.0,0.0,0.0,31.97430419921875,0,0
HIGHRES_IMU,1290744355,-0.011962890625,-0.013153076171875,9.94024658203125,-1.5716552734375,0.732421875,0.0762939453125,0.309600830078125,0.110992431640625,-0.362152099609375,0.0,0.0,0.0,32.309783935546875,0,0
HIGHRES_IMU,1290765357,-0.168609619140625,-0.1004638671875,9.89837646484375,-0.9002685546875,0.67138671875,0.1373291015625,0.328582763671875,0.103668212890625,-0.362152099609375,0.0,0.0,0.0,31.97430419921875,0,0
HIGHRES_IMU,1290786355,-0.15484619140625,0.007171630859375,9.9013671875,-0.5645751953125,0.885009765625,0.2593994140625,0.31689453125,0.106597900390625,-0.391357421875,0.0,0.0,0.0,31.830535888671875,0,0
HIGHRES_IMU,1290807355,-0.115386962890625,0.14947509765625,9.852935791015625,-1.190185546875,1.0528564453125,0.2288818359375,0.327117919921875,0.084686279296875,-0.382598876953125,0.0,0.0,0.0,32.2618408203125,0,0
HIGHRES_IMU,1290828357,-0.09686279296875,0.0885009765625,9.86309814453125,-1.3427734375,0.5645751953125,0.1220703125,0.340240478515625,0.10076904296875,-0.381134033203125,0.0,0.0,0.0,32.2618408203125,0,0
HIGHRES_IMU,1290849356,-0.158447265625,-0.095672607421875,9.940826416015625,-1.617431640625,0.823974609375,0.0457763671875,0.327117919921875,0.087615966796875,-0.404510498046875,0.0,0.0,0.0,32.309783935546875,0,0
HIGHRES_IMU,1290870357,-0.294158935546875,0.09625244140625,9.991668701171875,-0.335693359375,1.007080078125,0.3662109375,0.341705322265625,0.073028564453125,-0.41180419921875,0.0,0.0,0.0,32.166015625,0,0
HIGHRES_IMU,1290891356,0.1285400390625,0.395233154296875,9.931854248046875,-1.3580322265625,0.762939453125,0.0762939453125,0.340240478515625,0.071563720703125,-0.427886962890625,0.0,0.0,0.0,31.9263916015625,0,0
HIGHRES_IMU,1290912361,-0.130950927734375,-0.132720947265625,10.0777587890625,-0.946044921875,0.2899169921875,0.1220703125,0.33880615234375,0.077392578125,-0.4322509765625,0.0,0.0,0.0,31.97430419921875,0,0
HIGHRES_IMU,1290933355,-0.203277587890625,-0.07354736328125,9.940826416015625,-0.2288818359375,0.7476806640625,0.1068115234375,0.366546630859375,0.078857421875,-0.423492431640625,0.0,0.0,0.0,32.309783935546875,0,0
HIGHRES_IMU,1290954356,-0.150665283203125,0.038848876953125,9.9013671875,-0.640869140625,0.8087158203125,0.18310546875,0.344635009765625,0.086151123046875,-0.438079833984375,0.0,0.0,0.0,32.2618408203125,0,0
HIGHRES_IMU,1290975355,-0.11419677734375,-0.016143798828125,9.918121337890625,-1.068115234375,0.67138671875,0.2288818359375,0.33880615234375,0.084686279296875,-0.407440185546875,0.0,0.0,0.0,31.9263916015625,0,0
HIGHRES_IMU,1290996356,-0.17041015625,-0.105224609375,9.91033935546875,-0.6103515625,1.4190673828125,-0.030517578125,0.3504638671875,0.109527587890625,-0.389892578125,0.0,0.0,0.0,31.97430419921875,0,0
HIGHRES_IMU,1291017356,-0.107025146484375,0.06756591796875,9.971343994140625,-0.1068115234375,0.457763671875,0.4425048828125,0.385528564453125,0.10076904296875,-0.395751953125,0.0,0.0,0.0,32.309783935546875,0,0
HIGHRES_IMU,1291038355,-0.118377685546875,0.178192138671875,9.8074951171875,-1.7242431640625,0.8087158203125,0.6256103515625,0.384063720703125,0.09490966796875,-0.389892578125,0.0,0.0,0.0,32.070159912109375,0,0
HIGHRES_IMU,1291059357,-0.447235107421875,-0.37548828125,10.062225341796875,-0.0457763671875,0.8392333984375,0.6103515625,0.3577880859375,0.084686279296875,-0.446868896484375,0.0,0.0,0.0,32.166015625,0,0
HIGHRES_IMU,1291080358,0.040069580078125,0.1578369140625,9.868499755859375,-1.251220703125,1.2664794921875,0.0152587890625,0.36944580078125,0.080322265625,-0.424957275390625,0.0,0.0,0.0,31.9263916015625,0,0
HIGHRES_IMU,1291101356,-0.187744140625,-0.041839599609375,9.9139404296875,-0.8697509765625,0.48828125,0.3509521484375,0.382598876953125,0.071563720703125,-0.427886962890625,0.0,0.0,0.0,32.2618408203125,0,0
HIGHRES_IMU,1291122357,-0.17279052734375,0.022735595703125,9.927093505859375,-0.5035400390625,0.5950927734375,0.06103515625,0.385528564453125,0.093475341796875,-0.4307861328125,0.0,0.0,0.0,32.309783935546875,0,0
HIGHRES_IMU,1291143355,-0.115997314453125,0.06158447265625,9.849365234375,-0.6561279296875,0.8697509765625,0.244140625,0.384063720703125,0.067169189453125,-0.4322509765625,0.0,0.0,0.0,32.2618408203125,0,0
HIGHRES_IMU,1291164358,-0.098052978515625,0.063385009765625,9.9246826171875,-1.3427734375,0.9765625,0.3204345703125,0.3577880859375,0.084686279296875,-0.41180419921875,0.0,0.0,0.0,32.309783935546875,0,0
HIGHRES_IMU,1291185354,-0.254119873046875,-0.16143798828125,10.001220703125,-1.129150390625,1.068115234375,0.335693359375,0.37677001953125,0.073028564453125,-0.4322509765625,0.0,0.0,0.0,32.166015625,0,0
HIGHRES_IMU,1291206356,-0.17279052734375,-0.016143798828125,9.94622802734375,0.30517578125,0.79345703125,0.4730224609375,0.366546630859375,0.068634033203125,-0.44830322265625,0.0,0.0,0.0,31.97430419921875,0,0
HIGHRES_IMU,1291227356,-0.1405029296875,0.105224609375,9.9013671875,-1.6021728515625,1.0223388671875,0.457763671875,0.398651123046875,0.1153564453125,-0.392822265625,0.0,0.0,0.0,32.070159912109375,0,0
HIGHRES_IMU,1291248357,-0.129150390625,-0.31927490234375,9.958770751953125,-0.30517578125,1.2664794921875,0.4730224609375,0.391357421875,0.084686279296875,-0.4366455078125,0.0,0.0,0.0,32.166015625,0,0
HIGHRES_IMU,1291269358,-0.086090087890625,-0.053802490234375,10.055023193359375,-1.4801025390625,0.701904296875,0.2288818359375,0.398651123046875,0.084686279296875,-0.4293212890625,0.0,0.0,0.0,32.166015625,0,0
HIGHRES_IMU,1291290356,-0.176971435546875,-0.019134521484375,9.936065673828125,-0.4730224609375,0.5340576171875,0.30517578125,0.394287109375,0.064239501953125,-0.4351806640625,0.0,0.0,0.0,32.070159912109375,0,0
HIGHRES_IMU,1291311359,-0.127349853515625,0.046630859375,9.937835693359375,-0.7781982421875,1.0986328125,0.244140625,0.385528564453125,0.064239501953125,-0.445404052734375,0.0,0.0,0.0,32.166015625,0,0
HIGHRES_IMU,1291332357,-0.142303466796875,0.154266357421875,9.882843017578125,-1.5869140625,1.5716552734375,0.1983642578125,0.384063720703125,0.087615966796875,-0.424957275390625,0.0,0.0,0.0,31.97430419921875,0,0
HIGHRES_IMU,1291353358,-0.065765380859375,0.074737548828125,9.86968994140625,0.06103515625,0.457763671875,0.213623046875,0.401580810546875,0.075927734375,-0.441009521484375,0.0,0.0,0.0,32.166015625,0,0
HIGHRES_IMU,1291374357,-0.188934326171875,0.072357177734375,9.936065673828125,-0.7171630859375,-1.434326171875,0.1373291015625,0.41619873046875,0.09637451171875,-0.423492431640625,0.0,0.0,0.0,32.309783935546875,0,0
HIGHRES_IMU,1291395358,-0.32525634765625,-0.001800537109375,9.8900146484375,-1.251220703125,1.251220703125,0.091552734375,0.439544677734375,0.103668212890625,-0.405975341796875,0.0,0.0,0.0,32.309783935546875,0,0
HIGHRES_IMU,1291416358,-0.03466796875,-0.09747314453125,10.006011962890625,-1.3580322265625,0.9918212890625,0.0762939453125,0.4322509765625,0.103668212890625,-0.398651123046875,0.0,0.0,0.0,32.357696533203125,0,0
HIGHRES_IMU,1291437357,-0.033477783203125,0.030487060546875,9.83203125,-0.6866455078125,0.6866455078125,0.2288818359375,0.420562744140625,0.10076904296875,-0.401580810546875,0.0,0.0,0.0,32.2618408203125,0,0
HIGHRES_IMU,1291458355,-0.13153076171875,-0.0352783203125,9.909759521484375,-0.3662109375,0.4425048828125,0.2899169921875,0.4322509765625,0.10076904296875,-0.40887451171875,0.0,0.0,0.0,32.166015625,0,0
HIGHRES_IMU,1291479358,-0.147674560546875,0.0352783203125,9.9193115234375,-0.4730224609375,0.8544921875,0.244140625,0.426422119140625,0.087615966796875,-0.404510498046875,0.0,0.0,0.0,32.166015625,0,0
HIGHRES_IMU,1291500355,-0.1231689453125,0.03765869140625,9.939056396484375,-0.640869140625,1.190185546875,-0.1220703125,0.40887451171875,0.093475341796875,-0.44830322265625,0.0,0.0,0.0,32.118072509765625,0,0
HIGHRES_IMU,1291521360,-0.170989990234375,0.08551025390625,9.89898681640625,0.4730224609375,0.2593994140625,0.213623046875,0.403045654296875,0.127044677734375,-0.385528564453125,0.0,0.0,0.0,32.118072509765625,0,0
HIGHRES_IMU,1291542355,-0.2642822265625,0.20806884765625,9.78118896484375,-0.3509521484375,0.701904296875,0.213623046875,0.403045654296875,0.129974365234375,-0.368011474609375,0.0,0.0,0.0,32.309783935546875,0,0
HIGHRES_IMU,1291563356,-0.083099365234375,0.05499267578125,9.878662109375,-1.0223388671875,0.762939453125,0.3204345703125,0.41033935546875,0.1197509765625,-0.37530517578125,0.0,0.0,0.0,32.166015625,0,0
HIGHRES_IMU,1291584355,-0.12255859375,-0.071746826171875,9.89898681640625,-1.556396484375,0.701904296875,0.335693359375,0.40887451171875,0.1138916015625,-0.388458251953125,0.0,0.0,0.0,31.97430419921875,0,0
HIGHRES_IMU,1291605357,-0.14410400390625,0.0,9.88702392578125,-0.701904296875,0.7781982421875,0.0762939453125,0.41326904296875,0.1212158203125,-0.381134033203125,0.0,0.0,0.0,32.070159912109375,0,0
HIGHRES_IMU,1291626357,-0.15606689453125,-0.00299072265625,9.91693115234375,-0.9918212890625,0.7781982421875,0.0762939453125,0.426422119140625,0.127044677734375,-0.379669189453125,0.0,0.0,0.0,32.166015625,0,0
HIGHRES_IMU,1291647355,-0.19970703125,0.086700439453125,9.91693115234375,-1.220703125,0.640869140625,0.4119873046875,0.419097900390625,0.127044677734375,-0.382598876953125,0.0,0.0,0.0,32.309783935546875,0,0
HIGHRES_IMU,1291668357,-0.13812255859375,-0.2056884765625,9.89599609375,-1.1749267578125,1.2359619140625,0.274658203125,0.41033935546875,0.1153564453125,-0.392822265625,0.0,0.0,0.0,32.070159912109375,0,0
HIGHRES_IMU,1291689520,-0.06817626953125,0.07293701171875,9.9605712890625,1.2359619140625,0.518798828125,0.1983642578125,0.384063720703125,0.112457275390625,-0.397216796875,0.0,0.0,0.0,31.97430419921875,0,0
HIGHRES_IMU,1291710358,-0.300140380859375,0.065765380859375,9.973114013671875,-0.640869140625,0.3662109375,-0.06103515625,0.366546630859375,0.103668212890625,-0.441009521484375,0.0,0.0,0.0,32.2618408203125,0,0
HIGHRES_IMU,1291731358,-0.106414794921875,0.086090087890625,9.94024658203125,-2.5177001953125,1.007080078125,0.5035400390625,0.3577880859375,0.1153564453125,-0.422027587890625,0.0,0.0,0.0,32.166015625,0,0
HIGHRES_IMU,1291752357,-0.098052978515625,-0.098052978515625,9.95697021484375,-1.9989013671875,1.007080078125,0.213623046875,0.384063720703125,0.105133056640625,-0.4322509765625,0.0,0.0,0.0,32.309783935546875,0,0
HIGHRES_IMU,1291773358,0.118377685546875,1.00030517578125,9.377593994140625,-1.0833740234375,-0.2593994140625,0.457763671875,0.3577880859375,0.077392578125,-0.461456298828125,0.0,0.0,0.0,32.309783935546875,0,0
HIGHRES_IMU,1291794357,-0.303131103515625,-0.02093505859375,9.79315185546875,-3.3416748046875,-0.06103515625,0.3204345703125,0.37237548828125,0.073028564453125,-0.443939208984375,0.0,0.0,0.0,31.830535888671875,0,0
HIGHRES_IMU,1291815360,-0.193115234375,-0.24273681640625,10.03948974609375,-0.1373291015625,0.79345703125,0.213623046875,0.37823486328125,0.086151123046875,-0.462921142578125,0.0,0.0,0.0,31.97430419921875,0,0
HIGHRES_IMU,1291836358,-0.147674560546875,0.123779296875,9.88165283203125,-0.18310546875,0.946044921875,0.396728515625,0.397216796875,0.1138916015625,-0.445404052734375,0.0,0.0,0.0,31.97430419921875,0,0
HIGHRES_IMU,1291857355,-0.159637451171875,-0.10882568359375,9.9486083984375,-1.2359619140625,1.1749267578125,0.244140625,0.401580810546875,0.081787109375,-0.462921142578125,0.0,0.0,0.0,32.070159912109375,0,0
HIGHRES_IMU,1291878357,-0.17877197265625,-0.250518798828125,9.92291259765625,2.6092529296875,1.190185546875,0.0,0.37677001953125,0.070098876953125,-0.49066162109375,0.0,0.0,0.0,31.97430419921875,0,0
HIGHRES_IMU,1291899357,-0.251129150390625,0.066375732421875,9.8780517578125,4.1351318359375,0.579833984375,-0.091552734375,0.398651123046875,0.084686279296875,-0.458526611328125,0.0,0.0,0.0,31.9263916015625,0,0
HIGHRES_IMU,1291920357,-0.046051025390625,0.068756103515625,9.9013671875,2.2735595703125,1.28173828125,0.18310546875,0.407440185546875,0.070098876953125,-0.47607421875,0.0,0.0,0.0,32.2618408203125,0,0
HIGHRES_IMU,1291941357,-0.30731201171875,0.191925048828125,9.91094970703125,0.8392333984375,0.8544921875,0.244140625,0.398651123046875,0.077392578125,-0.503814697265625,0.0,0.0,0.0,32.309783935546875,0,0
HIGHRES_IMU,1291962355,-0.127349853515625,0.388641357421875,9.933074951171875,-1.708984375,0.7781982421875,0.396728515625,0.40887451171875,0.054046630859375,-0.516937255859375,0.0,0.0,0.0,32.166015625,0,0
HIGHRES_IMU,1291983358,0.0,-0.192535400390625,9.87506103515625,-3.0364990234375,0.8544921875,0.3509521484375,0.41326904296875,0.103668212890625,-0.474609375,0.0,0.0,0.0,32.166015625,0,0
HIGHRES_IMU,1292004356,-0.176971435546875,0.006591796875,9.889404296875,0.7171630859375,0.3509521484375,0.274658203125,0.4337158203125,0.05987548828125,-0.5155029296875,0.0,0.0,0.0,31.9263916015625,0,0
HIGHRES_IMU,1292025356,-0.172210693359375,0.26666259765625,9.877471923828125,-2.410888671875,0.6866455078125,0.2593994140625,0.438079833984375,0.073028564453125,-0.53009033203125,0.0,0.0,0.0,32.166015625,0,0
HIGHRES_IMU,1292046356,-0.1697998046875,-0.127349853515625,9.974334716796875,-3.23486328125,0.6561279296875,0.3814697265625,0.407440185546875,0.070098876953125,-0.518402099609375,0.0,0.0,0.0,32.2618408203125,0,0
HIGHRES_IMU,1292067357,-0.156646728515625,-0.09686279296875,9.9605712890625,-1.6326904296875,0.762939453125,0.1373291015625,0.40887451171875,0.075927734375,-0.5140380859375,0.0,0.0,0.0,32.309783935546875,0,0
HIGHRES_IMU,1292088358,-0.11956787109375,0.077117919921875,9.907958984375,-1.4801025390625,0.6561279296875,0.213623046875,0.423492431640625,0.064239501953125,-0.5140380859375,0.0,0.0,0.0,32.166015625,0,0
HIGHRES_IMU,1292109358,-0.17041015625,0.02032470703125,9.891204833984375,-1.7852783203125,0.6256103515625,0.213623046875,0.419097900390625,0.073028564453125,-0.518402099609375,0.0,0.0,0.0,32.2618408203125,0,0
HIGHRES_IMU,1292130357,-0.13153076171875,-0.12017822265625,9.85772705078125,-1.64794921875,0.5645751953125,0.152587890625,0.4293212890625,0.06280517578125,-0.5081787109375,0.0,0.0,0.0,32.309783935546875,0,0
HIGHRES_IMU,1292151355,-0.172210693359375,-0.1112060546875,10.017974853515625,-0.48828125,0.7171630859375,0.152587890625,0.419097900390625,0.090545654296875,-0.49652099609375,0.0,0.0,0.0,32.309783935546875,0,0
HIGHRES_IMU,1292172356,-0.17877197265625,-0.13812255859375,10.298980712890625,2.5482177734375,1.0223388671875,0.1678466796875,0.422027587890625,0.05987548828125,-0.522796630859375,0.0,0.0,0.0,32.166015625,0,0
HIGHRES_IMU,1292193355,-0.3575439453125,0.218231201171875,9.854736328125,1.4495849609375,1.6326904296875,0.30517578125,0.4337158203125,0.090545654296875,-0.49359130859375,0.0,0.0,0.0,31.9263916015625,0,0
HIGHRES_IMU,1292214356,-0.02392578125,0.043060302734375,9.692718505859375,-1.007080078125,1.2664794921875,0.42724609375,0.427886962890625,0.078857421875,-0.48773193359375,0.0,0.0,0.0,32.309783935546875,0,0
HIGHRES_IMU,1292235358,-0.02093505859375,0.040069580078125,9.859527587890625,-0.48828125,0.54931640625,0.244140625,0.439544677734375,0.128509521484375,-0.445404052734375,0.0,0.0,0.0,32.309783935546875,0,0
HIGHRES_IMU,1292256357,-0.081329345703125,0.258880615234375,9.9898681640625,-3.6468505859375,0.396728515625,-0.0457763671875,0.427886962890625,0.081787109375,-0.484832763671875,0.0,0.0,0.0,32.166015625,0,0
HIGHRES_IMU,1292277358,-0.132720947265625,-0.277435302734375,9.94561767578125,-3.0364990234375,0.701904296875,0.2593994140625,0.4322509765625,0.086151123046875,-0.47021484375,0.0,0.0,0.0,32.166015625,0,0
HIGHRES_IMU,1292298357,-0.26129150390625,-0.015533447265625,9.924102783203125,-0.274658203125,0.946044921875,0.3509521484375,0.439544677734375,0.106597900390625,-0.44830322265625,0.0,0.0,0.0,32.118072509765625,0,0
HIGHRES_IMU,1292319360,-0.05499267578125,0.22003173828125,9.8427734375,-4.08935546875,0.79345703125,0.1983642578125,0.40887451171875,0.1138916015625,-0.462921142578125,0.0,0.0,0.0,32.309783935546875,0,0
HIGHRES_IMU,1292340354,-0.084320068359375,-0.24993896484375,9.977294921875,-2.4261474609375,0.6866455078125,0.06103515625,0.407440185546875,0.109527587890625,-0.4716796875,0.0,0.0,0.0,32.070159912109375,0,0
HIGHRES_IMU,1292361355,0.45440673828125,0.12554931640625,9.133056640625,-1.4801025390625,0.4425048828125,0.30517578125,0.40887451171875,0.131439208984375,-0.438079833984375,0.0,0.0,0.0,32.2618408203125,0,0
HIGHRES_IMU,1292382358,-0.17340087890625,-0.06817626953125,9.86669921875,-2.1209716796875,0.457763671875,-0.1678466796875,0.40887451171875,0.1212158203125,-0.427886962890625,0.0,0.0,0.0,32.309783935546875,0,0
HIGHRES_IMU,1292403355,-0.138702392578125,-0.095672607421875,9.9725341796875,-0.823974609375,0.7171630859375,0.5035400390625,0.40887451171875,0.1212158203125,-0.45269775390625,0.0,0.0,0.0,32.118072509765625,0,0
HIGHRES_IMU,1292424360,-0.175201416015625,0.05560302734375,9.94921875,-0.42724609375,0.7171630859375,0.213623046875,0.41326904296875,0.1182861328125,-0.44830322265625,0.0,0.0,0.0,32.166015625,0,0
HIGHRES_IMU,1292445358,-0.15545654296875,0.025115966796875,9.97491455078125,-0.9613037109375,1.1749267578125,0.396728515625,0.41619873046875,0.128509521484375,-0.438079833984375,0.0,0.0,0.0,32.357696533203125,0,0
HIGHRES_IMU,1292466357,-0.1644287109375,0.016143798828125,9.96356201171875,-1.068115234375,0.6866455078125,0.3204345703125,0.41473388671875,0.1153564453125,-0.439544677734375,0.0,0.0,0.0,32.166015625,0,0
HIGHRES_IMU,1292487356,-0.159637451171875,0.0233154296875,9.92767333984375,-0.91552734375,0.8392333984375,0.2899169921875,0.407440185546875,0.127044677734375,-0.446868896484375,0.0,0.0,0.0,32.166015625,0,0
HIGHRES_IMU,1292508356,-0.1590576171875,-0.006591796875,9.920501708984375,-1.0986328125,0.8697509765625,0.1983642578125,0.420562744140625,0.1212158203125,-0.459991455078125,0.0,0.0,0.0,32.166015625,0,0
HIGHRES_IMU,1292529356,0.04425048828125,-0.21405029296875,9.771026611328125,-0.885009765625,1.15966796875,0.1678466796875,0.41619873046875,0.106597900390625,-0.438079833984375,0.0,0.0,0.0,32.118072509765625,0,0
HIGHRES_IMU,1292550354,0.016754150390625,0.092071533203125,9.77044677734375,0.6561279296875,0.6256103515625,0.1068115234375,0.398651123046875,0.129974365234375,-0.443939208984375,0.0,0.0,0.0,32.2618408203125,0,0
HIGHRES_IMU,1292571358,-0.1697998046875,0.227813720703125,9.9019775390625,-2.25830078125,0.3204345703125,0.396728515625,0.420562744140625,0.146026611328125,-0.441009521484375,0.0,0.0,0.0,32.118072509765625,0,0
HIGHRES_IMU,1292592355,-0.234375,-0.178192138671875,9.958770751953125,-2.0599365234375,0.732421875,0.0762939453125,0.403045654296875,0.1197509765625,-0.424957275390625,0.0,0.0,0.0,32.309783935546875,0,0
HIGHRES_IMU,1292613358,-0.165618896484375,-0.0472412109375,9.86431884765625,-0.3204345703125,0.823974609375,0.0457763671875,0.397216796875,0.1138916015625,-0.4351806640625,0.0,0.0,0.0,32.309783935546875,0,0
HIGHRES_IMU,1292634356,-0.084320068359375,0.144683837890625,9.867889404296875,-1.1749267578125,0.7781982421875,0.213623046875,0.394287109375,0.1182861328125,-0.4307861328125,0.0,0.0,0.0,32.166015625,0,0
HIGHRES_IMU,1292655355,-0.12615966796875,-0.030487060546875,9.96295166015625,-1.2664794921875,0.7476806640625,0.06103515625,0.41619873046875,0.128509521484375,-0.441009521484375,0.0,0.0,0.0,32.118072509765625,0,0
HIGHRES_IMU,1292676356,-0.16204833984375,-0.009552001953125,9.921112060546875,-0.48828125,0.8392333984375,0.54931640625,0.41473388671875,0.129974365234375,-0.443939208984375,0.0,0.0,0.0,32.070159912109375,0,0
HIGHRES_IMU,1292697355,-0.13751220703125,-0.059783935546875,9.942047119140625,-0.3204345703125,0.7781982421875,0.152587890625,0.40887451171875,0.1212158203125,-0.445404052734375,0.0,0.0,0.0,31.9263916015625,0,0
HIGHRES_IMU,1292718357,-0.1297607421875,0.04962158203125,9.903167724609375,0.3814697265625,0.67138671875,0.18310546875,0.419097900390625,0.1226806640625,-0.461456298828125,0.0,0.0,0.0,32.166015625,0,0
HIGHRES_IMU,1292739357,-0.105224609375,0.054412841796875,9.867279052734375,-0.701904296875,0.823974609375,0.152587890625,0.404510498046875,0.1182861328125,-0.4351806640625,0.0,0.0,0.0,32.118072509765625,0,0
HIGHRES_IMU,1292760356,-0.1171875,0.048431396484375,9.949798583984375,-0.9307861328125,1.190185546875,0.457763671875,0.398651123046875,0.1226806640625,-0.439544677734375,0.0,0.0,0.0,32.166015625,0,0
HIGHRES_IMU,1292781355,-0.046051025390625,0.124359130859375,9.878662109375,-1.9073486328125,0.213623046875,0.2593994140625,0.36944580078125,0.105133056640625,-0.47607421875,0.0,0.0,0.0,32.166015625,0,0
HIGHRES_IMU,1292802358,-0.200286865234375,-0.011962890625,9.9432373046875,-1.9989013671875,0.5035400390625,0.0,0.37237548828125,0.1197509765625,-0.439544677734375,0.0,0.0,0.0,31.97430419921875,0,0
HIGHRES_IMU,1292823357,-0.127960205078125,0.021514892578125,9.964141845703125,-1.2664794921875,0.885009765625,0.1983642578125,0.398651123046875,0.112457275390625,-0.4716796875,0.0,0.0,0.0,32.166015625,0,0
HIGHRES_IMU,1292844358,-0.08251953125,-0.065765380859375,9.836212158203125,-0.5645751953125,0.8544921875,0.2593994140625,0.389892578125,0.128509521484375,-0.44830322265625,0.0,0.0,0.0,32.166015625,0,0
HIGHRES_IMU,1292865355,-0.175201416015625,0.06817626953125,9.8433837890625,-1.3580322265625,0.9765625,0.18310546875,0.391357421875,0.090545654296875,-0.486297607421875,0.0,0.0,0.0,32.166015625,0,0
HIGHRES_IMU,1292886358,-0.077728271484375,0.043060302734375,9.7901611328125,-1.5106201171875,-0.0762939453125,0.244140625,0.37237548828125,0.087615966796875,-0.49359130859375,0.0,0.0,0.0,32.166015625,0,0
HIGHRES_IMU,1292907358,-0.12677001953125,-0.0233154296875,9.91632080078125,-1.922607421875,1.007080078125,0.3204345703125,0.40887451171875,0.078857421875,-0.53448486328125,0.0,0.0,0.0,32.118072509765625,0,0
HIGHRES_IMU,1292928357,-0.142913818359375,-0.016754150390625,10.0078125,-0.6103515625,0.2288818359375,0.244140625,0.384063720703125,0.087615966796875,-0.5155029296875,0.0,0.0,0.0,32.166015625,0,0
HIGHRES_IMU,1292949355,-0.2164306640625,0.001190185546875,9.959381103515625,-0.7476806640625,0.79345703125,0.3662109375,0.385528564453125,0.071563720703125,-0.559295654296875,0.0,0.0,0.0,32.070159912109375,0,0
HIGHRES_IMU,1292970358,-0.13812255859375,-0.00836181640625,9.902557373046875,-0.42724609375,0.885009765625,0.0762939453125,0.382598876953125,0.054046630859375,-0.559295654296875,0.0,0.0,0.0,32.070159912109375,0,0
HIGHRES_IMU,1292991357,-0.14947509765625,0.074737548828125,9.902557373046875,-0.4730224609375,0.7171630859375,0.2899169921875,0.389892578125,0.089080810546875,-0.546142578125,0.0,0.0,0.0,32.309783935546875,0,0
HIGHRES_IMU,1293012355,-0.1177978515625,0.133331298828125,9.914520263671875,-1.28173828125,1.0528564453125,0.0457763671875,0.37823486328125,0.078857421875,-0.524261474609375,0.0,0.0,0.0,31.97430419921875,0,0
HIGHRES_IMU,1293033360,-0.191925048828125,-0.3988037109375,9.946807861328125,-0.152587890625,1.3427734375,0.2593994140625,0.41033935546875,0.052581787109375,-0.550537109375,0.0,0.0,0.0,32.2618408203125,0,0
HIGHRES_IMU,1293054356,-0.136322021484375,0.4287109375,10.062225341796875,-0.1068115234375,0.4425048828125,0.0762939453125,0.391357421875,0.070098876953125,-0.525726318359375,0.0,0.0,0.0,32.309783935546875,0,0
HIGHRES_IMU,1293075355,-0.36053466796875,-0.306732177734375,10.281036376953125,-1.983642578125,1.0528564453125,0.1220703125,0.41619873046875,0.075927734375,-0.53448486328125,0.0,0.0,0.0,32.166015625,0,0
HIGHRES_IMU,1293096356,-0.041259765625,0.127349853515625,10.006011962890625,-0.8544921875,0.8697509765625,0.3509521484375,0.401580810546875,0.068634033203125,-0.56658935546875,0.0,0.0,0.0,32.166015625,0,0
HIGHRES_IMU,1293117357,-0.09686279296875,0.19073486328125,9.844573974609375,-2.3040771484375,0.8392333984375,0.4730224609375,0.398651123046875,0.073028564453125,-0.554931640625,0.0,0.0,0.0,31.97430419921875,0,0
HIGHRES_IMU,1293138360,-0.09686279296875,-0.177581787109375,9.98388671875,-0.7781982421875,0.7476806640625,0.1068115234375,0.423492431640625,0.081787109375,-0.52716064453125,0.0,0.0,0.0,32.118072509765625,0,0
HIGHRES_IMU,1293159358,-0.084320068359375,0.05560302734375,9.850555419921875,-0.2288818359375,0.8544921875,0.244140625,0.407440185546875,0.070098876953125,-0.540313720703125,0.0,0.0,0.0,32.166015625,0,0
HIGHRES_IMU,1293180357,-0.139312744140625,-0.121978759765625,9.9312744140625,-0.823974609375,0.9918212890625,0.2288818359375,0.407440185546875,0.0423583984375,-0.57537841796875,0.0,0.0,0.0,31.97430419921875,0,0
HIGHRES_IMU,1293201358,-0.09625244140625,0.06097412109375,9.90496826171875,0.48828125,0.5645751953125,0.1983642578125,0.385528564453125,0.054046630859375,-0.559295654296875,0.0,0.0,0.0,31.9263916015625,0,0
HIGHRES_IMU,1293222357,-0.0819091796875,0.09625244140625,9.8660888671875,-2.716064453125,0.7171630859375,0.1373291015625,0.401580810546875,0.081787109375,-0.546142578125,0.0,0.0,0.0,31.97430419921875,0,0
HIGHRES_IMU,1293243355,-0.33184814453125,-0.31689453125,10.054443359375,-0.244140625,0.42724609375,0.2288818359375,0.401580810546875,0.071563720703125,-0.53448486328125,0.0,0.0,0.0,32.166015625,0,0
HIGHRES_IMU,1293264357,-0.2164306640625,0.2283935546875,9.897186279296875,0.3814697265625,1.0833740234375,0.30517578125,0.401580810546875,0.06134033203125,-0.549072265625,0.0,0.0,0.0,32.357696533203125,0,0
HIGHRES_IMU,1293285356,-0.282806396484375,-0.34619140625,9.843963623046875,-1.312255859375,1.46484375,0.2593994140625,0.407440185546875,0.06280517578125,-0.522796630859375,0.0,0.0,0.0,32.166015625,0,0
HIGHRES_IMU,1293306356,-0.01495361328125,0.16741943359375,9.88763427734375,0.3509521484375,0.9765625,0.1220703125,0.407440185546875,0.09490966796875,-0.5155029296875,0.0,0.0,0.0,31.9263916015625,0,0
HIGHRES_IMU,1293327357,-0.02032470703125,0.08251953125,9.780609130859375,-2.0904541015625,1.220703125,0.3662109375,0.394287109375,0.081787109375,-0.502349853515625,0.0,0.0,0.0,32.166015625,0,0
HIGHRES_IMU,1293348357,-0.062774658203125,-0.012542724609375,9.9952392578125,0.1983642578125,0.5950927734375,0.030517578125,0.398651123046875,0.112457275390625,-0.483367919921875,0.0,0.0,0.0,32.070159912109375,0,0
HIGHRES_IMU,1293369358,-0.141693115234375,0.18115234375,9.94561767578125,-1.3427734375,0.67138671875,0.1678466796875,0.365081787109375,0.105133056640625,-0.49066162109375,0.0,0.0,0.0,32.166015625,0,0
HIGHRES_IMU,1293390357,-0.153076171875,-0.14410400390625,9.9898681640625,-0.7171630859375,0.8697509765625,0.6866455078125,0.347564697265625,0.110992431640625,-0.46728515625,0.0,0.0,0.0,32.2618408203125,0,0
HIGHRES_IMU,1293411357,-0.010772705078125,0.16082763671875,9.83740234375,-0.54931640625,1.03759765625,0.152587890625,0.3519287109375,0.075927734375,-0.52716064453125,0.0,0.0,0.0,31.9263916015625,0,0
HIGHRES_IMU,1293432360,-0.169219970703125,-0.06756591796875,10.022735595703125,-0.335693359375,0.579833984375,0.244140625,0.346099853515625,0.09783935546875,-0.53009033203125,0.0,0.0,0.0,32.070159912109375,0,0
HIGHRES_IMU,1293453354,-0.11419677734375,0.07293701171875,9.75189208984375,-1.03759765625,1.0833740234375,0.213623046875,0.359222412109375,0.086151123046875,-0.53448486328125,0.0,0.0,0.0,32.2618408203125,0,0
HIGHRES_IMU,1293474358,-0.065185546875,0.095672607421875,9.874481201171875,-0.5645751953125,0.640869140625,0.1373291015625,0.346099853515625,0.09490966796875,-0.53009033203125,0.0,0.0,0.0,32.118072509765625,0,0
HIGHRES_IMU,1293495355,-0.203277587890625,0.0233154296875,9.962371826171875,0.274658203125,0.518798828125,0.213623046875,0.37237548828125,0.080322265625,-0.543243408203125,0.0,0.0,0.0,32.118072509765625,0,0
HIGHRES_IMU,1293516355,-0.289398193359375,-0.021514892578125,10.09808349609375,0.885009765625,0.4425048828125,-0.0457763671875,0.37530517578125,0.064239501953125,-0.549072265625,0.0,0.0,0.0,31.9263916015625,0,0
HIGHRES_IMU,1293537358,-0.144683837890625,0.21044921875,9.86968994140625,-1.28173828125,0.9307861328125,0.1678466796875,0.3577880859375,0.067169189453125,-0.554931640625,0.0,0.0,0.0,32.166015625,0,0
HIGHRES_IMU,1293558356,-0.200897216796875,-0.07952880859375,10.0723876953125,-0.8392333984375,0.6256103515625,0.06103515625,0.346099853515625,0.070098876953125,-0.565155029296875,0.0,0.0,0.0,32.309783935546875,0,0
HIGHRES_IMU,1293579357,-0.1524658203125,0.30792236328125,9.880462646484375,-2.2430419921875,1.0528564453125,0.3662109375,0.33441162109375,0.067169189453125,-0.53594970703125,0.0,0.0,0.0,32.309783935546875,0,0
HIGHRES_IMU,1293600354,-0.101043701171875,-0.0113525390625,9.907958984375,-3.7841796875,0.3662109375,0.213623046875,0.346099853515625,0.070098876953125,-0.547607421875,0.0,0.0,0.0,32.070159912109375,0,0
HIGHRES_IMU,1293621355,-0.15008544921875,-0.1112060546875,9.9432373046875,-2.777099609375,0.7476806640625,0.30517578125,0.33880615234375,0.070098876953125,-0.547607421875,0.0,0.0,0.0,31.9263916015625,0,0
HIGHRES_IMU,1293642360,-0.1112060546875,-0.074127197265625,9.9486083984375,-1.9683837890625,0.8392333984375,0.1373291015625,0.33880615234375,0.077392578125,-0.543243408203125,0.0,0.0,0.0,32.2618408203125,0,0
HIGHRES_IMU,1293663358,-0.142913818359375,-0.05621337890625,9.92169189453125,-1.03759765625,0.8087158203125,0.2288818359375,0.33587646484375,0.068634033203125,-0.549072265625,0.0,0.0,0.0,32.166015625,0,0
HIGHRES_IMU,1293684355,-0.08489990234375,0.080108642578125,9.88763427734375,-0.9918212890625,0.7171630859375,0.3204345703125,0.3504638671875,0.073028564453125,-0.543243408203125,0.0,0.0,0.0,32.166015625,0,0
HIGHRES_IMU,1293705358,-0.1231689453125,0.072357177734375,9.924102783203125,-1.5106201171875,0.9002685546875,0.1983642578125,0.321258544921875,0.086151123046875,-0.538848876953125,0.0,0.0,0.0,32.309783935546875,0,0
HIGHRES_IMU,1293726356,-0.110626220703125,-0.05322265625,9.90435791015625,-1.6326904296875,0.7171630859375,0.0152587890625,0.3519287109375,0.078857421875,-0.553466796875,0.0,0.0,0.0,32.166015625,0,0
HIGHRES_IMU,1293747357,-0.041259765625,-0.144683837890625,9.8846435546875,-0.823974609375,0.8544921875,0.3662109375,0.359222412109375,0.071563720703125,-0.53448486328125,0.0,0.0,0.0,32.166015625,0,0
HIGHRES_IMU,1293768355,-0.18536376953125,0.00836181640625,9.915130615234375,0.7171630859375,0.732421875,0.18310546875,0.3519287109375,0.081787109375,-0.546142578125,0.0,0.0,0.0,32.070159912109375,0,0
HIGHRES_IMU,1293789358,-0.121978759765625,0.177581787109375,9.889404296875,-0.8392333984375,0.7476806640625,0.1983642578125,0.3548583984375,0.075927734375,-0.538848876953125,0.0,0.0,0.0,32.2618408203125,0,0
HIGHRES_IMU,1293810520,-0.1297607421875,-0.06396484375,9.897796630859375,-1.556396484375,0.91552734375,0.1068115234375,0.3548583984375,0.06134033203125,-0.546142578125,0.0,0.0,0.0,32.070159912109375,0,0
HIGHRES_IMU,1293831358,-0.153656005859375,-0.021514892578125,9.921112060546875,-0.7171630859375,0.732421875,0.2899169921875,0.3548583984375,0.081787109375,-0.541778564453125,0.0,0.0,0.0,32.070159912109375,0,0
HIGHRES_IMU,1293852360,-0.173980712890625,0.007171630859375,9.876861572265625,-0.9002685546875,0.8544921875,0.2899169921875,0.360687255859375,0.073028564453125,-0.53594970703125,0.0,0.0,0.0,32.309783935546875,0,0
HIGHRES_IMU,1293873354,-0.146484375,0.001190185546875,9.9605712890625,-0.7781982421875,0.701904296875,0.213623046875,0.365081787109375,0.077392578125,-0.53302001953125,0.0,0.0,0.0,32.45355224609375,0,0
HIGHRES_IMU,1293894357,-0.172210693359375,0.02032470703125,9.88165283203125,-0.732421875,0.7476806640625,0.1068115234375,0.363616943359375,0.071563720703125,-0.52716064453125,0.0,0.0,0.0,32.166015625,0,0
HIGHRES_IMU,1293915358,-0.04425048828125,-0.26068115234375,9.8900146484375,-0.18310546875,1.373291015625,-0.030517578125,0.360687255859375,0.067169189453125,-0.53594970703125,0.0,0.0,0.0,31.97430419921875,0,0
HIGHRES_IMU,1293936360,-0.092071533203125,0.23138427734375,9.800323486328125,0.6256103515625,0.3662109375,0.152587890625,0.363616943359375,0.054046630859375,-0.53155517578125,0.0,0.0,0.0,32.2618408203125,0,0
HIGHRES_IMU,1293957358,-0.215240478515625,0.169219970703125,9.93426513671875,-2.3193359375,0.1678466796875,0.5340576171875,0.359222412109375,0.071563720703125,-0.541778564453125,0.0,0.0,0.0,32.357696533203125,0,0
HIGHRES_IMU,1293978357,-0.194305419921875,-0.28399658203125,10.01617431640625,-2.13623046875,1.1749267578125,0.3509521484375,0.366546630859375,0.071563720703125,-0.53155517578125,0.0,0.0,0.0,32.2618408203125,0,0
HIGHRES_IMU,1293999357,0.03289794921875,-0.02032470703125,9.80511474609375,-0.0152587890625,0.7781982421875,0.1983642578125,0.366546630859375,0.086151123046875,-0.53448486328125,0.0,0.0,0.0,32.166015625,0,0
HIGHRES_IMU,1294020355,-0.115386962890625,0.10223388671875,9.882232666015625,-1.800537109375,0.67138671875,0.0,0.3548583984375,0.089080810546875,-0.538848876953125,0.0,0.0,0.0,31.97430419921875,0,0
HIGHRES_IMU,1294041355,-0.127349853515625,-0.156646728515625,10.006591796875,-1.40380859375,0.7171630859375,0.4425048828125,0.360687255859375,0.077392578125,-0.53302001953125,0.0,0.0,0.0,32.2618408203125,0,0
HIGHRES_IMU,1294062354,-0.159637451171875,-0.047821044921875,9.92230224609375,-0.1373291015625,0.9765625,0.1678466796875,0.36944580078125,0.073028564453125,-0.53302001953125,0.0,0.0,0.0,31.97430419921875,0,0
