mavpackettype,time_usec,xacc,yacc,zacc,xgyro,ygyro,zgyro,xmag,ymag,zmag,id,temperature
RAW_IMU,4011211,34,188,16615,-66,57,27,79,156,418,0,2352
RAW_IMU,4032208,-10,195,16536,-84,54,32,84,156,420,0,2368
RAW_IMU,4053208,-18,146,16635,-86,44,10,76,158,423,0,2304
RAW_IMU,4074209,-41,77,16681,-72,54,36,87,163,415,0,2352
RAW_IMU,4095209,-6,197,16545,-71,54,40,71,165,415,0,2320
RAW_IMU,4116209,211,121,16560,-70,59,27,75,159,426,0,2288
RAW_IMU,4137210,-120,258,16612,-62,54,36,82,161,420,0,2288
RAW_IMU,4158208,47,106,16595,-79,51,18,91,164,424,0,2240
RAW_IMU,4179209,55,35,16681,-59,46,46,88,150,426,0,2304
RAW_IMU,4200209,-42,249,16623,-80,67,15,86,155,407,0,2352
RAW_IMU,4221209,-40,87,16626,-74,75,21,84,165,425,0,2320
RAW_IMU,4242375,-69,-27,16664,-73,50,67,76,151,415,0,2304
RAW_IMU,4263209,337,990,16801,-74,63,49,78,152,417,0,2352
RAW_IMU,4284209,-22,-24,16767,37,-28,-10,87,153,423,0,2352
RAW_IMU,4305210,-44,1109,16714,-56,68,86,80,159,417,0,2304
RAW_IMU,4326210,-229,-456,16787,-170,144,-70,82,158,420,0,2320
RAW_IMU,4347208,2,-585,16818,-16,-7,43,86,159,417,0,2368
RAW_IMU,4368209,-18,687,16459,-55,55,137,79,153,418,0,2288
RAW_IMU,4389209,375,242,16878,-139,107,-88,79,151,425,0,2384
RAW_IMU,4410210,-232,-98,16663,-55,4,33,80,159,426,0,2352
RAW_IMU,4431210,-335,584,16776,-89,96,34,84,153,425,0,2304
RAW_IMU,4452208,-184,-84,16602,-97,46,-22,88,159,424,0,2368
RAW_IMU,4473209,101,195,16759,-71,60,95,78,159,421,0,2304
RAW_IMU,4494209,60,338,16700,-71,52,7,80,155,414,0,2352
RAW_IMU,4515209,15,164,16625,-101,60,25,82,158,418,0,2352
RAW_IMU,4536210,-38,-7,16652,-55,48,12,87,156,418,0,2320
RAW_IMU,4557208,-240,964,16234,-63,70,105,91,159,426,0,2432
RAW_IMU,4578209,-7,309,16618,20,-44,38,87,165,413,0,2240
RAW_IMU,4599209,-310,-300,17119,-108,117,188,75,167,419,0,2352
RAW_IMU,4620209,-82,775,16943,-38,22,21,75,157,424,0,2352
RAW_IMU,4641210,230,243,16498,-151,130,-97,84,161,435,0,2320
RAW_IMU,4662208,131,-171,16532,-54,32,53,73,150,431,0,2304
RAW_IMU,4683209,-104,498,16612,-109,96,-22,82,144,425,0,2416
RAW_IMU,4704209,-2,-256,16363,-120,73,-6,69,158,430,0,2352
RAW_IMU,4725210,-60,312,16563,-21,2,46,75,152,426,0,2352
RAW_IMU,4746210,110,115,16724,-117,79,24,76,156,430,0,2352
RAW_IMU,4767209,341,164,16593,-93,57,-7,73,147,426,0,2208
RAW_IMU,4788209,431,70,16497,-110,82,33,75,167,434,0,2384
RAW_IMU,4809210,-547,-228,16468,-104,76,-5,79,163,435,0,2320
RAW_IMU,4830210,-1371,-432,16672,-84,114,63,86,155,429,0,2288
RAW_IMU,4851209,166,192,16712,4,-20,125,74,148,432,0,2320
RAW_IMU,4872209,361,686,16489,-121,94,-14,76,148,428,0,2352
RAW_IMU,4893209,-18,-17,16818,-140,140,9,78,152,414,0,2352
RAW_IMU,4914209,-413,495,16549,-148,132,43,84,153,423,0,2352
RAW_IMU,4935209,35,99,16880,-144,102,72,86,152,426,0,2352
RAW_IMU,4956209,210,455,16716,-240,214,213,76,148,425,0,2384
RAW_IMU,4977209,-34,299,16610,-271,217,345,75,155,431,0,2320
RAW_IMU,4998209,233,1176,16825,-216,357,646,73,147,419,0,2320
RAW_IMU,5019210,816,-71,16489,-242,542,775,69,168,425,0,2320
RAW_IMU,5040210,-658,-891,18164,-619,731,462,78,152,407,0,2320
RAW_IMU,5061208,-1812,-606,17812,-1413,490,-88,78,157,409,0,2432
RAW_IMU,5082209,-1194,-1025,17013,-1911,110,-597,69,156,415,0,2320
RAW_IMU,5103209,789,-1201,15970,-1496,293,-552,79,156,415,0,2320
RAW_IMU,5124210,-138,-389,17221,-455,433,-11,67,162,424,0,2352
RAW_IMU,5145210,-1524,-536,18120,-80,-309,551,82,156,413,0,2304
RAW_IMU,5166209,-2238,-1522,18399,495,-1337,485,80,159,414,0,2352
RAW_IMU,5187209,-1434,465,19128,161,-2210,249,79,151,410,0,2288
RAW_IMU,5208210,135,1014,18863,-787,-2428,321,74,146,415,0,2416
RAW_IMU,5229210,1378,690,18585,-1594,-2063,605,62,155,421,0,2432
RAW_IMU,5250210,1756,666,18539,-2571,-1586,890,66,148,420,0,2320
RAW_IMU,5271209,2433,1232,17397,-4060,-759,1113,57,145,417,0,2288
RAW_IMU,5292209,1375,-2046,17559,-4798,140,997,58,144,425,0,2320
RAW_IMU,5313210,1335,-2476,16971,-4707,402,659,58,124,425,0,2432
RAW_IMU,5334210,1194,-2721,16732,-4443,336,570,53,124,430,0,2288
RAW_IMU,5355212,395,-4059,16903,-4126,61,527,58,122,425,0,2352
RAW_IMU,5376211,-179,-4366,17976,-3624,-563,510,56,110,435,0,2320
RAW_IMU,5397211,260,-4798,16697,-2891,-1189,645,52,94,444,0,2320
RAW_IMU,5418211,593,-4050,15593,-2078,-1228,623,58,98,430,0,2320
RAW_IMU,5439208,298,-3121,16259,-2176,-1276,286,63,95,437,0,2352
RAW_IMU,5460214,1172,-3853,15846,-2086,-1582,179,54,92,436,0,2384
RAW_IMU,5481208,1883,-4033,15610,-1799,-1673,134,46,79,439,0,2208
RAW_IMU,5502209,1908,-4748,15693,-1443,-1488,-43,43,90,437,0,2352
RAW_IMU,5523209,1601,-4125,16096,-802,-1321,-97,41,92,436,0,2416
RAW_IMU,5544210,1491,-4434,16052,-399,-1384,7,46,75,441,0,2304
RAW_IMU,5565208,1940,-3977,15446,259,-1405,43,40,78,440,0,2352
RAW_IMU,5586209,2445,-3369,15008,568,-994,70,33,82,434,0,2288
RAW_IMU,5607209,1673,-3239,16119,307,-616,-44,37,85,442,0,2304
RAW_IMU,5628210,1027,-4195,17111,282,-794,-262,40,81,432,0,2240
RAW_IMU,5649210,577,-5417,17363,1066,-1538,-438,31,84,436,0,2320
RAW_IMU,5670210,1092,-4840,16813,2311,-2484,-585,30,88,428,0,2384
RAW_IMU,5691210,2069,-4040,16081,2995,-3162,-726,27,85,423,0,2320
RAW_IMU,5712210,2943,-3088,15536,3225,-3422,-797,23,92,414,0,2320
RAW_IMU,5733210,3513,-2734,15574,2681,-3257,-827,16,98,415,0,2368
RAW_IMU,5754210,4292,-3475,14865,2452,-2557,-882,7,99,419,0,2464
RAW_IMU,5775209,4702,-2466,14398,2512,-1511,-765,7,111,421,0,2320
RAW_IMU,5796209,4494,-889,14456,1867,-619,-529,-5,116,419,0,2368
RAW_IMU,5817210,4096,-1123,14726,704,-30,-230,7,116,404,0,2352
RAW_IMU,5838210,4008,-1909,14735,-6,384,91,9,110,410,0,2352
RAW_IMU,5859211,3654,-2319,14784,-207,747,333,15,111,417,0,2384
RAW_IMU,5880210,3321,-2531,14902,-467,997,458,-1,105,425,0,2320
RAW_IMU,5901210,3008,-3340,15018,-250,1159,558,0,108,417,0,2352
RAW_IMU,5922210,2945,-3463,14941,324,1309,556,15,108,407,0,2368
RAW_IMU,5943210,2650,-2655,14938,613,1618,476,7,96,417,0,2352
RAW_IMU,5964211,2736,-2248,14971,406,2002,442,19,112,423,0,2352
RAW_IMU,5985210,2581,-2529,14943,445,2292,613,16,112,423,0,2240
RAW_IMU,6006211,2438,-2096,15225,417,2403,789,18,111,417,0,2352
RAW_IMU,6027211,2352,-2093,15379,77,2326,820,30,115,425,0,2352
RAW_IMU,6048211,1560,-1849,15683,-344,2225,593,24,110,428,0,2384
RAW_IMU,6069211,2014,-1685,15728,-879,1894,452,32,110,432,0,2368
RAW_IMU,6090208,1797,-1908,15795,-1168,1320,434,23,108,434,0,2304
RAW_IMU,6111209,2036,-2160,15288,-1535,645,383,30,119,428,0,2416
RAW_IMU,6132209,2985,-1555,15064,-1971,246,146,31,101,431,0,2304
RAW_IMU,6153209,2914,-1781,15114,-3057,-226,-259,33,111,434,0,2368
RAW_IMU,6174212,2803,-2193,15426,-4263,-788,-806,37,98,435,0,2304
RAW_IMU,6195209,2717,-3366,15774,-5044,-1424,-1475,31,92,434,0,2352
RAW_IMU,6216209,3096,-4525,15973,-5152,-2130,-2064,40,88,432,0,2432
RAW_IMU,6237210,3827,-5341,15470,-5209,-2657,-2619,26,82,444,0,2352
RAW_IMU,6258210,4836,-5715,15307,-5465,-2878,-3054,22,71,432,0,2368
RAW_IMU,6279209,5392,-6377,15520,-5887,-2831,-3317,19,71,420,0,2320
RAW_IMU,6300209,5308,-7511,15620,-5943,-2744,-3570,23,65,421,0,2288
RAW_IMU,6321210,5387,-7820,15971,-5747,-2741,-3884,16,56,420,0,2384
RAW_IMU,6342210,5993,-8637,15523,-5146,-2688,-4097,14,49,420,0,2352
RAW_IMU,6363375,6060,-7878,15408,-4670,-2536,-4063,2,43,419,0,2320
RAW_IMU,6384209,6012,-7563,14975,-4492,-2261,-3777,-1,37,413,0,2320
RAW_IMU,6405209,5773,-7564,14965,-4560,-2098,-3295,-7,46,419,0,2368
RAW_IMU,6426209,5647,-8066,14439,-4468,-2024,-2732,-14,39,415,0,2384
RAW_IMU,6447209,5490,-7398,13830,-4386,-2020,-2120,-3,42,413,0,2416
RAW_IMU,6468212,5115,-7031,13696,-4861,-2337,-1496,-6,35,418,0,2384
RAW_IMU,6489209,5079,-7685,13296,-5164,-2976,-987,-6,18,403,0,2304
RAW_IMU,6510209,5488,-8045,12872,-5268,-3640,-486,-27,18,401,0,2368
RAW_IMU,6531210,5538,-8228,12495,-5330,-4163,-164,-24,13,408,0,2464
RAW_IMU,6552210,6318,-8843,11787,-5365,-4462,186,-27,8,386,0,2368
RAW_IMU,6573208,6283,-8429,11579,-5617,-4659,611,-26,0,380,0,2384
RAW_IMU,6594209,6158,-9859,11139,-5816,-4982,998,-36,-4,380,0,2256
RAW_IMU,6615209,6253,-10320,10749,-5698,-5368,1406,-45,-23,374,0,2352
RAW_IMU,6636210,6720,-10887,10101,-5579,-5797,1843,-54,-26,360,0,2384
RAW_IMU,6657210,6783,-10888,9356,-5617,-6199,2248,-49,-31,345,0,2368
RAW_IMU,6678208,6900,-11227,8691,-5866,-6521,2567,-58,-44,339,0,2416
RAW_IMU,6699209,7044,-11842,7921,-5993,-6825,2809,-57,-48,323,0,2320
RAW_IMU,6720209,7179,-12543,7398,-5873,-7124,3006,-63,-54,315,0,2352
RAW_IMU,6741209,7391,-13150,6649,-5506,-7373,3075,-63,-64,305,0,2352
RAW_IMU,6762210,7587,-13445,5913,-5076,-7449,3120,-90,-83,280,0,2384
RAW_IMU,6783208,7649,-13323,5306,-4776,-7391,3091,-82,-83,275,0,2416
RAW_IMU,6804209,7864,-14008,4612,-4418,-7241,3126,-80,-87,250,0,2240
RAW_IMU,6825209,8046,-14270,3809,-4036,-6907,3136,-84,-100,256,0,2480
RAW_IMU,6846210,8226,-14818,3143,-3575,-6472,3120,-82,-102,229,0,2368
RAW_IMU,6867210,8065,-14860,2251,-2819,-5954,3013,-90,-107,229,0,2416
RAW_IMU,6888209,7721,-14222,1557,-2708,-5386,2777,-84,-110,207,0,2416
RAW_IMU,6909209,7947,-14239,984,-3075,-4851,2517,-80,-118,193,0,2320
RAW_IMU,6930210,7927,-14843,538,-2930,-4317,2305,-78,-118,188,0,2416
RAW_IMU,6951210,7408,-15197,218,-2508,-3753,1810,-78,-125,176,0,2432
RAW_IMU,6972209,7142,-14882,64,-2227,-3329,1285,-75,-130,174,0,2464
RAW_IMU,6993209,6863,-15830,-356,-1859,-3094,782,-75,-123,166,0,2320
RAW_IMU,7014211,6941,-15021,-1057,-1492,-2823,338,-73,-135,152,0,2384
RAW_IMU,7035211,6702,-15249,-1205,-1517,-2602,79,-88,-128,152,0,2352
RAW_IMU,7056211,6720,-14362,-1354,-1660,-2542,70,-78,-133,139,0,2352
RAW_IMU,7077210,6153,-14403,-1609,-1803,-2720,82,-80,-125,142,0,2416
RAW_IMU,7098211,6430,-15054,-1730,-2072,-2964,88,-78,-133,122,0,2368
RAW_IMU,7119208,6698,-15096,-1883,-2164,-3117,231,-74,-141,133,0,2368
RAW_IMU,7140209,6887,-14831,-2365,-2203,-3074,170,-75,-133,130,0,2464
RAW_IMU,7161209,6870,-14879,-2492,-2236,-2937,139,-63,-124,109,0,2352
RAW_IMU,7182212,6891,-14872,-2821,-2094,-2822,216,-67,-123,107,0,2416
RAW_IMU,7203209,6799,-15082,-3229,-1672,-2611,177,-80,-130,107,0,2320
RAW_IMU,7224209,6653,-14817,-3437,-1454,-2372,93,-70,-130,95,0,2368
RAW_IMU,7245210,6431,-15096,-3648,-1296,-2338,19,-62,-125,93,0,2368
RAW_IMU,7266210,6494,-14309,-3922,-1110,-2333,4,-58,-127,84,0,2352
RAW_IMU,7287209,6592,-13914,-4192,-1147,-2234,28,-67,-125,93,0,2416
RAW_IMU,7308209,6267,-14592,-4297,-981,-2110,144,-67,-130,78,0,2320
RAW_IMU,7329210,6542,-14438,-4463,-528,-1846,229,-66,-131,84,0,2384
RAW_IMU,7350210,6707,-14135,-4622,-352,-1414,340,-71,-117,72,0,2352
RAW_IMU,7371210,6450,-13960,-4552,-371,-1056,453,-49,-125,71,0,2416
RAW_IMU,7392209,6063,-13911,-4318,-606,-1012,497,-63,-134,69,0,2384
RAW_IMU,7413209,5956,-14275,-4033,-653,-1296,577,-66,-136,65,0,2384
RAW_IMU,7434210,5874,-14519,-4133,-568,-1614,566,-61,-129,62,0,2352
RAW_IMU,7455210,6385,-14746,-4344,-405,-1692,499,-62,-135,53,0,2432
RAW_IMU,7476212,6496,-14672,-4450,-152,-1484,547,-67,-128,61,0,2320
RAW_IMU,7497211,6429,-14007,-4455,-272,-1292,597,-62,-142,56,0,2416
RAW_IMU,7518211,6044,-14337,-4154,-612,-1443,570,-54,-125,51,0,2320
RAW_IMU,7539211,5795,-14576,-4123,-670,-1909,536,-54,-130,46,0,2384
RAW_IMU,7560208,5550,-14478,-4242,-654,-2463,459,-49,-135,49,0,2384
RAW_IMU,7581214,5703,-14414,-4504,-631,-2854,345,-50,-127,45,0,2368
RAW_IMU,7602208,5842,-14439,-4864,-499,-2948,328,-45,-134,35,0,2320
RAW_IMU,7623209,5920,-14711,-5205,-237,-2805,357,-37,-134,35,0,2432
RAW_IMU,7644209,5979,-14543,-5425,-4,-2401,488,-43,-136,42,0,2464
RAW_IMU,7665210,5526,-14793,-5405,106,-2001,503,-44,-130,31,0,2384
RAW_IMU,7686208,4897,-14706,-5233,199,-1862,456,-46,-133,26,0,2352
RAW_IMU,7707209,4320,-14521,-5329,198,-2081,386,-36,-133,26,0,2304
RAW_IMU,7728209,4010,-14785,-5374,129,-2445,269,-31,-133,34,0,2352
RAW_IMU,7749210,4131,-14666,-5762,51,-2717,312,-35,-131,13,0,2368
RAW_IMU,7770210,2860,-14628,-7174,-237,-2358,793,-24,-127,13,0,2368
RAW_IMU,7791210,2479,-15678,-6959,-158,-1911,1345,-33,-138,12,0,2480
RAW_IMU,7812210,2946,-14817,-6797,-174,-1898,1377,-30,-141,23,0,2352
RAW_IMU,7833210,3453,-14368,-6964,-473,-2016,1069,-24,-134,23,0,2352
RAW_IMU,7854210,3292,-14687,-6548,-1043,-2160,595,-9,-134,13,0,2352
RAW_IMU,7875210,3178,-15942,-6109,-1226,-2518,278,-27,-139,8,0,2352
RAW_IMU,7896209,3019,-15282,-6157,-777,-2943,260,-15,-140,-2,0,2352
RAW_IMU,7917209,3359,-14278,-6416,-648,-3104,412,-9,-144,-3,0,2304
RAW_IMU,7938210,3029,-14310,-6136,-585,-3242,728,-5,-142,0,0,2368
RAW_IMU,7959210,2549,-14937,-6501,-562,-3512,944,-1,-136,-11,0,2416
RAW_IMU,7980211,2712,-14973,-6368,-430,-3724,910,0,-140,-19,0,2416
RAW_IMU,8001209,2616,-15445,-6341,-326,-3726,865,13,-133,-14,0,2368
RAW_IMU,8022212,2694,-15074,-6560,69,-3602,698,5,-140,-29,0,2288
RAW_IMU,8043209,2637,-14514,-6965,-60,-3312,429,9,-144,-20,0,2352
RAW_IMU,8064209,2807,-15353,-7476,-234,-2857,219,32,-141,-35,0,2384
RAW_IMU,8085211,2623,-16356,-6942,-5,-2532,-11,20,-133,-36,0,2352
RAW_IMU,8106210,2842,-15361,-7378,431,-2350,-284,26,-135,-24,0,2384
RAW_IMU,8127210,2789,-14826,-7445,264,-2225,-921,35,-136,-40,0,2320
RAW_IMU,8148210,2265,-14727,-7339,-53,-2353,-1559,19,-129,-40,0,2384
RAW_IMU,8169210,1305,-14083,-6740,-168,-2818,-1827,28,-135,-41,0,2304
RAW_IMU,8190208,437,-14717,-6774,-632,-3487,-1754,33,-138,-51,0,2464
RAW_IMU,8211209,168,-15077,-8639,-649,-4298,-1678,28,-130,-49,0,2352
RAW_IMU,8232209,899,-14488,-7658,-1015,-4750,-1447,30,-136,-52,0,2432
RAW_IMU,8253210,1306,-14075,-8103,-1026,-4801,-1419,41,-142,-46,0,2384
RAW_IMU,8274210,1858,-12522,-8583,-1786,-4287,-1475,37,-129,-67,0,2368
RAW_IMU,8295208,1667,-12328,-9060,-2943,-3541,-1378,45,-117,-62,0,2384
RAW_IMU,8316209,1667,-15972,-8507,-3128,-2874,-1371,52,-125,-66,0,2352
RAW_IMU,8337209,2469,-16163,-8194,-2037,-2410,-1815,43,-115,-77,0,2384
RAW_IMU,8358210,2959,-14277,-9101,-1638,-1881,-2564,56,-110,-82,0,2416
RAW_IMU,8379210,2646,-12748,-9721,-2131,-1290,-3125,53,-105,-79,0,2432
RAW_IMU,8400209,1708,-12086,-9941,-2750,-879,-2939,46,-101,-83,0,2368
RAW_IMU,8421209,1464,-12215,-9300,-3418,-842,-2595,46,-101,-80,0,2352
RAW_IMU,8442210,320,-14045,-8592,-3534,-1347,-2241,43,-102,-91,0,2384
RAW_IMU,8463210,2849,-10324,-10219,-3104,-2152,-2210,48,-105,-72,0,2432
RAW_IMU,8484375,2486,-13561,-10977,-4070,-2229,-2844,32,-112,-89,0,2352
RAW_IMU,8505209,2073,-12694,-9653,-3458,-2625,-3242,50,-102,-101,0,2384
RAW_IMU,8526209,2278,-12871,-10174,-2990,-2928,-3319,61,-93,-77,0,2320
RAW_IMU,8547209,2247,-13381,-10877,-2412,-2981,-2930,56,-76,-87,0,2416
RAW_IMU,8568209,3563,-13745,-10984,-1204,-2587,-2183,57,-65,-122,0,2384
RAW_IMU,8589212,4550,-12368,-11218,-320,-2014,-1619,61,-44,-118,0,2464
RAW_IMU,8610209,4506,-13138,-9709,-137,-1420,-1600,49,-50,-130,0,2352
RAW_IMU,8631209,4482,-12799,-10377,760,-804,-1692,71,-61,-126,0,2352
RAW_IMU,8652210,3386,-11978,-10174,1831,-592,-1671,65,-50,-120,0,2416
RAW_IMU,8673210,2735,-10442,-10484,1708,-870,-1349,71,-54,-128,0,2464
RAW_IMU,8694208,2828,-11138,-10777,941,-989,-546,73,-53,-132,0,2416
RAW_IMU,8715209,3708,-12881,-11342,1133,-614,444,73,-60,-117,0,2464
RAW_IMU,8736209,4526,-13003,-11315,1590,186,1006,66,-61,-133,0,2416
RAW_IMU,8757210,4902,-13579,-11300,1441,1197,619,75,-67,-127,0,2464
RAW_IMU,8778210,3593,-13650,-10754,1353,1998,-119,74,-64,-128,0,2368
RAW_IMU,8799208,2530,-13987,-10935,1460,2494,-598,66,-78,-138,0,2368
RAW_IMU,8820209,2226,-13760,-9752,1533,2622,-861,54,-84,-139,0,2320
RAW_IMU,8841209,1873,-12806,-8945,1759,2199,-625,49,-77,-134,0,2368
RAW_IMU,8862209,2431,-11463,-8644,2112,1528,-11,45,-88,-128,0,2432
RAW_IMU,8883210,2585,-11449,-9202,1851,1046,524,54,-70,-105,0,2368
RAW_IMU,8904208,2706,-11215,-9367,1486,657,1060,50,-83,-96,0,2464
RAW_IMU,8925209,2528,-12424,-9788,652,321,1054,48,-81,-101,0,2256
RAW_IMU,8946209,2687,-14245,-9694,819,75,611,53,-83,-96,0,2416
RAW_IMU,8967210,2445,-14046,-9701,1092,-274,130,40,-83,-99,0,2416
RAW_IMU,8988210,2533,-13490,-9827,1051,-583,48,65,-87,-95,0,2368
RAW_IMU,9009208,2378,-12835,-9804,854,-873,47,46,-89,-90,0,2416
RAW_IMU,9030211,2671,-12708,-9730,479,-1177,210,69,-83,-94,0,2304
RAW_IMU,9051211,3031,-13623,-9653,164,-1299,363,54,-84,-98,0,2384
RAW_IMU,9072211,3481,-14111,-9573,382,-1141,461,61,-76,-99,0,2368
RAW_IMU,9093210,3347,-14212,-9705,709,-891,535,65,-87,-98,0,2368
RAW_IMU,9114211,3258,-13900,-9832,699,-607,366,58,-95,-94,0,2384
RAW_IMU,9135208,2918,-13659,-9592,423,-453,87,57,-96,-90,0,2320
RAW_IMU,9156209,2599,-13936,-9442,43,-481,-60,63,-85,-99,0,2384
RAW_IMU,9177209,2450,-14103,-9087,-113,-644,-219,63,-95,-96,0,2352
RAW_IMU,9198209,2826,-14512,-8966,-38,-776,-188,62,-87,-90,0,2432
RAW_IMU,9219209,2867,-14093,-9090,-26,-744,-96,67,-92,-100,0,2432
RAW_IMU,9240209,2657,-13260,-9225,-154,-597,-30,65,-89,-100,0,2352
RAW_IMU,9261210,2672,-14167,-8888,-280,-493,-21,65,-94,-112,0,2352
RAW_IMU,9282210,2625,-14063,-8624,-180,-294,19,62,-87,-103,0,2416
RAW_IMU,9303208,2184,-13710,-8362,-247,-115,75,73,-94,-93,0,2352
RAW_IMU,9324209,1758,-13570,-8476,-326,-76,30,71,-93,-94,0,2432
RAW_IMU,9345209,1383,-12796,-8818,-534,-149,-67,67,-84,-98,0,2352
RAW_IMU,9366210,1211,-13221,-9038,-800,-292,-124,61,-81,-104,0,2384
RAW_IMU,9387210,1182,-13560,-9033,-653,-469,113,80,-92,-107,0,2304
RAW_IMU,9408209,1748,-13959,-8820,-400,-431,492,82,-88,-101,0,2320
RAW_IMU,9429209,2671,-13276,-10038,-350,-301,471,65,-87,-100,0,2288
RAW_IMU,9450210,3004,-13297,-9939,-797,-161,-15,73,-94,-107,0,2352
RAW_IMU,9471210,2684,-13462,-9913,-1265,-140,-462,76,-83,-96,0,2432
RAW_IMU,9492210,2443,-13389,-9840,-1528,-241,-854,69,-83,-106,0,2368
RAW_IMU,9513209,2093,-12475,-10307,-1863,-384,-972,69,-81,-99,0,2384
RAW_IMU,9534209,2388,-13470,-9953,-1849,-520,-885,67,-79,-105,0,2304
RAW_IMU,9555210,2206,-13310,-10002,-1679,-859,-723,66,-73,-111,0,2352
RAW_IMU,9576210,2242,-12292,-9669,-1780,-1223,-683,67,-77,-107,0,2384
RAW_IMU,9597212,2368,-11805,-10535,-2276,-1559,-839,56,-71,-116,0,2352
RAW_IMU,9618211,2512,-10922,-10083,-2921,-1720,-1011,67,-84,-134,0,2352
RAW_IMU,9639211,2407,-11872,-10830,-3313,-1750,-1039,83,-62,-125,0,2368
RAW_IMU,9660211,2434,-11028,-11178,-3676,-1730,-978,80,-55,-132,0,2464
RAW_IMU,9681208,2067,-11386,-11480,-4325,-1845,-1062,86,-55,-137,0,2416
RAW_IMU,9702214,2970,-11675,-12274,-4501,-1915,-1127,97,-49,-148,0,2384
RAW_IMU,9723208,3017,-11854,-12526,-4321,-1823,-1105,91,-38,-149,0,2368
RAW_IMU,9744209,2941,-12085,-13264,-3853,-1540,-1022,93,-21,-152,0,2256
RAW_IMU,9765209,2433,-11072,-12865,-3243,-1096,-856,84,-23,-143,0,2352
RAW_IMU,9786210,2298,-9901,-12237,-3049,-801,-809,84,-18,-148,0,2368
RAW_IMU,9807208,2184,-10008,-12131,-2734,-754,-792,105,-25,-143,0,2368
RAW_IMU,9828209,1737,-10135,-12290,-2387,-800,-842,100,-15,-150,0,2496
RAW_IMU,9849209,1451,-10785,-12778,-1987,-812,-976,90,-3,-153,0,2352
RAW_IMU,9870210,1803,-10289,-12824,-1888,-760,-1352,93,-4,-157,0,2352
RAW_IMU,9891210,1929,-10442,-13457,-2023,-829,-1569,97,-15,-168,0,2384
RAW_IMU,9912210,1970,-9236,-13166,-2144,-620,-1737,109,0,-157,0,2368
RAW_IMU,9933210,2907,-10665,-13512,-1900,-256,-1938,100,1,-165,0,2384
RAW_IMU,9954210,2924,-11141,-13607,-1086,-32,-2081,101,2,-166,0,2288
RAW_IMU,9975210,2438,-10232,-13364,-820,142,-1990,103,3,-155,0,2416
RAW_IMU,9996210,2286,-10170,-13593,-751,83,-2004,100,9,-176,0,2464
RAW_IMU,10017210,3047,-9338,-14126,-484,-9,-1951,103,18,-165,0,2432
RAW_IMU,10038212,3379,-8349,-14047,-798,6,-1621,100,8,-165,0,2352
RAW_IMU,10059209,3054,-7946,-13784,-1300,195,-1205,96,14,-166,0,2464
RAW_IMU,10080209,2416,-8049,-13570,-1778,175,-903,101,16,-164,0,2416
RAW_IMU,10101210,2418,-8546,-13646,-2188,-156,-871,91,14,-159,0,2432
RAW_IMU,10122210,2821,-8466,-13803,-2306,-489,-900,103,20,-172,0,2368
RAW_IMU,10143210,2519,-7665,-13893,-2500,-755,-823,97,23,-163,0,2352
RAW_IMU,10164210,2603,-7339,-13687,-3031,-1018,-677,93,29,-169,0,2384
RAW_IMU,10185210,2926,-7474,-13543,-3464,-1275,-407,103,37,-168,0,2464
RAW_IMU,10206211,3473,-5081,-12566,-4076,-1354,-45,101,43,-161,0,2464
RAW_IMU,10227210,3264,-5730,-13585,-5225,-1370,361,106,50,-164,0,2384
RAW_IMU,10248211,2802,-6549,-14622,-4961,-1180,801,108,59,-163,0,2352
RAW_IMU,10269211,2173,-7042,-14984,-4114,-1160,952,103,73,-165,0,2464
RAW_IMU,10290211,2560,-6447,-15231,-3507,-1165,765,101,67,-166,0,2384
RAW_IMU,10311211,1842,-5441,-14655,-3073,-1123,573,109,70,-159,0,2480
RAW_IMU,10332208,1425,-6259,-15334,-2696,-1134,209,108,81,-150,0,2368
RAW_IMU,10353209,1615,-5737,-15705,-2245,-1073,-169,110,83,-165,0,2352
RAW_IMU,10374209,2150,-4507,-15761,-2385,-849,-393,116,88,-163,0,2432
RAW_IMU,10395209,2179,-5199,-16606,-2292,-647,-311,109,89,-157,0,2384
RAW_IMU,10416212,1650,-5159,-16916,-1808,-454,-285,106,99,-157,0,2368
RAW_IMU,10437209,1216,-4426,-15727,-1905,-453,-643,117,94,-159,0,2368
RAW_IMU,10458209,639,-3432,-15085,-2296,-762,-950,121,88,-145,0,2352
RAW_IMU,10479210,826,-3772,-15926,-2486,-1123,-852,129,102,-143,0,2368
RAW_IMU,10500210,1153,-4464,-16695,-2391,-1528,-622,129,115,-143,0,2368
RAW_IMU,10521209,929,-2963,-15853,-2559,-1682,-446,131,117,-148,0,2352
RAW_IMU,10542209,799,1840,-12441,-4027,-1824,-249,138,116,-159,0,2432
RAW_IMU,10563210,1666,-2537,-16321,-3996,-2795,404,150,124,-150,0,2352
RAW_IMU,10584210,527,-2763,-16954,-4057,-2632,437,144,131,-145,0,2416
RAW_IMU,10605375,736,-4421,-17663,-3879,-2115,69,146,136,-148,0,2432
RAW_IMU,10626209,1149,-2685,-16940,-3267,-1443,-216,147,139,-150,0,2352
RAW_IMU,10647209,1066,-1725,-16774,-3227,-803,-350,152,151,-143,0,2352
RAW_IMU,10668209,408,-1701,-16289,-3386,-653,-374,148,150,-149,0,2416
RAW_IMU,10689209,-646,-2604,-16604,-2957,-908,-302,167,167,-139,0,2416
RAW_IMU,10710212,-814,-2023,-17080,-2264,-1199,-327,148,162,-144,0,2416
RAW_IMU,10731209,-455,-424,-16809,-1999,-1267,-299,164,157,-132,0,2416
RAW_IMU,10752209,999,889,-17168,-1817,-1146,-207,161,169,-137,0,2288
RAW_IMU,10773210,367,179,-17313,-2027,-570,-218,170,175,-138,0,2384
RAW_IMU,10794210,-475,-407,-16930,-1869,-72,-362,160,168,-141,0,2384
RAW_IMU,10815208,-1240,190,-15820,-2052,-86,-639,168,178,-136,0,2352
RAW_IMU,10836209,-1447,903,-14301,-2632,-668,-607,163,175,-131,0,2480
RAW_IMU,10857209,-696,628,-16023,-2720,-1338,-287,177,188,-125,0,2352
RAW_IMU,10878210,-13,604,-16434,-2792,-1722,105,169,181,-125,0,2432
RAW_IMU,10899210,-757,646,-15765,-3589,-2187,387,170,190,-121,0,2480
RAW_IMU,10920208,-1207,1387,-16636,-3974,-2028,134,178,194,-123,0,2480
RAW_IMU,10941209,-2055,2480,-16521,-4393,-1758,-242,195,198,-110,0,2416
RAW_IMU,10962209,-1769,2635,-16586,-4556,-1484,-591,187,193,-112,0,2288
RAW_IMU,10983209,-1345,1983,-17007,-4231,-1370,-418,185,208,-107,0,2464
RAW_IMU,11004210,-669,1980,-16849,-3621,-1246,58,170,216,-104,0,2480
RAW_IMU,11025209,-1196,2670,-16264,-3301,-1052,264,187,213,-103,0,2464
RAW_IMU,11046209,-1877,2701,-16105,-3394,-936,2,183,228,-91,0,2432
RAW_IMU,11067209,-2808,3585,-15799,-3411,-847,-520,187,222,-88,0,2368
RAW_IMU,11088209,-2528,3935,-15533,-3479,-849,-911,185,227,-85,0,2416
RAW_IMU,11109210,-2132,4357,-15571,-3574,-922,-946,198,234,-76,0,2384
RAW_IMU,11130209,-2198,4646,-15602,-3673,-940,-888,202,245,-74,0,2416
RAW_IMU,11151209,-2483,5097,-15475,-4024,-849,-946,206,251,-73,0,2416
RAW_IMU,11172209,-2969,5727,-15765,-4365,-784,-972,202,257,-65,0,2368
RAW_IMU,11193210,-2776,5985,-15548,-4592,-777,-904,200,249,-63,0,2480
RAW_IMU,11214209,-2563,6205,-15493,-4616,-869,-786,207,260,-52,0,2464
RAW_IMU,11235209,-2177,6557,-15371,-4626,-823,-509,210,267,-55,0,2320
RAW_IMU,11256209,-2465,7400,-15309,-4916,-691,-242,204,262,-40,0,2352
RAW_IMU,11277210,-2454,7231,-14966,-5189,-485,-36,211,271,-31,0,2416
RAW_IMU,11298210,-2549,6776,-14673,-4950,-347,37,213,271,-31,0,2464
RAW_IMU,11319209,-2597,7311,-14214,-4542,-256,47,203,280,-22,0,2352
RAW_IMU,11340209,-2986,8329,-13902,-4417,-407,68,212,282,-15,0,2432
RAW_IMU,11361209,-3219,8780,-13499,-4600,-525,128,212,286,-15,0,2320
RAW_IMU,11382209,-3073,8842,-13526,-4702,-569,120,212,289,-6,0,2528
RAW_IMU,11403210,-2926,8542,-13149,-4559,-463,119,208,290,7,0,2352
RAW_IMU,11424210,-2678,9387,-13199,-4493,-269,1,220,291,6,0,2384
RAW_IMU,11445210,-3042,9684,-13295,-4540,-108,161,225,303,20,0,2384
RAW_IMU,11466210,-3166,9934,-12470,-4542,-12,251,215,301,23,0,2320
RAW_IMU,11487210,-3328,10633,-12081,-4578,-98,88,215,308,28,0,2432
RAW_IMU,11508210,-3063,10583,-12140,-4741,-202,-55,213,307,41,0,2416
RAW_IMU,11529209,-3171,10671,-11809,-4657,-317,-45,219,305,49,0,2464
RAW_IMU,11550209,-3551,11059,-11447,-4557,-402,-64,217,313,60,0,2352
RAW_IMU,11571210,-3833,11708,-11005,-4496,-556,-42,224,312,68,0,2368
RAW_IMU,11592210,-3712,11550,-10230,-4259,-705,3,211,319,68,0,2352
RAW_IMU,11613210,-3186,11809,-9834,-3960,-893,-103,212,323,69,0,2368
RAW_IMU,11634209,-3185,12161,-9816,-3646,-989,-177,223,325,82,0,2352
RAW_IMU,11655209,-3653,12305,-9906,-3467,-1051,-149,220,323,101,0,2384
RAW_IMU,11676210,-3612,12567,-9436,-3305,-910,-179,211,324,98,0,2352
RAW_IMU,11697210,-3369,13633,-9058,-3355,-846,-328,212,325,101,0,2416
RAW_IMU,11718212,-3705,13858,-9330,-3560,-702,-345,221,331,110,0,2368
RAW_IMU,11739211,-3495,13103,-9001,-3562,-567,-259,220,320,116,0,2480
RAW_IMU,11760211,-3608,13322,-8599,-3533,-371,-242,221,329,122,0,2352
RAW_IMU,11781211,-3324,13395,-7949,-3505,-213,-502,219,324,127,0,2464
RAW_IMU,11802208,-3270,13790,-7648,-3433,-92,-684,227,322,122,0,2384
RAW_IMU,11823214,-3793,14646,-7666,-3530,-20,-641,224,322,134,0,2368
RAW_IMU,11844208,-3925,15032,-7859,-4081,86,-449,220,335,145,0,2368
RAW_IMU,11865209,-3673,14469,-7081,-4492,327,-238,228,323,145,0,2416
RAW_IMU,11886209,-3692,14480,-6424,-4476,552,-36,224,329,161,0,2432
RAW_IMU,11907210,-3949,14687,-5939,-4289,764,217,225,337,165,0,2416
RAW_IMU,11928208,-4090,15666,-5643,-4547,855,429,229,319,176,0,2368
RAW_IMU,11949209,-3840,15850,-5136,-5158,814,669,230,325,182,0,2480
RAW_IMU,11970209,-3521,15556,-4676,-5402,782,839,232,319,188,0,2352
RAW_IMU,11991210,-3337,15192,-4396,-5439,766,956,227,324,198,0,2480
RAW_IMU,12012212,-3392,14875,-3694,-5584,730,976,211,319,208,0,2464
RAW_IMU,12033210,-3639,14923,-3111,-5480,612,923,219,326,225,0,2464
RAW_IMU,12054210,-4013,15633,-2448,-5343,343,702,221,314,220,0,2432
RAW_IMU,12075210,-3878,16803,-2439,-5840,-113,538,219,310,230,0,2368
RAW_IMU,12096210,-3492,16289,-2602,-6353,-499,553,216,310,247,0,2384
RAW_IMU,12117210,-3484,15936,-1699,-6450,-719,401,208,312,260,0,2432
RAW_IMU,12138209,-3477,15426,-665,-6465,-789,115,219,300,264,0,2384
RAW_IMU,12159209,-3475,15285,58,-6100,-752,-189,216,310,284,0,2464
RAW_IMU,12180210,-3706,15772,346,-5753,-612,-422,213,285,289,0,2416
RAW_IMU,12201210,-3403,16314,507,-5831,-450,-596,213,293,294,0,2464
RAW_IMU,12222211,-2921,16257,802,-5837,-250,-643,213,285,311,0,2416
RAW_IMU,12243210,-3003,16180,1493,-5869,-56,-765,219,285,309,0,2432
RAW_IMU,12264210,-3512,16489,2363,-6034,155,-955,216,280,321,0,2464
RAW_IMU,12285210,-3347,16138,2810,-6082,386,-1018,225,272,329,0,2384
RAW_IMU,12306210,-3380,15670,3080,-6034,733,-888,210,262,337,0,2464
RAW_IMU,12327211,-3461,15641,3715,-5888,1088,-726,211,259,350,0,2544
RAW_IMU,12348210,-3605,15213,4545,-5643,1434,-565,220,253,356,0,2384
RAW_IMU,12369211,-3786,14514,4640,-5147,1620,-350,229,247,365,0,2320
RAW_IMU,12390211,-4281,14160,5054,-4561,1653,-153,233,240,371,0,2384
RAW_IMU,12411211,-4445,14252,5770,-4217,1390,-35,230,240,364,0,2496
RAW_IMU,12432211,-4664,14049,6190,-3704,928,-76,236,231,371,0,2480
RAW_IMU,12453208,-4873,14330,6285,-3352,512,-111,233,231,371,0,2464
RAW_IMU,12474209,-4800,13868,6385,-3139,241,-186,237,225,372,0,2368
RAW_IMU,12495209,-4538,13660,6721,-2720,153,-134,245,217,380,0,2384
RAW_IMU,12516209,-4295,13890,6602,-2336,132,-92,228,214,383,0,2416
RAW_IMU,12537212,-4053,14422,6467,-2270,133,-130,240,222,390,0,2480
RAW_IMU,12558209,-4166,14124,6874,-2406,143,-94,238,209,388,0,2464
RAW_IMU,12579209,-4265,13837,7294,-2207,125,4,238,209,388,0,2320
RAW_IMU,12600210,-4679,14197,7822,-2090,66,68,234,205,390,0,2416
RAW_IMU,12621210,-4561,14195,7858,-2263,-30,47,227,205,394,0,2496
RAW_IMU,12642209,-4214,14218,7831,-2494,-40,-69,237,198,399,0,2368
RAW_IMU,12663209,-3829,13880,7826,-2671,85,-163,228,185,396,0,2416
RAW_IMU,12684210,-3670,13756,8081,-2842,206,-254,229,198,402,0,2368
RAW_IMU,12705210,-4018,13511,8288,-3021,208,-319,237,196,399,0,2464
RAW_IMU,12726375,-4290,13283,8829,-3211,152,-317,234,179,402,0,2480
RAW_IMU,12747209,-4390,12949,9208,-3172,139,-266,227,179,409,0,2480
RAW_IMU,12768209,-4147,12114,9028,-2772,166,-133,245,171,412,0,2384
RAW_IMU,12789209,-4220,11908,9095,-2207,257,-71,241,180,413,0,2352
RAW_IMU,12810209,-4785,12397,9510,-2055,265,-117,241,175,418,0,2384
RAW_IMU,12831212,-5189,12912,9951,-2012,134,57,240,174,417,0,2464
RAW_IMU,12852209,-5352,12581,10118,-2108,-189,475,234,162,412,0,2496
RAW_IMU,12873209,-5067,12605,9935,-2098,-496,875,237,152,409,0,2416
RAW_IMU,12894210,-4854,12870,9584,-2403,-667,1042,225,156,418,0,2320
RAW_IMU,12915210,-4560,13654,9767,-3091,-827,1032,229,162,424,0,2416
RAW_IMU,12936208,-4427,12490,10028,-3599,-951,1031,217,153,423,0,2384
RAW_IMU,12957209,-4225,11489,10678,-3365,-1137,1180,232,138,429,0,2368
RAW_IMU,12978209,-3800,11410,10939,-2913,-1225,1104,223,136,435,0,2384
RAW_IMU,12999210,-3382,11904,10523,-2770,-1204,787,219,135,431,0,2384
RAW_IMU,13020212,-3125,12280,10581,-3149,-1085,376,213,128,429,0,2384
RAW_IMU,13041210,-2888,11854,10890,-3446,-865,151,210,129,430,0,2480
RAW_IMU,13062211,-3297,11309,11414,-3466,-748,146,219,118,436,0,2432
RAW_IMU,13083211,-3551,10578,12351,-3237,-709,295,217,122,442,0,2368
RAW_IMU,13104211,-3763,10097,13137,-2765,-673,522,212,112,442,0,2416
RAW_IMU,13125211,-3321,9867,13099,-2194,-726,760,215,105,440,0,2416
RAW_IMU,13146209,-2884,9598,12647,-1707,-647,900,212,110,440,0,2480
RAW_IMU,13167210,-2667,9446,12641,-1232,-412,977,212,102,445,0,2368
RAW_IMU,13188210,-2852,9778,12693,-1023,-296,989,212,105,442,0,2352
RAW_IMU,13209210,-3005,9891,12614,-1195,-343,1051,203,96,441,0,2384
RAW_IMU,13230210,-2557,9782,12600,-1113,-379,1279,206,104,444,0,2432
RAW_IMU,13251209,-2484,10282,12396,-1405,-422,1409,202,102,450,0,2368
RAW_IMU,13272209,-2302,10591,12185,-1625,-316,1442,204,90,440,0,2432
RAW_IMU,13293210,-2179,10555,12549,-2044,-156,1585,193,94,439,0,2384
RAW_IMU,13314210,-2662,9226,13676,-2221,-150,2013,203,99,453,0,2480
RAW_IMU,13335209,-2309,9645,13472,-2216,-281,2284,199,85,442,0,2416
RAW_IMU,13356209,-2190,8862,13674,-2260,-322,2255,203,87,448,0,2464
RAW_IMU,13377209,-1726,8600,13998,-1975,-331,2012,200,87,451,0,2480
RAW_IMU,13398209,-1187,8998,13884,-1456,-195,1579,199,78,447,0,2384
RAW_IMU,13419209,-812,9947,13256,-1388,89,1015,190,70,456,0,2384
RAW_IMU,13440209,-1953,9020,13172,-1599,518,666,211,82,436,0,2480
RAW_IMU,13461209,-1447,9049,13979,-1291,819,571,197,76,455,0,2352
RAW_IMU,13482209,-2098,9550,14200,-1206,830,648,191,71,457,0,2384
RAW_IMU,13503210,-2506,9655,14051,-1510,665,860,200,65,448,0,2416
RAW_IMU,13524210,-2397,9591,14280,-1800,536,1276,204,64,455,0,2480
RAW_IMU,13545208,-2387,9118,14285,-1828,493,1629,215,61,442,0,2432
RAW_IMU,13566209,-2619,8810,14263,-2012,363,1679,216,62,453,0,2496
RAW_IMU,13587209,-2518,8488,14688,-2316,114,1496,206,55,456,0,2352
RAW_IMU,13608210,-2220,8575,15207,-2456,-330,1445,207,64,455,0,2432
RAW_IMU,13629210,-2050,8453,15469,-2391,-842,1631,203,50,453,0,2480
RAW_IMU,13650209,-1779,7964,15297,-2130,-1230,1935,198,55,453,0,2352
RAW_IMU,13671209,-1383,7427,15350,-1951,-1517,1981,203,53,453,0,2480
RAW_IMU,13692210,-1100,6992,15126,-1779,-1702,1700,183,44,457,0,2368
RAW_IMU,13713210,-888,6715,14927,-1676,-1858,1353,186,37,459,0,2496
RAW_IMU,13734210,-252,6666,14999,-1461,-1871,1178,186,27,455,0,2464
RAW_IMU,13755209,324,6804,14861,-1315,-1770,1054,190,38,458,0,2464
RAW_IMU,13776209,763,6541,14627,-1308,-1486,997,186,30,467,0,2480
RAW_IMU,13797210,688,6601,14592,-1462,-1161,954,187,33,453,0,2384
RAW_IMU,13818210,530,6244,14867,-1736,-913,887,189,37,467,0,2496
RAW_IMU,13839212,624,6028,15166,-1898,-749,860,189,20,467,0,2464
RAW_IMU,13860211,627,5885,15414,-1944,-704,965,174,21,468,0,2528
RAW_IMU,13881211,778,5861,15323,-1858,-699,1144,180,16,446,0,2464
RAW_IMU,13902211,885,5695,15333,-1866,-730,1246,177,12,451,0,2384
RAW_IMU,13923208,1174,5042,15419,-1740,-716,1351,178,1,457,0,2496
RAW_IMU,13944214,1568,4715,15356,-1322,-521,1381,178,10,447,0,2480
RAW_IMU,13965208,1601,4956,15274,-1123,-344,1175,168,13,455,0,2480
RAW_IMU,13986209,1437,4750,15291,-1037,-159,963,180,9,458,0,2480
RAW_IMU,14007209,1187,5096,15726,-805,-32,960,169,-2,461,0,2416
RAW_IMU,14028210,1142,5455,16161,-615,-163,1038,168,13,457,0,2528
RAW_IMU,14049208,1241,5938,15796,-509,-299,1181,177,12,456,0,2432
RAW_IMU,14070209,1120,6655,15771,-887,-374,1365,161,4,456,0,2384
RAW_IMU,14091209,1209,6396,15535,-1386,-463,1598,177,14,456,0,2480
RAW_IMU,14112210,1526,5483,15655,-1485,-444,1841,164,0,448,0,2480
RAW_IMU,14133210,1402,4839,15651,-1412,-325,1811,176,3,467,0,2528
RAW_IMU,14154210,1412,5007,15933,-1533,-296,1607,167,-12,450,0,2480
RAW_IMU,14175210,1515,4581,15821,-1586,-304,1462,168,-3,450,0,2496
RAW_IMU,14196210,1486,4245,15908,-1384,-342,1439,178,-6,445,0,2368
RAW_IMU,14217210,1417,4388,16241,-1360,-477,1295,177,-7,448,0,2480
RAW_IMU,14238210,1391,4187,16177,-1413,-711,1171,169,-19,463,0,2432
RAW_IMU,14259209,1470,3964,16051,-1235,-902,1251,169,-4,461,0,2464
RAW_IMU,14280209,1661,3732,15892,-1171,-1157,1256,173,-10,452,0,2496
RAW_IMU,14301210,1987,3300,15645,-1026,-1285,1231,165,-25,459,0,2416
RAW_IMU,14322210,2214,3052,15438,-568,-1226,848,160,-18,459,0,2416
RAW_IMU,14343211,2586,3838,15430,-303,-1049,377,168,-25,450,0,2480
RAW_IMU,14364210,2686,3912,15280,-321,-903,36,164,-29,439,0,2496
RAW_IMU,14385210,2978,3253,14942,-71,-701,212,159,-24,453,0,2432
RAW_IMU,14406210,2899,3062,14725,68,-416,750,155,-30,457,0,2384
RAW_IMU,14427210,2749,2995,15029,-106,-163,1032,160,-27,455,0,2480
RAW_IMU,14448211,3083,2680,15033,-337,-109,1068,160,-25,450,0,2496
RAW_IMU,14469210,3277,3248,15321,-64,-117,1069,157,-23,455,0,2464
RAW_IMU,14490211,3139,3708,15349,94,3,976,160,-20,452,0,2528
RAW_IMU,14511211,2981,3057,15096,184,214,692,161,-21,453,0,2384
RAW_IMU,14532211,2953,2274,14874,524,524,338,159,-24,463,0,2464
RAW_IMU,14553211,3146,2886,14964,841,768,180,157,-18,450,0,2480
RAW_IMU,14574208,3363,3908,14914,646,1094,159,163,-23,457,0,2496
RAW_IMU,14595209,3607,5019,15898,186,1448,131,156,-19,451,0,2464
RAW_IMU,14616209,3508,5659,16656,-68,1729,487,165,-20,445,0,2368
RAW_IMU,14637209,3268,6628,16939,-652,1953,1018,178,-10,457,0,2480
RAW_IMU,14658212,2133,5902,16546,-1342,2123,1270,173,-18,455,0,2432
RAW_IMU,14679209,1976,5001,16085,-1872,2490,1304,174,-24,453,0,2528
RAW_IMU,14700209,1959,4322,16339,-2254,2768,1438,170,-32,459,0,2416
RAW_IMU,14721210,1500,2896,16161,-2616,2721,1302,173,-23,445,0,2368
RAW_IMU,14742210,485,685,17259,-1965,2286,1015,189,-25,447,0,2464
RAW_IMU,14763209,-103,619,17466,-778,1427,570,185,-38,446,0,2352
RAW_IMU,14784209,115,2431,17249,110,715,437,189,-44,447,0,2480
RAW_IMU,14805210,587,3247,16689,55,274,480,207,-39,445,0,2464
RAW_IMU,14826210,465,3528,16323,-395,183,504,207,-35,459,0,2464
RAW_IMU,14847375,446,2456,16273,-769,19,379,203,-41,448,0,2480
RAW_IMU,14868209,1142,3050,16616,-871,-413,517,202,-35,447,0,2464
RAW_IMU,14889209,882,2870,16470,-678,-937,995,194,-42,452,0,2432
RAW_IMU,14910209,577,2643,16088,-451,-1217,1236,199,-42,450,0,2480
RAW_IMU,14931209,1510,2040,15571,-120,-1033,1195,195,-50,448,0,2464
RAW_IMU,14952212,1948,1273,15422,513,-482,1304,194,-39,445,0,2416
RAW_IMU,14973209,1922,562,15698,1494,80,1368,199,-52,445,0,2464
RAW_IMU,14994209,2300,1718,16551,2380,553,1122,187,-41,448,0,2384
RAW_IMU,15015210,2289,2882,16156,2517,768,800,195,-31,441,0,2416
RAW_IMU,15036210,1850,2452,15813,2427,902,395,190,-38,446,0,2528
RAW_IMU,15057208,1722,3642,16246,2489,990,125,190,-29,451,0,2432
RAW_IMU,15078209,901,4189,17181,1989,986,14,204,-8,447,0,2416
RAW_IMU,15099209,70,4325,17224,1060,746,-111,197,-18,450,0,2496
RAW_IMU,15120209,-389,5178,16497,-11,102,-231,215,-10,455,0,2416
RAW_IMU,15141210,-468,5327,16883,-996,-768,-211,202,-18,447,0,2464
RAW_IMU,15162208,323,4081,17714,-1292,-1922,-259,199,-20,457,0,2464
RAW_IMU,15183209,884,4359,17127,-1387,-3169,-635,197,-20,455,0,2432
RAW_IMU,15204209,445,3460,17142,-1335,-4067,-1133,181,-25,455,0,2432
RAW_IMU,15225209,1179,4270,15036,-1326,-4518,-1206,182,-24,434,0,2368
RAW_IMU,15246210,1918,3799,14801,-1935,-4686,-1345,180,-29,451,0,2480
RAW_IMU,15267208,2378,2185,16014,-1212,-4834,-1179,167,-48,451,0,2528
RAW_IMU,15288209,3617,2959,16670,-193,-5170,-925,153,-33,441,0,2480
RAW_IMU,15309209,4387,2564,17639,40,-5480,-1060,153,-31,444,0,2464
RAW_IMU,15330210,5133,3614,15252,262,-5674,-1476,131,-32,442,0,2432
RAW_IMU,15351210,5707,3603,14208,1,-5361,-1735,134,-37,452,0,2496
RAW_IMU,15372209,6296,2404,13999,420,-4431,-1684,116,-25,440,0,2496
RAW_IMU,15393209,7618,3631,13161,1034,-2868,-1333,104,-29,456,0,2480
RAW_IMU,15414210,8305,3531,13224,689,-1186,-1165,99,-19,441,0,2352
RAW_IMU,15435210,8426,3096,13356,201,375,-1545,95,-23,437,0,2496
RAW_IMU,15456209,8146,4441,13165,-54,1764,-2171,106,-19,444,0,2464
RAW_IMU,15477209,6528,3852,14643,-86,2662,-2242,103,-25,445,0,2464
RAW_IMU,15498209,5833,3637,14944,-205,3107,-2372,114,-19,441,0,2416
RAW_IMU,15519209,4864,3886,15063,-327,3311,-2627,105,-18,447,0,2368
RAW_IMU,15540209,2988,4697,15915,-357,3056,-2545,112,-14,456,0,2464
RAW_IMU,15561209,1526,4980,17084,-468,2248,-1981,121,-15,450,0,2480
RAW_IMU,15582209,1201,4800,17369,-477,1146,-1192,121,-10,450,0,2480
RAW_IMU,15603209,1514,4582,17819,-537,-153,-737,126,-18,447,0,2480
RAW_IMU,15624210,1639,4770,17717,-548,-1677,-578,125,-9,444,0,2416
RAW_IMU,15645210,2214,4880,16996,-698,-3115,-339,116,-25,445,0,2496
RAW_IMU,15666208,2110,4938,16272,-557,-4296,0,117,-19,439,0,2464
RAW_IMU,15687209,2896,4878,15754,-378,-5247,672,110,-23,450,0,2496
RAW_IMU,15708209,3561,4477,15273,14,-5999,1423,91,-31,453,0,2480
RAW_IMU,15729210,4342,4389,14900,163,-6625,1928,90,-18,435,0,2384
RAW_IMU,15750210,6109,4375,14508,106,-7059,2255,91,-12,444,0,2528
RAW_IMU,15771209,6697,3979,13592,-364,-7181,2307,66,-30,437,0,2528
RAW_IMU,15792209,7581,2512,13131,-352,-7057,1959,57,-33,434,0,2496
RAW_IMU,15813210,8745,2129,12527,166,-6528,1665,50,-18,430,0,2528
RAW_IMU,15834210,9600,1935,12367,777,-5755,1383,35,-32,408,0,2480
RAW_IMU,15855210,10193,2785,12129,974,-5140,1047,37,-23,413,0,2528
RAW_IMU,15876209,10314,3679,11484,474,-4618,754,20,-31,402,0,2480
RAW_IMU,15897209,11199,2583,11431,-280,-3866,355,5,-29,407,0,2496
RAW_IMU,15918210,11138,1771,11708,-279,-3169,-69,10,-38,404,0,2416
RAW_IMU,15939210,10752,2270,11845,66,-2761,-302,9,-25,396,0,2480
RAW_IMU,15960212,10893,3405,11715,296,-2623,-235,-1,-23,393,0,2496
RAW_IMU,15981211,11306,3209,11753,305,-2444,-103,-10,-19,399,0,2432
RAW_IMU,16002211,11510,2952,11755,276,-2402,-347,-7,-19,404,0,2416
RAW_IMU,16023211,11304,3415,11806,267,-2650,-535,-9,-20,393,0,2352
RAW_IMU,16044211,10651,3541,11713,191,-3008,-662,-7,-14,394,0,2528
RAW_IMU,16065217,10540,4230,11699,73,-3509,-592,-19,-27,396,0,2416
RAW_IMU,16086211,11040,3526,11831,-100,-3971,-487,-32,-15,376,0,2496
RAW_IMU,16107208,11174,3164,11669,276,-4423,-596,-31,-21,380,0,2480
RAW_IMU,16128209,11001,3398,11116,764,-5028,-624,-37,-23,374,0,2384
RAW_IMU,16149209,10966,4006,10527,1046,-5848,-543,-50,-13,374,0,2528
RAW_IMU,16170209,11546,3794,10104,1043,-6559,-611,-50,-20,359,0,2480
RAW_IMU,16191210,12308,3434,9441,1141,-6917,-771,-54,-14,348,0,2544
RAW_IMU,16212210,12670,3852,8559,1188,-7236,-1071,-56,-6,342,0,2480
RAW_IMU,16233210,12905,4041,7864,1357,-7475,-1304,-79,-3,332,0,2432
RAW_IMU,16254210,13422,4470,6886,1509,-7568,-1421,-76,-13,332,0,2560
RAW_IMU,16275210,14061,4225,5854,1931,-7240,-1410,-95,1,325,0,2480
RAW_IMU,16296210,14624,4816,4212,2329,-6312,-1292,-103,-6,302,0,2464
RAW_IMU,16317210,15147,5870,3733,1949,-5615,-1222,-104,7,284,0,2496
RAW_IMU,16338210,15277,6715,3171,1596,-4835,-966,-106,7,284,0,2528
RAW_IMU,16359210,15392,6641,3174,1364,-3938,-562,-117,14,272,0,2496
RAW_IMU,16380209,15299,6091,3184,1064,-3440,-219,-110,15,271,0,2544
RAW_IMU,16401209,15608,6581,3728,926,-3178,107,-106,12,269,0,2480
RAW_IMU,16422210,14435,6332,3885,738,-3415,407,-116,13,251,0,2496
RAW_IMU,16443210,14154,5590,4028,754,-3951,743,-118,13,251,0,2496
RAW_IMU,16464211,13873,5305,3217,699,-4591,919,-114,9,250,0,2480
RAW_IMU,16485210,14131,5034,3020,840,-5291,794,-120,7,233,0,2480
RAW_IMU,16506210,14340,5051,2744,1066,-6204,718,-131,6,229,0,2496
RAW_IMU,16527210,14188,4735,1695,1091,-6950,774,-126,15,222,0,2464
RAW_IMU,16548210,14257,4706,416,1303,-7227,730,-139,10,217,0,2560
RAW_IMU,16569211,14417,3977,-659,1552,-7231,371,-129,6,212,0,2480
RAW_IMU,16590210,14884,4501,-959,1782,-7136,209,-133,12,176,0,2464
RAW_IMU,16611211,14748,4370,-2437,2104,-7094,379,-143,4,183,0,2416
RAW_IMU,16632211,14976,5968,-2738,1954,-6988,463,-147,6,158,0,2384
RAW_IMU,16653211,13894,5085,-3620,1165,-6626,269,-134,13,145,0,2496
RAW_IMU,16674211,14544,4784,-4064,831,-6330,-64,-130,-9,127,0,2480
RAW_IMU,16695208,15493,4239,-5033,717,-5878,-117,-140,4,130,0,2544
RAW_IMU,16716209,15776,3965,-5958,859,-5178,-252,-135,7,107,0,2480
RAW_IMU,16737209,15389,5145,-6221,642,-4346,-283,-135,0,103,0,2384
RAW_IMU,16758209,14634,4069,-6574,73,-3481,-481,-134,3,101,0,2416
RAW_IMU,16779212,14153,3361,-6330,74,-2918,-1029,-136,-3,87,0,2480
RAW_IMU,16800209,14186,5019,-7036,764,-2892,-1086,-135,-2,88,0,2464
RAW_IMU,16821209,14738,5172,-7030,873,-3005,-1102,-125,14,85,0,2480
RAW_IMU,16842210,13950,4618,-7528,1016,-2485,-959,-125,9,66,0,2368
RAW_IMU,16863210,13737,4718,-7153,1184,-2510,-770,-126,10,69,0,2496
RAW_IMU,16884209,14144,4871,-7355,1764,-2742,-701,-127,12,73,0,2480
RAW_IMU,16905209,13059,6824,-7099,1535,-2950,-621,-133,7,61,0,2480
RAW_IMU,16926210,12727,5066,-7689,1628,-2574,-156,-121,23,72,0,2528
RAW_IMU,16947210,13240,5715,-7114,1748,-2678,193,-125,9,51,0,2352
RAW_IMU,16968375,13149,4958,-8420,2375,-2895,736,-131,15,45,0,2496
RAW_IMU,16989209,13269,6376,-7883,2150,-3264,1009,-123,13,42,0,2432
RAW_IMU,17010211,12799,4688,-9021,2292,-3408,1203,-116,3,40,0,2464
RAW_IMU,17031211,12613,4493,-9386,2218,-3167,1449,-110,6,35,0,2480
RAW_IMU,17052211,13276,5376,-8908,2034,-2782,1642,-114,-7,39,0,2352
RAW_IMU,17073209,13106,4680,-9564,1480,-2336,1738,-114,-4,29,0,2480
RAW_IMU,17094209,13382,2847,-10261,1284,-1980,1750,-114,-9,17,0,2480
RAW_IMU,17115210,13532,3879,-10404,970,-1533,1573,-108,-15,18,0,2480
RAW_IMU,17136210,12897,3703,-10299,261,-1091,1241,-105,-23,11,0,2384
RAW_IMU,17157210,12404,2153,-9987,-82,-917,753,-101,-9,19,0,2480
RAW_IMU,17178208,11917,2107,-9580,194,-1242,484,-93,-24,19,0,2480
RAW_IMU,17199209,12132,2518,-9517,403,-2052,387,-108,-20,15,0,2416
RAW_IMU,17220209,12749,2905,-10389,543,-2402,493,-104,-9,7,0,2528
RAW_IMU,17241210,12321,2767,-11122,587,-2197,643,-96,-29,22,0,2384
RAW_IMU,17262210,12230,1855,-10793,659,-1823,661,-88,-31,-2,0,2432
RAW_IMU,17283208,11536,2291,-10923,905,-1940,722,-97,-27,8,0,2496
RAW_IMU,17304209,11569,2304,-10955,1102,-2104,1006,-104,-31,-2,0,2544
RAW_IMU,17325209,12244,2631,-10828,1144,-2227,1251,-84,-32,1,0,2528
RAW_IMU,17346209,11565,3017,-11480,1180,-2099,1316,-87,-30,-8,0,2432
RAW_IMU,17367210,11418,2401,-11496,1000,-1912,1346,-86,-31,-2,0,2560
RAW_IMU,17388208,11330,1994,-11364,1002,-1839,1331,-93,-38,-7,0,2480
RAW_IMU,17409209,10612,1413,-11427,1128,-1974,1335,-78,-41,-19,0,2480
RAW_IMU,17430209,10409,1143,-11033,1176,-2257,1216,-76,-52,-18,0,2528
RAW_IMU,17451210,10046,1654,-11643,1135,-2578,1018,-74,-42,-13,0,2464
RAW_IMU,17472210,9602,313,-12102,966,-2927,886,-75,-50,-9,0,2528
RAW_IMU,17493209,10486,-375,-12402,1162,-2946,630,-67,-60,-26,0,2480
RAW_IMU,17514209,10185,1168,-13051,1453,-2834,637,-63,-49,-20,0,2464
RAW_IMU,17535210,10657,2492,-13130,1717,-2551,935,-66,-54,-30,0,2464
RAW_IMU,17556210,11152,3924,-13220,1054,-2235,1318,-50,-61,-35,0,2384
RAW_IMU,17577209,10085,1481,-13486,569,-1701,1471,-50,-73,-38,0,2496
RAW_IMU,17598209,9627,-851,-13630,486,-1376,1234,-60,-67,-34,0,2432
RAW_IMU,17619209,9444,-466,-13569,668,-1221,894,-45,-71,-38,0,2528
RAW_IMU,17640209,9643,437,-13471,723,-1193,861,-52,-62,-34,0,2464
RAW_IMU,17661209,9496,190,-13510,615,-1404,819,-44,-77,-41,0,2432
RAW_IMU,17682209,9332,-91,-13395,618,-1534,712,-40,-73,-45,0,2528
RAW_IMU,17703209,9376,96,-13074,657,-1566,744,-33,-79,-45,0,2464
RAW_IMU,17724209,9034,104,-13406,739,-1651,883,-45,-69,-55,0,2496
RAW_IMU,17745210,8454,-348,-13727,799,-1896,1017,-31,-84,-46,0,2368
RAW_IMU,17766210,8649,-862,-13805,948,-2101,1133,-36,-72,-56,0,2480
RAW_IMU,17787208,8399,-452,-13692,1268,-2188,1198,-32,-93,-57,0,2496
RAW_IMU,17808209,8062,-945,-13650,1425,-2094,1305,-35,-85,-55,0,2496
RAW_IMU,17829209,7834,-506,-13821,1352,-2322,1298,-24,-83,-57,0,2496
RAW_IMU,17850210,8013,-849,-14171,1159,-2393,1244,-13,-87,-58,0,2464
RAW_IMU,17871210,8377,-815,-14473,882,-2277,1184,-19,-95,-57,0,2432
RAW_IMU,17892209,7553,-868,-14590,633,-2015,1168,-9,-100,-62,0,2480
RAW_IMU,17913209,7202,-960,-14454,303,-2085,1118,-14,-93,-65,0,2496
RAW_IMU,17934210,7139,-1596,-14774,161,-2196,895,1,-100,-65,0,2480
RAW_IMU,17955210,7152,-1604,-14776,227,-2173,760,-6,-107,-65,0,2384
RAW_IMU,17976210,6656,-1473,-14574,377,-2165,804,7,-94,-71,0,2480
RAW_IMU,17997209,6397,-1899,-14937,271,-2429,926,-3,-100,-82,0,2496
RAW_IMU,18018211,6250,-1209,-14965,317,-2382,1058,20,-101,-73,0,2496
RAW_IMU,18039211,6618,-1722,-15273,165,-2363,957,5,-104,-66,0,2480
RAW_IMU,18060211,6257,-1551,-15670,109,-2156,829,10,-108,-78,0,2464
RAW_IMU,18081213,5821,-1679,-15579,181,-1883,1010,20,-111,-80,0,2432
RAW_IMU,18102212,5395,-1758,-15716,642,-1536,1136,19,-115,-77,0,2416
RAW_IMU,18123209,5721,-2526,-15414,679,-1375,1097,26,-113,-66,0,2528
RAW_IMU,18144209,5243,-1957,-15321,656,-1527,1028,26,-108,-73,0,2432
RAW_IMU,18165210,5000,-1937,-15248,568,-1731,1058,35,-115,-84,0,2432
RAW_IMU,18186216,4927,-2479,-15317,524,-1968,1008,37,-124,-87,0,2544
RAW_IMU,18207210,4900,-2513,-15746,508,-2012,875,43,-124,-74,0,2528
RAW_IMU,18228210,4867,-2368,-15866,598,-1951,800,43,-124,-77,0,2432
RAW_IMU,18249210,4727,-2390,-16121,697,-1851,790,48,-127,-89,0,2464
RAW_IMU,18270210,4051,-1846,-16389,441,-1867,751,37,-127,-87,0,2432
RAW_IMU,18291210,4477,-2109,-16292,221,-1969,869,50,-131,-87,0,2480
RAW_IMU,18312211,4140,-2397,-16274,16,-1968,915,45,-122,-87,0,2480
RAW_IMU,18333211,3735,-2468,-16192,-96,-1832,845,58,-134,-84,0,2432
RAW_IMU,18354211,3427,-2822,-15943,-5,-1630,774,63,-134,-96,0,2416
RAW_IMU,18375211,2823,-2759,-15962,289,-1433,904,62,-130,-88,0,2480
RAW_IMU,18396211,2564,-2032,-15738,361,-1528,1295,66,-124,-94,0,2464
RAW_IMU,18417211,2644,-1831,-16106,-152,-1974,1521,75,-130,-83,0,2528
RAW_IMU,18438211,2742,-2931,-15928,-596,-2528,1289,83,-128,-93,0,2528
RAW_IMU,18459211,2589,-3201,-15889,-457,-2679,1042,75,-135,-93,0,2384
RAW_IMU,18480211,2598,-2851,-15970,-242,-2662,1088,83,-135,-100,0,2384
RAW_IMU,18501208,1962,-3220,-15647,243,-2350,1218,87,-127,-96,0,2432
RAW_IMU,18522209,1700,-2014,-16235,32,-2378,1108,100,-127,-99,0,2464
RAW_IMU,18543209,1970,-2698,-16556,-379,-2645,957,93,-138,-100,0,2496
RAW_IMU,18564210,2277,-3715,-16326,-279,-2545,832,100,-141,-101,0,2368
RAW_IMU,18585211,1732,-3675,-16041,228,-2029,862,112,-133,-103,0,2480
RAW_IMU,18606210,1128,-2700,-15947,479,-1595,1058,106,-142,-95,0,2496
RAW_IMU,18627210,849,-2982,-16228,366,-1515,1032,122,-150,-98,0,2464
RAW_IMU,18648210,500,-3117,-16157,177,-1788,893,129,-144,-104,0,2528
RAW_IMU,18669210,327,-3089,-15846,27,-2149,699,125,-138,-107,0,2384
RAW_IMU,18690211,200,-3848,-15755,134,-2305,641,130,-135,-105,0,2496
RAW_IMU,18711210,156,-3430,-15999,692,-2122,769,138,-138,-115,0,2432
RAW_IMU,18732211,222,-3537,-16180,919,-1954,945,133,-130,-112,0,2544
RAW_IMU,18753211,293,-3435,-16060,1053,-1850,982,139,-148,-109,0,2528
RAW_IMU,18774211,274,-3545,-16269,912,-1702,794,131,-139,-99,0,2432
RAW_IMU,18795211,154,-4049,-16361,839,-1614,428,152,-141,-96,0,2416
RAW_IMU,18816208,72,-4396,-16526,780,-1545,116,146,-147,-103,0,2432
RAW_IMU,18837209,-60,-3834,-16598,884,-1278,129,153,-147,-100,0,2480
RAW_IMU,18858209,-846,-3552,-16653,836,-997,233,156,-147,-100,0,2416
RAW_IMU,18879209,-1314,-3974,-16384,692,-1015,335,155,-148,-101,0,2384
RAW_IMU,18900212,-1309,-4142,-16439,653,-1129,297,160,-151,-101,0,2384
RAW_IMU,18921209,-1418,-3211,-16200,731,-1218,372,159,-150,-98,0,2496
RAW_IMU,18942209,-1405,-3927,-16027,597,-1335,528,159,-147,-90,0,2416
RAW_IMU,18963210,-1517,-4262,-16162,666,-1374,525,160,-156,-99,0,2464
RAW_IMU,18984210,-1414,-4130,-16160,592,-1331,475,169,-155,-98,0,2496
RAW_IMU,19005208,-1577,-4154,-15913,404,-1242,425,167,-150,-98,0,2592
RAW_IMU,19026211,-1745,-4101,-15507,197,-1248,407,165,-165,-87,0,2464
RAW_IMU,19047211,-2004,-4460,-15641,195,-1346,375,169,-162,-88,0,2480
RAW_IMU,19068211,-2378,-4678,-15158,424,-1464,262,180,-159,-90,0,2384
RAW_IMU,19089376,-2256,-4563,-14862,705,-1584,144,176,-156,-82,0,2496
RAW_IMU,19110210,-2185,-4460,-14722,922,-1506,66,180,-159,-85,0,2544
RAW_IMU,19131210,-2822,-4048,-14920,1178,-1552,25,189,-165,-94,0,2464
RAW_IMU,19152210,-3078,-3890,-15321,939,-1713,19,187,-164,-88,0,2480
RAW_IMU,19173210,-3660,-3735,-15654,477,-1816,113,181,-161,-87,0,2464
RAW_IMU,19194208,-3803,-4648,-15371,217,-1923,363,191,-168,-82,0,2544
RAW_IMU,19215209,-3824,-5114,-15569,408,-2069,437,204,-156,-84,0,2544
RAW_IMU,19236209,-4077,-4671,-15635,597,-2070,371,199,-168,-82,0,2544
RAW_IMU,19257210,-3797,-4315,-15894,458,-1881,284,194,-170,-79,0,2496
RAW_IMU,19278210,-3813,-4284,-15916,226,-1763,318,202,-165,-89,0,2368
RAW_IMU,19299208,-4187,-4486,-15769,127,-1759,365,200,-155,-76,0,2464
RAW_IMU,19320209,-4509,-4965,-15546,137,-1859,446,204,-173,-84,0,2544
RAW_IMU,19341209,-4647,-4861,-15549,191,-1953,508,210,-161,-87,0,2480
RAW_IMU,19362209,-4668,-4788,-15588,161,-2050,486,213,-167,-83,0,2528
RAW_IMU,19383210,-4661,-4738,-15716,9,-2117,434,215,-163,-77,0,2416
RAW_IMU,19404208,-4749,-4407,-15647,-255,-2125,492,215,-178,-79,0,2528
RAW_IMU,19425209,-5550,-4424,-15259,-383,-2071,744,221,-159,-76,0,2528
RAW_IMU,19446209,-6261,-4654,-14585,-361,-2262,880,229,-164,-85,0,2528
RAW_IMU,19467209,-6474,-4723,-14530,-283,-2679,815,233,-161,-82,0,2464
RAW_IMU,19488210,-6495,-4252,-14852,-291,-2959,811,230,-165,-87,0,2496
RAW_IMU,19509208,-6256,-4413,-15170,-485,-3102,755,240,-155,-73,0,2528
RAW_IMU,19530209,-6235,-4328,-15178,-551,-3052,599,238,-161,-74,0,2480
RAW_IMU,19551209,-6035,-4202,-15117,-600,-2805,427,246,-168,-72,0,2528
RAW_IMU,19572210,-6245,-4656,-14677,-613,-2571,289,237,-159,-76,0,2384
RAW_IMU,19593210,-6735,-4236,-14600,-462,-2299,159,258,-164,-71,0,2496
RAW_IMU,19614209,-6881,-4419,-14355,-349,-2064,218,263,-159,-76,0,2480
RAW_IMU,19635209,-7082,-4638,-14229,-107,-1772,285,255,-155,-66,0,2480
RAW_IMU,19656210,-7209,-4712,-13935,92,-1573,346,267,-163,-72,0,2480
RAW_IMU,19677210,-7459,-5077,-13982,277,-1450,267,270,-158,-65,0,2464
RAW_IMU,19698209,-7722,-4864,-14007,599,-1265,187,263,-167,-68,0,2528
RAW_IMU,19719209,-8012,-4406,-13832,996,-1046,444,258,-164,-68,0,2480
RAW_IMU,19740209,-8367,-4217,-13734,1145,-888,564,279,-167,-66,0,2480
RAW_IMU,19761209,-8864,-4022,-13644,796,-1066,663,277,-170,-69,0,2432
RAW_IMU,19782209,-8994,-3832,-13852,578,-1157,1018,267,-163,-69,0,2416
RAW_IMU,19803209,-8475,-4865,-13535,477,-1153,947,281,-167,-56,0,2528
RAW_IMU,19824209,-8921,-4277,-13417,389,-1102,638,276,-152,-61,0,2496
RAW_IMU,19845209,-9213,-4529,-12813,296,-1385,430,284,-167,-66,0,2480
RAW_IMU,19866210,-9540,-4233,-12746,417,-1743,481,283,-158,-50,0,2464
RAW_IMU,19887210,-9557,-3792,-12720,363,-2186,676,275,-163,-60,0,2384
RAW_IMU,19908208,-9443,-3693,-12814,191,-2601,862,298,-163,-47,0,2496
RAW_IMU,19929209,-7978,-5350,-13346,-13,-2843,758,293,-163,-52,0,2464
RAW_IMU,19950209,-5185,-7974,-14079,154,-2453,-17,298,-161,-52,0,2352
RAW_IMU,19971210,-7204,-5709,-14230,-260,-1877,-987,294,-169,-61,0,2480
RAW_IMU,19992210,-10100,-3844,-13349,-1003,-2156,-1256,294,-169,-41,0,2368
RAW_IMU,20013208,-10257,-5573,-10951,-350,-1944,-887,311,-161,-47,0,2528
RAW_IMU,20034211,-12752,-1862,-12580,-208,-2002,377,298,-161,-45,0,2480
RAW_IMU,20055211,-12305,-2791,-11470,-499,-2543,1335,302,-162,-41,0,2464
RAW_IMU,20076211,-11522,-4359,-11665,-375,-2791,1660,309,-158,-42,0,2480
RAW_IMU,20097211,-9760,-4762,-12126,256,-2242,1299,311,-156,-50,0,2416
RAW_IMU,20118209,-8869,-4356,-12731,434,-1440,648,311,-158,-42,0,2464
RAW_IMU,20139209,-9205,-4005,-12873,68,-901,135,320,-164,-39,0,2432
RAW_IMU,20160210,-9931,-4540,-12415,-271,-793,-203,311,-161,-28,0,2368
RAW_IMU,20181210,-10656,-5033,-11949,-331,-888,-297,315,-164,-36,0,2368
RAW_IMU,20202212,-11724,-4222,-11412,103,-940,76,315,-157,-36,0,2480
RAW_IMU,20223211,-12812,-3321,-11085,250,-1126,1031,320,-167,-41,0,2496
RAW_IMU,20244211,-11893,-3167,-11095,296,-1222,1678,328,-157,-46,0,2528
RAW_IMU,20265211,-11237,-3469,-11338,109,-1175,1430,326,-169,-41,0,2480
RAW_IMU,20286208,-11038,-3616,-11332,-10,-1121,881,324,-158,-28,0,2480
RAW_IMU,20307214,-11689,-3245,-11127,122,-1034,513,332,-168,-40,0,2480
RAW_IMU,20328208,-13003,-3547,-11117,8,-1346,898,318,-155,-26,0,2528
RAW_IMU,20349209,-13286,-2797,-11626,43,-1249,2538,339,-159,-31,0,2528
RAW_IMU,20370209,-11563,-4467,-11074,-671,-1940,2024,337,-158,-20,0,2384
RAW_IMU,20391210,-11519,-4366,-11090,-665,-2098,1622,339,-155,-41,0,2416
RAW_IMU,20412208,-12167,-3848,-11065,-544,-2078,1713,348,-153,-28,0,2464
RAW_IMU,20433209,-12135,-3466,-10475,-687,-2219,1597,353,-156,-33,0,2464
RAW_IMU,20454209,-12129,-3884,-10532,-900,-2354,1475,353,-136,-30,0,2480
RAW_IMU,20475210,-12067,-4058,-10700,-866,-2423,1376,352,-142,-34,0,2480
RAW_IMU,20496210,-12407,-2865,-10960,-684,-2366,1386,364,-139,-18,0,2416
RAW_IMU,20517210,-12972,-2415,-10815,-885,-2427,1505,349,-152,-31,0,2464
RAW_IMU,20538210,-12746,-2741,-9904,-727,-2428,1282,373,-140,-29,0,2480
RAW_IMU,20559210,-11995,-2887,-9512,-431,-2310,986,374,-136,-25,0,2416
RAW_IMU,20580210,-11867,-3236,-9471,-54,-2173,681,367,-140,-17,0,2464
RAW_IMU,20601210,-12593,-2632,-9819,-159,-1916,489,378,-133,-14,0,2464
RAW_IMU,20622209,-13445,-1196,-9948,-431,-1615,811,380,-133,-9,0,2528
RAW_IMU,20643209,-14102,-1758,-8922,-830,-1581,1377,388,-140,-12,0,2480
RAW_IMU,20664210,-14383,-3213,-8138,-488,-1675,1644,383,-125,-9,0,2416
RAW_IMU,20685210,-15372,-2631,-7956,-19,-1909,1707,388,-133,-19,0,2480
RAW_IMU,20706211,-15456,-2209,-7551,159,-2324,1786,392,-129,-13,0,2480
RAW_IMU,20727210,-14764,-2184,-7775,253,-2716,1803,395,-124,-6,0,2496
RAW_IMU,20748210,-14435,-1917,-8279,208,-2934,1712,404,-125,-9,0,2480
RAW_IMU,20769210,-14797,-1786,-8258,64,-2958,1724,409,-128,4,0,2496
RAW_IMU,20790210,-14425,-1686,-8254,310,-2735,1791,401,-128,7,0,2480
RAW_IMU,20811211,-14004,-1439,-8145,388,-2304,1668,403,-124,13,0,2496
RAW_IMU,20832210,-13666,-1411,-8003,467,-1772,1466,404,-111,7,0,2544
RAW_IMU,20853211,-13750,-1098,-8006,653,-1195,1323,418,-117,20,0,2496
RAW_IMU,20874211,-14074,-6,-8065,621,-771,1615,426,-117,18,0,2480
RAW_IMU,20895211,-14658,-402,-7216,513,-658,2007,427,-118,24,0,2384
RAW_IMU,20916211,-15484,-778,-6066,620,-915,2043,431,-112,15,0,2496
RAW_IMU,20937208,-16234,-896,-6605,838,-1242,1803,430,-111,19,0,2480
RAW_IMU,20958209,-15873,-350,-6459,733,-1629,1338,429,-117,25,0,2464
RAW_IMU,20979209,-15291,588,-6133,517,-1947,1057,438,-101,29,0,2480
RAW_IMU,21000288,-15471,946,-6530,351,-1961,1002,434,-105,35,0,2464
RAW_IMU,21021209,-16009,-768,-6444,205,-1761,942,446,-99,41,0,2496
RAW_IMU,21042211,-15720,-429,-6063,547,-1573,712,442,-107,35,0,2432
RAW_IMU,21063208,-16201,41,-6163,327,-1483,366,444,-110,40,0,2480
RAW_IMU,21084209,-16252,462,-5621,63,-1799,360,438,-99,49,0,2496
RAW_IMU,21105209,-16186,716,-5021,-65,-2212,436,451,-101,44,0,2384
RAW_IMU,21126208,-15737,-416,-5256,4,-2517,334,435,-108,46,0,2496
RAW_IMU,21147209,-15148,-424,-5160,23,-2810,22,442,-90,52,0,2480
RAW_IMU,21168209,-15954,-81,-5015,159,-3151,-96,440,-108,63,0,2480
RAW_IMU,21189210,-16518,820,-4590,-15,-3561,-156,448,-94,58,0,2496
RAW_IMU,21210375,-16071,-592,-4305,48,-3781,-134,447,-102,69,0,2384
RAW_IMU,21231209,-16086,182,-4538,391,-4185,-221,456,-104,66,0,2496
RAW_IMU,21252209,-15913,440,-3817,681,-4328,-84,459,-101,83,0,2464
RAW_IMU,21273209,-15997,-215,-3469,810,-4247,3,443,-101,90,0,2528
RAW_IMU,21294209,-16153,-365,-2652,963,-4271,-51,455,-105,96,0,2416
RAW_IMU,21315212,-16554,-1,-2450,1141,-4372,-33,461,-108,98,0,2432
RAW_IMU,21336209,-16656,227,-2494,992,-4484,-118,451,-94,103,0,2464
RAW_IMU,21357209,-16282,16,-1938,851,-4515,-260,461,-99,117,0,2496
RAW_IMU,21378210,-16333,-12,-1614,776,-4558,-425,455,-98,123,0,2432
RAW_IMU,21399210,-15967,-130,-1097,764,-4635,-403,461,-106,137,0,2384
RAW_IMU,21420208,-16369,-175,-526,607,-4717,-389,456,-94,147,0,2528
RAW_IMU,21441209,-16632,-667,171,492,-4897,-543,452,-105,153,0,2480
RAW_IMU,21462209,-16830,-1005,574,561,-5235,-752,448,-99,147,0,2464
RAW_IMU,21483210,-16900,-861,639,797,-5624,-821,451,-104,157,0,2480
RAW_IMU,21504210,-16799,-1152,1020,1105,-5982,-810,448,-94,181,0,2352
RAW_IMU,21525208,-16472,-1237,1669,1565,-6304,-814,454,-106,169,0,2496
RAW_IMU,21546209,-16310,-859,2318,1807,-6524,-782,450,-117,195,0,2528
RAW_IMU,21567209,-16207,-622,3142,1743,-6633,-794,442,-95,207,0,2480
RAW_IMU,21588209,-15962,-903,3912,1453,-6525,-890,447,-112,224,0,2528
RAW_IMU,21609210,-15883,-1145,4420,1231,-6344,-1037,429,-112,231,0,2352
RAW_IMU,21630208,-15426,-1463,4904,1180,-6090,-1270,438,-111,235,0,2464
RAW_IMU,21651209,-15372,-1168,5304,1198,-5820,-1443,420,-101,245,0,2464
RAW_IMU,21672209,-15187,-800,5673,1190,-5545,-1431,420,-111,250,0,2496
RAW_IMU,21693210,-15069,-461,6038,894,-5285,-1424,409,-101,260,0,2480
RAW_IMU,21714210,-14839,-903,6726,716,-5001,-1438,421,-115,271,0,2368
RAW_IMU,21735209,-15061,-938,7210,718,-4755,-1437,401,-116,284,0,2480
RAW_IMU,21756209,-15048,-1105,7640,593,-4656,-1486,401,-116,294,0,2480
RAW_IMU,21777210,-14864,-1543,8097,660,-4594,-1585,397,-119,285,0,2432
RAW_IMU,21798210,-14592,-1273,8300,790,-4493,-1623,394,-113,306,0,2464
RAW_IMU,21819209,-14337,-1011,8625,770,-4409,-1618,383,-116,306,0,2384
RAW_IMU,21840209,-14219,-1253,9132,768,-4470,-1563,371,-119,312,0,2496
RAW_IMU,21861209,-13720,-1631,9454,891,-4524,-1431,371,-112,315,0,2528
RAW_IMU,21882209,-13167,-1677,9608,1141,-4403,-1388,365,-121,321,0,2480
RAW_IMU,21903209,-12881,-1513,10123,1273,-4152,-1388,358,-124,327,0,2416
RAW_IMU,21924209,-12702,-976,10680,1053,-3843,-1449,356,-117,329,0,2464
RAW_IMU,21945209,-12838,-293,11221,407,-3640,-1672,344,-121,340,0,2480
RAW_IMU,21966209,-12403,-477,11302,-506,-3533,-1934,344,-108,345,0,2464
RAW_IMU,21987210,-11858,-1779,11381,-863,-3416,-1838,350,-122,352,0,2432
RAW_IMU,22008212,-11376,-2762,11533,-352,-3257,-1495,339,-125,340,0,2384
RAW_IMU,22029208,-11107,-2639,11674,307,-3045,-1143,324,-124,342,0,2496
RAW_IMU,22050209,-10593,-2252,12082,480,-2857,-1052,332,-129,349,0,2480
RAW_IMU,22071209,-10549,-1333,12678,218,-2703,-1092,319,-131,361,0,2416
RAW_IMU,22092210,-10639,-599,12840,-334,-2612,-1010,318,-125,355,0,2480
RAW_IMU,22113210,-10748,-1071,12672,-1160,-2816,-855,311,-129,356,0,2352
RAW_IMU,22134209,-10182,-2911,12946,-1079,-2975,-551,303,-131,369,0,2528
RAW_IMU,22155209,-10015,-3367,12944,-456,-3122,-343,298,-129,356,0,2464
RAW_IMU,22176210,-9965,-2692,13312,6,-3221,-256,297,-128,358,0,2480
RAW_IMU,22197210,-10098,-1194,13383,-79,-3372,-122,292,-133,363,0,2560
RAW_IMU,22218210,-9727,-2129,13059,-209,-3508,79,283,-134,361,0,2464
RAW_IMU,22239209,-9261,-3106,12722,-130,-3716,50,283,-131,369,0,2464
RAW_IMU,22260209,-9065,-3797,13217,783,-3787,121,275,-124,369,0,2416
RAW_IMU,22281210,-8484,-4314,13490,1856,-3721,58,264,-127,379,0,2496
RAW_IMU,22302210,-8333,-2749,13461,2401,-3681,-144,272,-129,376,0,2480
RAW_IMU,22323212,-8302,-1792,13799,2003,-3746,-237,259,-129,376,0,2416
RAW_IMU,22344211,-7577,-2812,14210,1839,-3645,-323,251,-124,393,0,2560
RAW_IMU,22365211,-6889,-2903,14656,2430,-3330,-456,249,-119,391,0,2528
RAW_IMU,22386211,-6505,-1811,14487,2669,-2910,-310,236,-129,393,0,2496
RAW_IMU,22407208,-6109,-2149,14670,2768,-2477,-143,242,-113,399,0,2464
RAW_IMU,22428214,-6070,-2643,14820,3034,-2112,-108,247,-111,409,0,2416
RAW_IMU,22449208,-5609,-1934,15485,3796,-1824,-280,229,-106,404,0,2432
RAW_IMU,22470209,-5966,-636,14679,4496,-1523,-285,232,-106,409,0,2416
RAW_IMU,22491209,-5777,257,14747,4429,-1206,-206,223,-93,408,0,2480
RAW_IMU,22512210,-5563,608,14920,4106,-782,-10,225,-88,410,0,2416
RAW_IMU,22533208,-5751,884,15948,4015,-455,-51,216,-92,421,0,2496
RAW_IMU,22554209,-5859,1597,15823,3728,-274,-67,216,-79,419,0,2480
