mavpackettype,time_usec,xacc,yacc,zacc,xgyro,ygyro,zgyro,xmag,ymag,zmag,id,temperature
RAW_IMU,61005209,0,-208,16586,-61,50,24,469,43,-260,0,3184
RAW_IMU,61026210,13,-185,16557,-49,36,26,476,47,-268,0,3168
RAW_IMU,61047211,2,-284,16607,-61,43,21,457,52,-275,0,3136
RAW_IMU,61068213,37,-149,16585,-67,55,15,474,50,-267,0,3184
RAW_IMU,61089211,21,-201,16511,-70,47,18,476,42,-263,0,3136
RAW_IMU,61110215,20,-157,16631,-56,53,28,469,48,-262,0,3232
RAW_IMU,61131214,-21,-230,16551,-64,41,18,465,44,-275,0,3136
RAW_IMU,61152211,-53,-198,16555,-66,50,22,468,42,-261,0,3184
RAW_IMU,61173213,20,-170,16614,-79,48,31,481,44,-266,0,3184
RAW_IMU,61194210,15,-164,16576,-59,40,26,468,39,-266,0,3120
RAW_IMU,61215213,37,-174,16593,-58,65,10,484,37,-278,0,3168
RAW_IMU,61236211,57,-196,16534,-77,52,25,470,52,-260,0,3232
RAW_IMU,61257212,-20,-179,16632,-68,62,20,476,44,-261,0,3168
RAW_IMU,61278210,-27,-206,16523,-64,24,15,472,46,-262,0,3072
RAW_IMU,61299212,-23,-160,16531,-69,41,16,474,33,-264,0,3168
RAW_IMU,61320213,62,-159,16608,-69,37,11,460,47,-271,0,3168
RAW_IMU,61341210,-31,-184,16641,-58,49,21,473,44,-256,0,3136
RAW_IMU,61362212,37,-264,16600,-67,31,25,481,39,-266,0,3184
RAW_IMU,61383210,45,-213,16625,-75,44,21,473,44,-256,0,3024
RAW_IMU,61404211,32,-259,16623,-56,48,22,465,49,-271,0,3184
RAW_IMU,61425210,36,-220,16634,-61,45,32,459,36,-272,0,3232
RAW_IMU,61446212,33,-172,16587,-59,46,23,472,46,-264,0,3136
RAW_IMU,61467210,23,-156,16651,-53,59,33,467,33,-264,0,3088
RAW_IMU,61488211,61,-150,16671,-59,45,18,474,43,-272,0,3072
RAW_IMU,61509374,95,-266,16651,-74,49,8,473,37,-261,0,3232
RAW_IMU,61530212,5,-157,16622,-56,60,21,477,41,-260,0,3136
RAW_IMU,61551210,4,-195,16570,-64,55,34,470,44,-271,0,3168
RAW_IMU,61572212,5,-214,16569,-76,53,17,477,43,-260,0,3088
RAW_IMU,61593213,-24,-224,16602,-65,55,13,478,42,-266,0,3072
RAW_IMU,61614212,40,-170,16628,-66,47,14,464,48,-260,0,3184
RAW_IMU,61635212,63,-177,16613,-69,52,24,476,37,-261,0,3184
RAW_IMU,61656213,-13,-203,16550,-67,61,26,472,43,-260,0,3168
RAW_IMU,61677211,10,-231,16592,-57,47,29,467,43,-260,0,3184
RAW_IMU,61698213,24,-163,16580,-62,52,25,465,44,-263,0,3136
RAW_IMU,61719211,16,-259,16644,-73,49,22,474,41,-272,0,3232
RAW_IMU,61740213,3,-266,16620,-55,58,42,472,53,-260,0,3168
RAW_IMU,61761211,40,-159,16674,-67,53,28,478,35,-263,0,3232
RAW_IMU,61782213,-11,-226,16623,-72,52,12,469,46,-262,0,3120
RAW_IMU,61803210,53,-198,16636,-55,49,45,472,50,-264,0,3248
RAW_IMU,61824213,-23,-309,16660,-63,51,17,469,46,-269,0,3200
RAW_IMU,61845210,26,-188,16524,-57,56,26,476,49,-263,0,3200
RAW_IMU,61866212,-15,-218,16613,-65,51,31,477,38,-260,0,3168
RAW_IMU,61887210,28,-267,16605,-57,59,23,472,43,-264,0,3024
RAW_IMU,61908211,3,-196,16628,-49,60,6,463,44,-268,0,3136
RAW_IMU,61929210,-21,-191,16594,-76,53,21,468,44,-263,0,3232
RAW_IMU,61950212,-18,-260,16643,-81,53,33,476,42,-258,0,3136
RAW_IMU,61971213,-11,-143,16591,-46,33,17,469,50,-260,0,3168
RAW_IMU,61992211,-29,-183,16598,-61,44,14,464,46,-264,0,3136
RAW_IMU,62013212,6,-266,16595,-63,38,28,480,46,-262,0,3232
RAW_IMU,62034211,-9,-205,16703,-75,53,32,480,50,-260,0,3200
RAW_IMU,62055213,22,-239,16634,-64,42,31,467,50,-260,0,3120
RAW_IMU,62076210,9,-170,16658,-63,50,36,468,42,-261,0,3168
RAW_IMU,62097212,-52,-74,16591,-53,57,18,476,37,-268,0,3120
RAW_IMU,154161210,-1816,-78,16678,-81,110,44,429,35,-275,0,3200
RAW_IMU,154182212,-1790,-197,16645,-67,70,72,437,32,-273,0,3232
RAW_IMU,154203210,-1641,-136,16710,-26,57,48,437,35,-268,0,3232
RAW_IMU,154224211,-1575,89,16785,-69,54,-25,439,35,-273,0,3200
RAW_IMU,154245210,-1617,279,16707,-273,53,-38,429,39,-273,0,3168
RAW_IMU,154266212,-1718,291,16663,-491,9,6,437,35,-266,0,3248
RAW_IMU,154287210,-1806,59,16479,-618,-45,123,433,29,-269,0,3232
RAW_IMU,154308211,-1829,-166,16296,-644,-142,223,422,41,-264,0,3248
RAW_IMU,154329212,-1788,-273,16114,-534,-208,344,426,35,-268,0,3168
RAW_IMU,154350212,-1501,-679,15968,-366,-212,344,433,31,-274,0,3136
RAW_IMU,154371210,-1274,-707,16080,-160,-132,232,437,30,-273,0,3184
RAW_IMU,154392211,-1589,-472,16043,-14,-13,149,426,27,-273,0,3232
RAW_IMU,154413213,-1678,-307,16080,56,116,167,429,35,-268,0,3264
RAW_IMU,154434213,-1564,-506,16338,146,205,144,437,32,-268,0,3232
RAW_IMU,154455212,-1694,-206,16555,148,265,33,435,24,-277,0,3200
RAW_IMU,154476210,-1887,15,16686,44,262,29,434,27,-275,0,3296
RAW_IMU,154497211,-1862,-277,16759,-8,238,-26,438,29,-262,0,3248
RAW_IMU,154518213,-1920,-261,16716,85,152,-72,430,43,-272,0,3248
RAW_IMU,154539211,-1606,-439,16798,21,116,-198,429,30,-268,0,3200
RAW_IMU,154560213,-1521,-586,16869,-36,47,-413,440,29,-267,0,3248
RAW_IMU,154581211,-1708,-196,16761,31,-32,-594,433,41,-262,0,3248
RAW_IMU,154602212,-1922,139,16633,50,-127,-542,438,29,-269,0,3296
RAW_IMU,154623210,-1753,49,16476,-6,-182,-457,429,35,-268,0,3200
RAW_IMU,154644211,-1272,-209,16643,71,-230,-451,422,29,-269,0,3136
RAW_IMU,154665213,-1557,443,16531,115,-322,-402,434,35,-273,0,3184
RAW_IMU,154686210,-1704,629,16851,-149,-49,-317,431,37,-273,0,3248
RAW_IMU,154707212,-2136,-500,16820,-44,386,-573,425,31,-277,0,3232
RAW_IMU,154728210,-1878,-1237,16854,434,251,-629,433,33,-272,0,3200
RAW_IMU,154749211,-1412,-425,17069,837,-217,-288,429,35,-275,0,3120
RAW_IMU,154770213,-1769,-247,16600,1049,-586,205,437,30,-266,0,3248
RAW_IMU,154791210,-1282,-2,16644,1150,-883,655,430,31,-282,0,3248
RAW_IMU,154812212,-641,628,17311,1055,-998,900,431,27,-278,0,3184
RAW_IMU,154833370,-454,1826,18269,506,-1062,1276,433,36,-284,0,3232
RAW_IMU,154854212,-679,826,17463,95,-1037,1770,433,21,-277,0,3120
RAW_IMU,154875210,-1917,1589,15344,439,-1298,1827,429,27,-268,0,3296
RAW_IMU,154896212,-2058,-558,14891,1863,-1838,1666,414,26,-291,0,3232
RAW_IMU,154917213,-1686,-467,14924,3575,-2117,1389,421,23,-285,0,3184
RAW_IMU,154938212,-746,982,16206,3789,-1810,1062,414,9,-287,0,3232
RAW_IMU,154959212,1202,-730,16130,3603,-1618,995,418,1,-302,0,3168
RAW_IMU,154980213,1647,-1548,16639,4269,-1674,945,414,7,-301,0,3248
RAW_IMU,155001211,701,72,17766,5078,-1456,788,414,0,-304,0,3248
RAW_IMU,155022210,804,1870,17002,5286,-727,700,407,0,-299,0,3248
RAW_IMU,155043213,762,4442,15555,4981,126,624,414,-16,-304,0,3200
RAW_IMU,155064210,515,6612,15182,3976,724,636,408,-23,-298,0,3200
RAW_IMU,155085212,-138,6678,16410,2779,791,853,407,-33,-301,0,3232
RAW_IMU,155106210,-743,7108,16482,1887,549,1387,404,-38,-296,0,3248
RAW_IMU,155127212,-903,7768,16614,425,127,1828,412,-36,-291,0,3168
RAW_IMU,155148210,-790,7267,17323,-1392,-500,1989,405,-49,-288,0,3136
RAW_IMU,155169212,-646,6736,17772,-2926,-1463,1883,408,-37,-310,0,3248
RAW_IMU,155190210,55,5340,18606,-3930,-2506,1777,403,-39,-302,0,3248
RAW_IMU,155211211,-285,4365,19243,-4045,-3375,1775,403,-35,-307,0,3200
RAW_IMU,155232213,-7,4050,18375,-4120,-4124,1980,395,-30,-317,0,3136
RAW_IMU,155253211,402,500,15320,-3960,-4764,2307,384,-32,-312,0,3136
RAW_IMU,155274213,2058,198,14369,-2098,-5364,2880,379,-15,-317,0,3232
RAW_IMU,155295211,2888,1615,14581,-594,-5496,3480,361,-23,-325,0,3184
RAW_IMU,155316212,2985,1742,14899,184,-5010,3820,361,-25,-334,0,3248
RAW_IMU,155337210,3315,1002,14276,890,-4368,3799,348,-25,-329,0,3232
RAW_IMU,155358213,3743,1165,13395,1704,-3780,3386,350,-23,-334,0,3200
RAW_IMU,155379210,5230,3277,13575,1640,-3114,2867,337,-32,-339,0,3232
RAW_IMU,155400212,5074,2158,14320,997,-2450,2600,336,-31,-338,0,3232
RAW_IMU,155421210,4960,1617,15034,1197,-1812,2590,314,-42,-325,0,3136
RAW_IMU,155442213,5205,1910,15819,1582,-1202,2710,310,-41,-333,0,3248
RAW_IMU,155463212,5875,2852,16095,1719,-638,2777,328,-43,-333,0,3136
RAW_IMU,155484210,6106,3011,15935,1274,-180,2742,315,-53,-338,0,3232
RAW_IMU,155505212,5769,2818,15781,941,285,2640,318,-58,-333,0,3200
RAW_IMU,155526210,5873,2516,15600,816,796,2568,315,-46,-331,0,3184
RAW_IMU,155547210,5772,1661,15222,947,1337,2507,314,-54,-334,0,3200
RAW_IMU,155568212,5486,1097,15020,1455,1804,2443,319,-54,-329,0,3168
RAW_IMU,155589210,5457,1719,14370,1980,2243,2297,318,-55,-331,0,3168
RAW_IMU,155610211,5194,3115,13806,1804,3008,1745,324,-59,-332,0,3232
RAW_IMU,155631213,4632,2625,13916,1238,4041,1257,332,-66,-315,0,3232
RAW_IMU,155652212,4148,2212,14483,1252,4777,889,334,-65,-323,0,3136
RAW_IMU,155673210,3838,3749,15374,1148,5171,886,339,-72,-318,0,3232
RAW_IMU,155694212,2303,4349,15444,330,5276,1031,341,-77,-318,0,3200
RAW_IMU,155715210,1667,3702,15733,-318,5278,973,352,-79,-318,0,3312
RAW_IMU,155736211,893,2612,16087,-466,5085,921,356,-66,-315,0,3248
RAW_IMU,155757210,874,3236,17060,-475,4601,953,362,-70,-311,0,3168
RAW_IMU,155778211,656,2940,17170,-933,4129,810,373,-72,-309,0,3248
RAW_IMU,155799213,-184,2863,17158,-1523,3794,419,374,-71,-320,0,3200
RAW_IMU,155820211,-623,3091,16787,-1877,3427,74,378,-60,-306,0,3184
RAW_IMU,155841212,-494,3392,16449,-2573,3083,-298,382,-71,-302,0,3200
RAW_IMU,155862211,-313,2239,17190,-3380,2886,-989,394,-67,-296,0,3232
RAW_IMU,155883213,78,645,18608,-3216,2472,-1678,390,-54,-307,0,3232
RAW_IMU,155904211,608,1497,18895,-2905,1845,-2285,409,-55,-299,0,3248
RAW_IMU,155925213,904,2051,17658,-3836,1661,-2368,404,-53,-296,0,3232
RAW_IMU,155946214,627,1802,16424,-4433,1960,-2321,408,-42,-290,0,3232
RAW_IMU,155967212,422,2277,15287,-5182,2458,-2458,413,-37,-285,0,3184
RAW_IMU,155988213,225,1472,14536,-6157,3115,-2394,407,-21,-284,0,3232
RAW_IMU,156009211,-158,648,14909,-6838,4023,-2116,424,-23,-293,0,3248
RAW_IMU,156030213,-379,-930,15729,-6984,5057,-1533,408,-1,-280,0,3200
RAW_IMU,156051216,-1248,-3474,15696,-6234,5957,-757,422,2,-279,0,3232
RAW_IMU,156072210,-1942,-3983,15139,-5096,6553,-301,437,20,-266,0,3232
RAW_IMU,156093212,-2978,-2323,15191,-4779,7127,-296,435,16,-262,0,3248
RAW_IMU,156114213,-4004,-2125,15695,-5093,7444,-96,456,29,-262,0,3200
RAW_IMU,156135211,-5667,-3163,15492,-5332,7199,497,460,35,-248,0,3232
RAW_IMU,156156212,-6130,-4889,15647,-5045,6535,886,473,30,-231,0,3168
RAW_IMU,156177210,-6748,-5509,16231,-4631,5921,759,469,36,-220,0,3248
RAW_IMU,156198211,-8293,-6030,16703,-4805,5226,215,476,37,-212,0,3248
RAW_IMU,156219213,-8511,-7035,16104,-4377,3898,-62,476,52,-209,0,3232
RAW_IMU,156240210,-8073,-6308,15703,-3937,2520,-460,486,52,-199,0,3184
RAW_IMU,156261213,-8705,-6107,16705,-4504,1428,-791,484,56,-192,0,3136
RAW_IMU,156282211,-7774,-4837,15438,-5389,754,-920,482,58,-183,0,3232
RAW_IMU,156303212,-7863,-6027,14489,-6706,80,-1132,478,66,-187,0,3248
RAW_IMU,156324210,-6999,-7350,13635,-7314,-365,-1543,495,65,-183,0,3184
RAW_IMU,156345212,-6319,-8085,12930,-7509,-456,-1909,474,72,-191,0,3296
RAW_IMU,156366210,-6146,-7361,11970,-7697,-128,-1953,472,92,-174,0,3136
RAW_IMU,156387212,-4952,-8416,11216,-8097,529,-1866,477,101,-166,0,3248
RAW_IMU,156408210,-4980,-10331,10282,-8103,1220,-1834,460,110,-163,0,3168
RAW_IMU,156429211,-5389,-11573,9543,-6844,1770,-1518,469,111,-161,0,3184
RAW_IMU,156450212,-5097,-11879,8965,-5643,2349,-1140,469,113,-154,0,3296
RAW_IMU,156471212,-5354,-12178,8583,-5073,2853,-1092,464,113,-144,0,3168
RAW_IMU,156492210,-6563,-11485,8307,-4507,2993,-878,464,123,-132,0,3184
RAW_IMU,156513211,-7077,-11951,8065,-3920,2775,-656,457,131,-126,0,3232
RAW_IMU,156534213,-6910,-13018,8071,-3370,2275,-834,476,139,-116,0,3184
RAW_IMU,156555213,-7441,-12721,7979,-2842,1491,-1048,456,128,-115,0,3200
RAW_IMU,156576212,-7448,-12044,7783,-2645,589,-1069,465,127,-99,0,3136
RAW_IMU,156597210,-6990,-12325,7871,-2679,-163,-1029,463,136,-111,0,3248
RAW_IMU,156618211,-6805,-12304,7848,-2978,-683,-908,473,139,-106,0,3248
RAW_IMU,156639213,-6665,-12431,7732,-3457,-980,-694,460,151,-109,0,3296
RAW_IMU,156660211,-6927,-13526,7889,-3910,-763,-930,459,150,-110,0,3232
RAW_IMU,156681213,-6627,-13547,8883,-4886,210,-1719,454,155,-95,0,3200
RAW_IMU,156702211,-6659,-14323,9026,-5909,712,-2160,464,152,-90,0,3232
RAW_IMU,156723212,-6137,-13645,8854,-5804,-758,-1934,450,151,-87,0,3168
RAW_IMU,156744210,-8004,-12612,7612,-5963,-2019,-1174,460,151,-89,0,3168
RAW_IMU,156765211,-5974,-12387,6118,-6107,-2929,-232,455,161,-74,0,3136
RAW_IMU,156786213,-5519,-14036,5341,-6294,-3279,211,451,159,-71,0,3200
RAW_IMU,156807210,-5421,-15504,4542,-5795,-3384,372,451,159,-66,0,3232
RAW_IMU,156828212,-4661,-16190,3855,-4956,-2974,274,439,170,-69,0,3200
RAW_IMU,156849210,-4564,-16478,3612,-4152,-2096,-67,451,174,-63,0,3248
RAW_IMU,156870211,-4872,-15862,3799,-3311,-1395,-375,455,175,-60,0,3136
RAW_IMU,156891213,-4754,-15153,4347,-2778,-595,-322,454,171,-58,0,3232
RAW_IMU,156912210,-5189,-15635,4488,-2198,-154,-186,450,165,-62,0,3200
RAW_IMU,156933212,-5608,-15753,4323,-1610,-220,-223,443,169,-51,0,3136
RAW_IMU,156954370,-5194,-15380,4262,-1410,-387,-462,443,167,-63,0,3168
RAW_IMU,156975212,-1693,-14463,4724,-1758,319,-56,438,167,-63,0,3200
RAW_IMU,156996210,-4805,-16543,4598,-1740,677,743,438,174,-61,0,3248
RAW_IMU,157017212,-6508,-15683,3706,-1665,-354,647,450,156,-52,0,3184
RAW_IMU,157038210,-7340,-16091,3208,-1818,-1554,134,437,170,-45,0,3248
RAW_IMU,157059212,-6777,-16093,2427,-1647,-2552,-460,435,171,-53,0,3264
RAW_IMU,157080212,-5368,-15230,2281,-1839,-2579,-915,434,168,-52,0,3168
RAW_IMU,157101210,-5024,-15285,2455,-2285,-1836,-1146,434,170,-52,0,3168
RAW_IMU,157122211,-5004,-15406,2402,-2758,-1134,-1334,444,170,-47,0,3168
RAW_IMU,157143213,-5422,-15160,2504,-3302,-1019,-1575,433,181,-49,0,3296
RAW_IMU,157164211,-5663,-15157,2357,-3625,-1682,-1824,425,174,-49,0,3232
RAW_IMU,157185213,-4016,-14788,2413,-3795,-2303,-1908,439,178,-52,0,3136
RAW_IMU,157206211,-2326,-14873,2291,-4092,-2118,-1477,429,185,-35,0,3184
RAW_IMU,157227213,-4408,-16555,1415,-3991,-1806,-1275,429,178,-40,0,3200
RAW_IMU,157248210,-4451,-16376,575,-3933,-1584,-1885,420,191,-46,0,3296
RAW_IMU,157269213,-4087,-16583,618,-4017,-1441,-2455,425,184,-41,0,3232
RAW_IMU,157290210,-3839,-15896,247,-4074,-1440,-2914,425,186,-36,0,3168
RAW_IMU,157311212,-4515,-16206,337,-4309,-1157,-3474,416,192,-18,0,3232
RAW_IMU,157332210,-3755,-16482,-296,-4326,-916,-3867,409,186,-31,0,3232
RAW_IMU,157353211,-3259,-16402,-861,-4309,-673,-4143,397,202,-13,0,3248
RAW_IMU,157374210,-2550,-16352,-1089,-4179,-488,-4513,391,205,-19,0,3168
RAW_IMU,157395212,-2642,-16219,-1121,-3993,-366,-4742,397,199,-11,0,3232
RAW_IMU,157416213,-2237,-16017,-1729,-3751,-554,-4504,379,199,-13,0,3248
RAW_IMU,157437211,-850,-16531,-2002,-3688,-666,-4351,377,209,1,0,3248
RAW_IMU,157458212,-927,-16293,-2318,-3349,-655,-4395,367,215,2,0,3232
RAW_IMU,157479211,-325,-15034,-2956,-3382,-625,-4401,361,211,3,0,3168
RAW_IMU,157500212,-156,-15312,-2883,-3713,-711,-4255,358,211,13,0,3296
RAW_IMU,157521210,469,-15750,-3196,-3824,-1051,-4088,356,219,18,0,3264
RAW_IMU,157542211,612,-15246,-3379,-3698,-1272,-3946,341,215,22,0,3232
RAW_IMU,157563210,1055,-14497,-3800,-4006,-1303,-3565,340,202,25,0,3232
RAW_IMU,157584213,1146,-15067,-4357,-4365,-1388,-3393,328,210,31,0,3136
RAW_IMU,157605211,1422,-15702,-4579,-4528,-1436,-3502,330,209,33,0,3232
RAW_IMU,157626213,2297,-15332,-5166,-4403,-1324,-3522,320,213,49,0,3184
RAW_IMU,157647210,1827,-15633,-5264,-4368,-1012,-3654,315,203,51,0,3184
RAW_IMU,157668211,2232,-16431,-5757,-3585,-821,-3848,306,199,65,0,3296
RAW_IMU,157689213,2791,-16035,-6046,-2534,-569,-4052,309,197,67,0,3184
RAW_IMU,157710211,2731,-14997,-5945,-2032,-653,-4121,303,202,65,0,3312
RAW_IMU,157731212,3508,-14446,-6114,-1938,-1243,-4082,289,198,68,0,3248
RAW_IMU,157752210,3927,-14048,-6664,-2544,-1932,-4107,290,197,67,0,3248
RAW_IMU,157773212,4214,-14597,-7420,-3261,-2489,-4402,288,182,74,0,3184
RAW_IMU,157794210,4191,-14113,-7860,-3484,-2721,-4704,268,191,78,0,3168
RAW_IMU,157815212,3822,-13010,-8452,-3479,-2737,-4586,277,192,77,0,3232
RAW_IMU,157836210,4399,-13029,-9187,-3599,-2556,-4402,263,201,83,0,3232
RAW_IMU,157857211,5226,-14332,-10362,-3401,-2153,-4575,275,178,82,0,3248
RAW_IMU,157878210,6122,-14713,-11035,-2430,-1800,-4951,260,176,95,0,3200
RAW_IMU,157899211,5547,-14268,-11420,-1577,-911,-4958,258,179,90,0,3296
RAW_IMU,157920213,5301,-12827,-11149,-972,-380,-4998,260,171,98,0,3168
RAW_IMU,157941210,6936,-11366,-10342,-905,-587,-4673,250,179,100,0,3184
RAW_IMU,157962212,5073,-12343,-10283,-847,-289,-4568,249,170,101,0,3248
RAW_IMU,157983211,6303,-11639,-10209,-52,-112,-4015,232,167,112,0,3136
RAW_IMU,158004210,6812,-10633,-9790,294,17,-3615,230,163,101,0,3200
RAW_IMU,158025212,7451,-9744,-9007,-24,1,-3484,228,161,104,0,3232
RAW_IMU,158046210,6761,-9501,-8490,-674,-416,-3485,232,164,115,0,3248
RAW_IMU,158067215,6512,-9865,-8247,-1301,-959,-3476,234,155,110,0,3248
RAW_IMU,158088212,7209,-10482,-8849,-1262,-1299,-3374,225,161,111,0,3136
RAW_IMU,158109210,7892,-10771,-9735,-1005,-1393,-3543,221,155,110,0,3248
RAW_IMU,158130211,7937,-10732,-10376,-884,-1041,-3778,228,158,121,0,3232
RAW_IMU,158151213,7757,-10041,-9723,-1092,-866,-4035,229,162,115,0,3248
RAW_IMU,158172216,7286,-9194,-9219,-2036,-1085,-4315,219,155,120,0,3248
RAW_IMU,158193210,8343,-8370,-9665,-3172,-1407,-4730,219,152,117,0,3168
RAW_IMU,158214212,8593,-9182,-10031,-4048,-1561,-5076,210,146,116,0,3248
RAW_IMU,158235210,9150,-10753,-10683,-3551,-1518,-5378,228,144,126,0,3184
RAW_IMU,158256211,9304,-9891,-11422,-2548,-1252,-5656,225,141,123,0,3200
RAW_IMU,158277212,9577,-9600,-10864,-2299,-1047,-5776,215,136,128,0,3232
RAW_IMU,158298210,9785,-8773,-10577,-1994,-1176,-5958,219,145,130,0,3136
RAW_IMU,158319211,9860,-6808,-11290,-2368,-1321,-5982,210,139,136,0,3200
RAW_IMU,158340213,9995,-5801,-12265,-3190,-1272,-5816,213,128,137,0,3296
RAW_IMU,158361211,11042,-6165,-12400,-3557,-842,-5675,210,136,148,0,3184
RAW_IMU,158382213,10538,-6365,-12169,-3325,-688,-5587,200,128,144,0,3296
RAW_IMU,158403211,10750,-5350,-12181,-2527,-563,-5567,208,116,144,0,3184
RAW_IMU,158424213,10194,-4011,-12054,-2208,-381,-5204,207,115,136,0,3296
RAW_IMU,158445210,10169,-3932,-11933,-2122,-405,-4754,194,110,145,0,3232
RAW_IMU,158466212,10478,-4222,-12121,-1729,-343,-4543,195,123,152,0,3248
RAW_IMU,158487211,10110,-3432,-12195,-1304,-329,-4432,186,122,153,0,3200
RAW_IMU,158508213,10220,-2190,-12336,-1734,-226,-4254,186,112,153,0,3136
RAW_IMU,158529211,10217,-2432,-11826,-2418,-316,-4124,183,107,145,0,3248
RAW_IMU,158550212,10236,-2121,-11449,-2817,-489,-4190,187,108,161,0,3200
RAW_IMU,158571212,10029,-1484,-11669,-3152,-751,-4317,181,88,155,0,3200
RAW_IMU,158592213,10319,-1119,-12133,-3151,-845,-4327,178,90,160,0,3168
RAW_IMU,158613210,10038,-302,-12511,-2999,-761,-4328,182,82,159,0,3232
RAW_IMU,158634212,9624,656,-12537,-3029,-679,-4235,169,87,169,0,3248
RAW_IMU,158655210,9612,987,-12624,-3089,-651,-3988,181,83,165,0,3184
RAW_IMU,158676214,9735,659,-12504,-2980,-526,-3717,168,76,155,0,3200
RAW_IMU,158697213,9880,525,-12331,-2577,-528,-3570,161,70,164,0,3136
RAW_IMU,158718210,10218,356,-12523,-2011,-605,-3694,161,72,166,0,3168
RAW_IMU,158739212,9853,1123,-12834,-1739,-664,-3845,165,73,165,0,3200
RAW_IMU,158760210,9842,1914,-13303,-2104,-673,-3915,159,62,171,0,3232
RAW_IMU,158781212,9830,1971,-13577,-2567,-568,-4069,151,70,169,0,3264
RAW_IMU,158802210,9593,2285,-13361,-2693,-265,-4160,169,70,166,0,3248
RAW_IMU,158823212,9459,2578,-13242,-2705,-123,-4176,161,72,174,0,3248
RAW_IMU,158844210,9740,2932,-13121,-2650,55,-4189,159,60,179,0,3120
RAW_IMU,158865211,9583,3047,-12900,-2569,204,-4429,156,53,181,0,3232
RAW_IMU,158886212,9214,3399,-12892,-2331,303,-4831,147,47,170,0,3232
RAW_IMU,158907210,8966,4052,-12723,-2026,369,-5059,143,60,171,0,3136
RAW_IMU,158928211,8807,4391,-12641,-1674,448,-5045,150,47,172,0,3168
RAW_IMU,158949213,8507,5308,-12439,-1538,491,-5019,139,42,170,0,3184
RAW_IMU,158970211,8511,5852,-12465,-1717,508,-4971,131,44,165,0,3200
RAW_IMU,158991212,8504,5770,-12530,-1680,683,-4928,139,52,175,0,3232
RAW_IMU,159012213,8397,6400,-12632,-1451,878,-4828,127,31,171,0,3184
RAW_IMU,159033210,8248,7184,-12449,-1430,1118,-4621,131,27,163,0,3184
RAW_IMU,159054212,8542,7390,-12445,-1386,1181,-4281,118,32,170,0,3200
RAW_IMU,159075371,8679,7497,-12417,-1420,1340,-4070,122,24,181,0,3232
RAW_IMU,159096212,8606,7774,-12530,-1350,1471,-4087,116,30,172,0,3200
RAW_IMU,159117210,8662,8235,-12447,-1307,1669,-3977,112,24,171,0,3168
RAW_IMU,159138211,8520,8707,-12540,-1383,1896,-3852,110,15,163,0,3232
RAW_IMU,159159213,8519,9055,-12316,-1671,2188,-3805,103,15,170,0,3248
RAW_IMU,159180212,8881,9152,-11972,-2076,2518,-3990,86,4,164,0,3184
RAW_IMU,159201211,8685,9353,-11571,-2278,2800,-4047,87,3,160,0,3072
RAW_IMU,159222213,8227,9127,-11126,-2094,2998,-3980,86,7,161,0,3232
RAW_IMU,159243210,8198,9283,-10778,-1499,3171,-3794,88,0,157,0,3232
RAW_IMU,159264212,7696,9956,-10249,-735,3141,-3389,75,-4,154,0,3136
RAW_IMU,159285211,7630,9887,-9736,17,2870,-2684,73,-14,149,0,3312
RAW_IMU,159306213,7809,9548,-9441,1128,2541,-1897,74,-18,153,0,3136
RAW_IMU,159327210,8001,9130,-9351,2583,2106,-1029,65,-16,139,0,3200
RAW_IMU,159348212,8602,8871,-9974,4290,1678,-101,60,0,142,0,3232
RAW_IMU,159369210,9043,9694,-10560,5852,1354,741,45,6,138,0,3184
RAW_IMU,159390212,9372,10957,-11400,6434,1180,1532,63,8,128,0,3232
RAW_IMU,159411210,9453,11212,-12447,6356,976,2302,61,23,133,0,3184
RAW_IMU,159432212,10413,10505,-13615,5952,1207,2869,49,33,127,0,3296
RAW_IMU,159453210,11030,10009,-13979,5810,1832,3000,57,41,137,0,3232
RAW_IMU,159474211,10629,9874,-13376,5371,2431,3146,45,54,116,0,3296
RAW_IMU,159495210,10543,9132,-12727,5156,2620,3699,46,58,107,0,3200
RAW_IMU,159516211,10537,7478,-12404,5302,2608,4176,41,67,107,0,3184
RAW_IMU,159537213,11300,7576,-12532,5328,2912,4332,40,76,109,0,3264
RAW_IMU,159558211,10663,7431,-11851,4819,3013,4413,46,84,105,0,3232
RAW_IMU,159579212,10576,6482,-11451,4724,2846,4859,52,84,93,0,3200
RAW_IMU,159600211,10565,5651,-11527,4980,2837,5495,43,95,94,0,3168
RAW_IMU,159621212,10835,4946,-11195,4960,2884,5978,52,108,80,0,3232
RAW_IMU,159642210,10922,3365,-10663,5030,2775,6334,62,123,93,0,3200
RAW_IMU,159663211,11586,2357,-10591,5419,2690,6508,63,134,84,0,3248
RAW_IMU,159684210,11510,2205,-10403,5552,2748,6464,78,138,83,0,3248
RAW_IMU,159705213,11030,2507,-10071,5026,2617,6451,74,156,79,0,3088
RAW_IMU,159726211,10892,1432,-9859,4196,2426,6512,83,147,68,0,3232
RAW_IMU,159747213,10937,247,-9686,3661,2251,6671,88,155,68,0,3296
RAW_IMU,159768210,11001,-717,-9295,3408,2070,6809,105,163,72,0,3168
RAW_IMU,159789211,11406,-1704,-9091,3284,1917,6735,96,169,71,0,3248
RAW_IMU,159810213,11114,-2123,-9045,3189,1722,6530,108,170,60,0,3136
RAW_IMU,159831211,11585,-1854,-9646,2827,1603,6424,117,181,66,0,3248
RAW_IMU,159852212,11255,-2858,-9675,1993,1575,6368,129,197,62,0,3168
RAW_IMU,159873210,11559,-4555,-9588,1582,1619,6314,139,197,62,0,3232
RAW_IMU,159894212,11402,-5297,-9032,1694,1676,6235,143,198,53,0,3200
RAW_IMU,159915210,10966,-5864,-8721,1982,1463,6250,150,197,62,0,3168
RAW_IMU,159936212,11229,-5941,-9061,2009,1341,6303,165,209,55,0,3200
RAW_IMU,159957210,10971,-6450,-9612,1919,1349,6303,170,207,55,0,3184
RAW_IMU,159978211,10924,-7344,-9690,1923,1652,6458,176,211,62,0,3184
RAW_IMU,159999210,10994,-8283,-9146,2048,1995,6462,181,214,67,0,3232
RAW_IMU,160020211,10217,-8538,-8214,2429,2197,6601,182,215,61,0,3088
RAW_IMU,160041213,9347,-8712,-6452,3604,2261,7006,195,210,51,0,3200
RAW_IMU,160062211,8526,-5650,-6109,4076,2013,7598,195,217,63,0,3248
RAW_IMU,160083213,9892,-8290,-8525,2060,1763,7552,208,217,41,0,3248
RAW_IMU,160104211,10350,-12834,-9415,495,2001,6942,213,222,49,0,3232
RAW_IMU,160125213,10030,-14380,-8653,1286,2535,6352,216,220,46,0,3200
RAW_IMU,160146210,9546,-12559,-8174,2046,3062,5924,233,226,47,0,3248
RAW_IMU,160167212,9268,-12636,-7382,1510,3321,5389,227,217,39,0,3200
RAW_IMU,160188212,9017,-12019,-7185,623,3374,4711,224,232,41,0,3232
RAW_IMU,160209211,8296,-12301,-7291,-144,3548,4303,233,236,35,0,3120
RAW_IMU,160230213,7845,-12758,-7072,-643,3774,3970,232,232,34,0,3232
RAW_IMU,160251210,6964,-13338,-6477,-751,4013,3789,241,228,38,0,3232
RAW_IMU,160272212,6763,-14762,-5542,-473,4380,3536,238,224,40,0,3184
RAW_IMU,160293217,6378,-15361,-4814,362,4461,3069,230,228,38,0,3184
RAW_IMU,160314210,7260,-14934,-4143,1110,4616,2504,233,228,28,0,3200
RAW_IMU,160335212,7156,-14215,-3651,1507,4488,1631,233,216,40,0,3248
RAW_IMU,160356210,7368,-13022,-2841,908,4028,953,228,219,33,0,3168
RAW_IMU,160377211,7757,-12516,-1782,-213,3525,625,238,233,25,0,3248
RAW_IMU,160398212,6910,-13261,-1954,-816,3272,485,236,228,28,0,3232
RAW_IMU,160419210,7424,-14383,-2383,-409,2791,108,225,238,25,0,3120
RAW_IMU,160440211,8429,-14109,-3313,488,2671,-133,228,236,20,0,3248
RAW_IMU,160461213,9021,-13508,-3969,1169,2963,-231,220,226,38,0,3232
RAW_IMU,160482211,8245,-14218,-4038,1225,3488,-384,216,232,26,0,3184
RAW_IMU,160503213,8053,-13858,-4202,1786,3241,-767,217,226,23,0,3184
RAW_IMU,160524211,8467,-13667,-4793,1771,3265,-1086,221,230,17,0,3136
RAW_IMU,160545213,10053,-13486,-4507,1678,3800,-1245,212,221,15,0,3200
RAW_IMU,160566210,11829,-13512,-3391,1696,5068,-1129,203,227,17,0,3168
RAW_IMU,160587212,11873,-13630,-3671,1449,7947,-670,197,236,13,0,3200
RAW_IMU,160608211,9993,-13784,-3625,2239,10202,-571,195,232,7,0,3232
RAW_IMU,160629213,9172,-14440,-2459,2915,11408,-785,187,242,-7,0,3136
RAW_IMU,160650211,8276,-14624,-1206,3841,11500,-1209,182,239,-12,0,3248
RAW_IMU,160671212,7377,-14752,-106,4906,10921,-1446,186,240,-23,0,3232
RAW_IMU,160692213,7341,-13588,1230,5641,10054,-1174,167,237,-39,0,3184
RAW_IMU,160713213,8079,-13114,1938,5777,9296,-1256,181,236,-45,0,3088
RAW_IMU,160734211,8481,-13090,2893,5746,8637,-1603,182,237,-49,0,3232
RAW_IMU,160755212,7970,-11479,3878,5624,8156,-1786,172,251,-71,0,3200
RAW_IMU,160776210,7758,-10839,4560,4842,7720,-1647,168,243,-94,0,3200
RAW_IMU,160797214,7930,-11301,5149,4538,7348,-1338,174,232,-98,0,3232
RAW_IMU,160818213,8438,-12174,5754,4808,7068,-1059,174,237,-107,0,3136
RAW_IMU,160839210,8697,-11653,6675,5425,7012,-860,180,232,-130,0,3248
RAW_IMU,160860212,8233,-10210,7689,5189,7134,-783,187,239,-137,0,3248
RAW_IMU,160881210,7621,-9834,8291,4212,7210,-767,189,226,-145,0,3168
RAW_IMU,160902212,7496,-10818,8358,3707,7253,-776,198,230,-154,0,3248
RAW_IMU,160923210,7392,-11734,9417,4562,7408,-818,202,231,-165,0,3088
RAW_IMU,160944212,6334,-9795,10112,4757,7275,-960,208,222,-171,0,3296
RAW_IMU,160965213,5952,-10454,10700,4805,6984,-1025,210,214,-187,0,3248
RAW_IMU,160986211,6256,-9471,11658,5513,6818,-1050,203,227,-196,0,3168
RAW_IMU,161007212,4874,-8760,12126,5181,7093,-1121,216,222,-206,0,3200
RAW_IMU,161028213,5300,-8244,12519,5053,7597,-1117,229,213,-201,0,3072
RAW_IMU,161049210,4976,-7774,13460,5179,8414,-1224,240,205,-220,0,3232
RAW_IMU,161070212,3854,-6948,14440,4676,8829,-1258,253,201,-228,0,3184
RAW_IMU,161091210,2787,-7662,14801,4538,8640,-1223,251,207,-224,0,3232
RAW_IMU,161112211,2530,-7792,14313,5137,8084,-1296,262,194,-234,0,3248
RAW_IMU,161133213,2495,-7567,14593,6116,7565,-1387,270,187,-231,0,3168
RAW_IMU,161154210,1509,-4687,14876,6098,7048,-1214,273,193,-240,0,3232
RAW_IMU,161175212,645,-4628,16196,5806,6617,-1018,287,184,-242,0,3232
RAW_IMU,161196370,-311,-5148,16681,6070,6105,-1021,301,170,-246,0,3296
RAW_IMU,161217212,99,-5385,17541,7128,5604,-1372,302,171,-255,0,3248
RAW_IMU,161238210,-296,-3806,17568,8066,5078,-1855,300,157,-262,0,3088
RAW_IMU,161259212,-538,-2249,16804,7652,4425,-2120,309,148,-278,0,3232
RAW_IMU,161280213,-1364,-1084,15768,7437,3735,-2204,319,136,-275,0,3248
RAW_IMU,161301212,-299,3316,17093,6486,3152,-2049,324,144,-278,0,3232
RAW_IMU,161322212,-882,3551,18232,4642,2727,-960,330,134,-283,0,3136
RAW_IMU,161343213,-1782,-1419,18155,3926,2835,176,327,129,-278,0,3184
RAW_IMU,161364211,-1973,-1521,17702,5186,3204,595,335,128,-282,0,3248
RAW_IMU,161385213,-2644,511,17327,5861,3123,767,340,124,-280,0,3296
RAW_IMU,161406211,-3085,1772,17428,5593,2691,734,350,107,-290,0,3232
RAW_IMU,161427213,-3214,1561,16853,5172,2480,641,354,96,-282,0,3184
RAW_IMU,161448211,-3690,1689,16522,5039,2528,607,353,93,-295,0,3248
RAW_IMU,161469213,-3893,2975,16359,4802,2627,469,367,77,-284,0,3232
RAW_IMU,161490210,-4113,2598,16091,4455,2722,415,364,88,-305,0,3232
RAW_IMU,161511213,-4381,2641,15886,4346,2592,404,369,78,-300,0,3232
RAW_IMU,161532210,-4543,3390,15607,4139,2395,294,384,47,-325,0,3120
RAW_IMU,161553212,-4027,2967,15827,4217,2452,187,382,42,-332,0,3184
RAW_IMU,161574210,-4198,3462,15464,4685,2700,331,380,29,-326,0,3248
RAW_IMU,161595211,-4332,5739,14598,4738,2879,607,384,42,-325,0,3248
RAW_IMU,161616210,-4330,5952,14399,4340,3134,660,396,21,-321,0,3200
RAW_IMU,161637212,-4050,5627,14674,3821,3359,342,401,19,-331,0,3088
RAW_IMU,161658213,-4286,5565,14514,3612,3459,-45,405,6,-322,0,3200
RAW_IMU,161679211,-5394,6992,14875,3488,3243,-345,397,3,-322,0,3296
RAW_IMU,161700212,-5263,6628,15024,3258,3036,-730,417,4,-318,0,3184
RAW_IMU,161721211,-5675,7792,14430,2847,3163,-933,412,4,-318,0,3248
RAW_IMU,161742213,-5868,7319,13804,2538,3636,-909,422,-7,-321,0,3168
RAW_IMU,161763211,-6623,7403,13504,2386,3903,-839,414,0,-306,0,3200
RAW_IMU,161784212,-6947,8158,13983,2156,3660,-693,427,-14,-309,0,3200
RAW_IMU,161805212,-6802,7348,13885,2060,3324,-716,437,-8,-310,0,3296
RAW_IMU,161826211,-6883,6645,13710,2228,3249,-918,440,-14,-296,0,3184
RAW_IMU,161847212,-7077,6336,13395,2635,3313,-1174,439,-25,-300,0,3248
RAW_IMU,161868210,-7665,6843,13209,3096,3226,-1168,451,-14,-287,0,3232
RAW_IMU,161889212,-8139,6958,12896,3636,2991,-1020,451,-9,-287,0,3200
RAW_IMU,161910212,-8648,7096,12287,3987,2599,-988,457,-20,-298,0,3168
RAW_IMU,161931210,-8664,7888,11624,4195,2185,-877,461,-26,-289,0,3136
RAW_IMU,161952212,-8723,7796,11295,4532,1859,-406,459,-24,-284,0,3168
RAW_IMU,161973210,-9284,7813,11216,5299,1464,226,456,-19,-277,0,3168
RAW_IMU,161994212,-9615,8433,10703,6326,823,1066,472,-36,-294,0,3184
RAW_IMU,162015213,-9584,9241,9278,7136,94,1902,455,-32,-278,0,3168
RAW_IMU,162036210,-9117,10529,7592,7245,-552,2593,463,-56,-285,0,3136
RAW_IMU,162057211,-8426,11429,6342,6357,-1009,3092,467,-62,-284,0,3232
RAW_IMU,162078213,-7573,11444,5884,5266,-1175,3454,469,-75,-282,0,3184
RAW_IMU,162099210,-6938,12132,5891,4270,-1221,3972,463,-78,-278,0,3168
RAW_IMU,162120213,-6865,12196,7251,3568,-1556,4465,457,-93,-285,0,3296
RAW_IMU,162141211,-6484,11344,8856,3160,-2282,4572,452,-93,-275,0,3200
RAW_IMU,162162213,-5795,11428,9409,3367,-3022,4312,446,-106,-282,0,3200
RAW_IMU,162183210,-5235,12021,9036,4098,-3137,4129,444,-119,-283,0,3232
RAW_IMU,162204212,-3937,13750,7079,3506,-3007,4201,430,-113,-279,0,3248
RAW_IMU,162225211,-4070,14056,7141,2887,-3039,3616,430,-125,-289,0,3120
RAW_IMU,162246212,-3455,11210,11462,3383,-2836,3050,421,-134,-295,0,3120
RAW_IMU,162267210,-3735,14319,8184,3122,-2449,3043,433,-147,-291,0,3200
RAW_IMU,162288212,-3720,15449,7154,3038,-2108,3262,418,-141,-288,0,3232
RAW_IMU,162309211,-4065,15399,6985,2444,-2166,3157,413,-153,-280,0,3184
RAW_IMU,162330210,-3527,14808,7199,1595,-2371,2682,404,-167,-296,0,3200
RAW_IMU,162351211,-2840,14108,7258,1311,-2384,2199,401,-159,-282,0,3136
RAW_IMU,162372213,-2806,13872,7288,1446,-2347,1822,404,-162,-296,0,3232
RAW_IMU,162393211,-3499,14433,7537,1924,-2565,1581,403,-168,-285,0,3184
RAW_IMU,162414215,-3632,15110,7427,2165,-3190,1330,400,-173,-278,0,3232
RAW_IMU,162435213,-2959,15243,6999,2146,-3708,1198,400,-173,-266,0,3200
RAW_IMU,162456211,-2233,15839,6483,2170,-3929,1304,384,-161,-273,0,3248
RAW_IMU,162477213,-2063,15937,6115,2191,-4015,1610,370,-171,-260,0,3232
RAW_IMU,162498210,-1594,16152,5984,2373,-3949,1902,354,-164,-264,0,3168
RAW_IMU,162519211,-962,15987,5630,2158,-3885,1909,339,-167,-262,0,3232
RAW_IMU,162540213,-510,15241,5298,1971,-3697,1637,349,-171,-260,0,3168
RAW_IMU,162561211,-684,15477,5200,1753,-3491,1224,344,-169,-264,0,3248
RAW_IMU,162582213,-52,15349,5497,1421,-3220,902,339,-181,-267,0,3184
RAW_IMU,162603210,886,15706,5068,1103,-2723,791,317,-180,-268,0,3232
RAW_IMU,162624213,741,15223,4980,1349,-1996,560,326,-186,-277,0,3232
RAW_IMU,162645211,-369,14846,5324,1720,-1711,200,314,-194,-268,0,3168
RAW_IMU,162666212,-4061,13366,5971,1644,-1787,619,332,-187,-280,0,3296
RAW_IMU,162687210,-2082,15627,5933,2178,-901,2397,324,-197,-278,0,3232
RAW_IMU,162708212,223,14012,5461,2868,-1448,2021,307,-203,-282,0,3248
RAW_IMU,162729210,530,14896,4902,3688,-2242,1406,306,-202,-273,0,3184
RAW_IMU,162750212,437,16312,3311,4170,-2848,885,310,-217,-269,0,3184
RAW_IMU,162771210,810,16760,2257,3888,-3056,531,307,-215,-260,0,3264
RAW_IMU,162792211,2018,17314,1357,3085,-2912,132,297,-222,-250,0,3232
RAW_IMU,162813211,1672,17946,1269,1879,-2535,-202,292,-222,-262,0,3200
RAW_IMU,162834212,2503,15786,1704,1256,-2227,-678,292,-225,-250,0,3264
RAW_IMU,162855213,2204,15453,2126,1039,-1958,-1472,292,-227,-247,0,3168
RAW_IMU,162876211,1249,15765,2597,883,-2219,-2520,292,-220,-245,0,3184
RAW_IMU,162897212,675,16587,2828,710,-2760,-3350,287,-230,-252,0,3232
RAW_IMU,162918210,621,16339,2703,913,-3097,-3845,301,-226,-248,0,3232
RAW_IMU,162939211,122,16336,2529,1444,-3295,-4174,287,-225,-245,0,3200
RAW_IMU,162960213,-255,16941,2238,1920,-3358,-4384,300,-227,-242,0,3168
RAW_IMU,162981211,-881,17164,2218,2227,-3362,-4372,290,-228,-239,0,3200
RAW_IMU,163002212,-1503,16809,2425,2380,-3559,-4345,303,-228,-246,0,3136
RAW_IMU,163023209,-1995,16694,1897,2640,-3980,-4397,301,-238,-239,0,3168
RAW_IMU,163044211,-1863,16510,1590,2509,-4148,-4421,303,-233,-241,0,3088
RAW_IMU,163065213,-1947,16541,670,2356,-3592,-4201,307,-244,-233,0,3184
RAW_IMU,163086210,-2866,16150,369,2439,-2966,-3723,307,-256,-233,0,3296
RAW_IMU,163107212,-3433,16450,620,2212,-2506,-3188,318,-249,-230,0,3248
RAW_IMU,163128213,-3726,16204,977,1898,-2234,-2589,309,-238,-226,0,3184
RAW_IMU,163149211,-3732,15642,1177,1647,-1935,-2152,310,-242,-228,0,3168
RAW_IMU,163170212,-3428,14712,1012,1840,-1309,-1704,306,-245,-236,0,3184
RAW_IMU,163191210,-3741,14311,1194,2590,-537,-1176,307,-244,-220,0,3232
RAW_IMU,163212212,-5038,14690,1379,3307,-175,-420,335,-248,-222,0,3168
RAW_IMU,163233212,-5380,15239,1239,3464,-257,404,318,-249,-230,0,3232
RAW_IMU,163254210,-4744,14966,547,3318,-358,1184,330,-260,-222,0,3120
RAW_IMU,163275212,-3868,13556,-8,3946,-348,1815,310,-259,-220,0,3232
RAW_IMU,163296210,-3774,13323,-660,5066,-660,2085,311,-265,-209,0,3232
RAW_IMU,163317372,-3835,13931,-1773,5638,-1393,2044,309,-270,-199,0,3232
RAW_IMU,163338210,-3108,15344,-3168,5500,-1807,1908,307,-271,-196,0,3136
RAW_IMU,163359212,-2085,16673,-3834,5124,-1504,2088,297,-273,-188,0,3136
RAW_IMU,163380210,-1194,16151,-4141,4883,-769,2206,294,-283,-186,0,3248
RAW_IMU,163401211,-1472,15584,-3765,5076,131,1872,288,-282,-177,0,3184
RAW_IMU,163422209,-1574,15647,-3805,5237,579,1400,298,-289,-163,0,3200
RAW_IMU,163443212,-1974,15458,-4100,5379,483,1115,283,-279,-150,0,3200
RAW_IMU,163464210,-2692,15593,-4888,5308,98,727,290,-294,-143,0,3168
RAW_IMU,163485211,-2888,15406,-5878,5056,-344,438,294,-285,-144,0,3232
RAW_IMU,163506213,-3423,15555,-6802,4918,-814,464,292,-290,-134,0,3232
RAW_IMU,163527212,-3453,15287,-8405,4871,-1518,976,280,-299,-126,0,3120
RAW_IMU,163548210,-2662,15162,-9382,4714,-1756,1463,288,-291,-126,0,3168
RAW_IMU,163569211,-1021,14816,-9476,4382,-1176,1634,290,-299,-111,0,3232
RAW_IMU,163590213,-889,14728,-9235,4043,-86,1537,277,-306,-104,0,3184
RAW_IMU,163611210,-1088,14934,-9165,3505,633,1349,273,-305,-98,0,3184
RAW_IMU,163632213,-1165,14429,-8953,2650,1068,1159,275,-294,-89,0,3184
RAW_IMU,163653211,-1393,12974,-8540,2287,1159,1057,268,-290,-90,0,3200
RAW_IMU,163674213,-1995,12434,-8033,2743,892,1025,271,-285,-80,0,3232
RAW_IMU,163695210,-1966,13299,-7706,3352,450,940,270,-294,-87,0,3184
RAW_IMU,163716212,-1513,13277,-7997,3945,145,971,275,-306,-74,0,3248
RAW_IMU,163737211,-1383,12913,-8436,4634,-83,1108,263,-297,-66,0,3248
RAW_IMU,163758213,-1473,12495,-9047,5134,-325,1195,266,-295,-58,0,3088
RAW_IMU,163779211,-1255,12659,-9629,5378,-501,1306,264,-303,-45,0,3184
RAW_IMU,163800212,-585,12078,-10339,5519,-434,1416,267,-301,-38,0,3232
RAW_IMU,163821210,-932,12191,-11062,5707,-306,1468,259,-291,-23,0,3200
RAW_IMU,163842213,-839,12765,-11561,5515,-442,1580,255,-307,-29,0,3168
RAW_IMU,163863210,-734,12360,-11779,4862,-402,1520,258,-297,-17,0,3136
RAW_IMU,163884212,59,12360,-13093,3838,-185,1311,250,-302,-12,0,3248
RAW_IMU,163905210,3,12015,-13373,2442,387,933,255,-295,-2,0,3168
RAW_IMU,163926213,-68,11887,-12889,1431,1123,708,260,-295,4,0,3184
RAW_IMU,163947212,203,10864,-12624,1194,1623,729,241,-277,35,0,3248
RAW_IMU,163968210,-547,10828,-11733,1390,2041,793,259,-286,28,0,3136
RAW_IMU,163989212,-1053,8639,-11706,1251,1649,569,253,-278,31,0,3232
RAW_IMU,164010213,-1064,8976,-11729,2039,1062,653,257,-284,6,0,3136
RAW_IMU,164031210,-554,8569,-11889,3224,463,985,241,-286,23,0,3232
RAW_IMU,164052212,34,9303,-12144,4377,156,1327,243,-286,25,0,3248
RAW_IMU,164073210,776,9376,-13195,4330,173,1251,241,-277,38,0,3136
RAW_IMU,164094211,143,8807,-13798,3800,215,941,240,-283,39,0,3248
RAW_IMU,164115213,329,9117,-14022,3696,263,671,237,-276,49,0,3184
RAW_IMU,164136212,428,9443,-13976,3728,198,743,228,-279,52,0,3248
RAW_IMU,164157210,516,9199,-13658,3467,199,502,230,-274,60,0,3232
RAW_IMU,164178211,415,8397,-13469,2871,308,59,233,-274,55,0,3232
RAW_IMU,164199213,231,7234,-13678,2863,183,-331,236,-262,67,0,3200
RAW_IMU,164220210,-211,7943,-14501,3109,-177,-519,229,-273,63,0,3200
RAW_IMU,164241213,-258,6346,-14290,3472,-513,-408,233,-260,74,0,3248
RAW_IMU,164262210,-146,6874,-14936,3749,-712,-258,241,-260,72,0,3088
RAW_IMU,164283212,84,6301,-15330,3536,-577,-225,233,-250,84,0,3296
RAW_IMU,164304210,-65,6648,-15311,3412,-264,50,243,-260,91,0,3184
RAW_IMU,164325211,175,6753,-16075,3138,-123,581,238,-250,89,0,3184
RAW_IMU,164346210,567,6243,-16393,2495,34,730,240,-259,93,0,3248
RAW_IMU,164367212,822,5297,-15927,2155,347,688,230,-253,94,0,3184
RAW_IMU,164388213,84,4307,-16078,2062,546,696,221,-244,105,0,3248
RAW_IMU,164409211,-820,3727,-15509,2323,642,839,225,-236,114,0,3184
RAW_IMU,164430212,-430,6319,-15477,2417,584,1111,225,-233,116,0,3248
RAW_IMU,164451213,1458,5624,-15985,1790,662,1794,216,-232,120,0,3232
RAW_IMU,164472211,2104,2786,-15349,2388,1296,2047,217,-228,126,0,3184
RAW_IMU,164493213,1432,3168,-15175,2367,1531,1499,207,-228,128,0,3168
RAW_IMU,164514213,755,4347,-15427,1703,1263,702,203,-222,147,0,3248
RAW_IMU,164535217,-143,4473,-15728,1254,1069,476,211,-213,134,0,3184
RAW_IMU,164556210,789,3622,-15813,1687,1305,786,206,-208,142,0,3312
RAW_IMU,164577211,2598,3860,-16460,2219,1549,1278,194,-214,143,0,3168
RAW_IMU,164598211,2715,2764,-16623,2956,1547,1819,207,-214,141,0,3200
RAW_IMU,164619211,729,2300,-15989,4185,1075,2468,200,-215,144,0,3232
RAW_IMU,164640213,83,2426,-15400,5081,421,2884,204,-197,158,0,3248
RAW_IMU,164661210,605,1797,-14984,5523,-232,3001,191,-187,160,0,3296
RAW_IMU,164682210,1553,1331,-15734,5777,-681,3075,203,-184,166,0,3200
RAW_IMU,164703211,1967,952,-16612,6000,-963,3354,180,-181,174,0,3248
RAW_IMU,164724211,2662,233,-16940,6381,-1184,3622,183,-170,182,0,3184
RAW_IMU,164745211,1836,345,-17241,6942,-1052,3736,178,-163,187,0,3248
RAW_IMU,164766213,1727,-1354,-17079,7508,-748,3953,183,-146,197,0,3136
RAW_IMU,164787213,1419,-2103,-16745,7598,-408,4374,177,-145,201,0,3200
RAW_IMU,164808210,1398,-3016,-15982,7506,-91,4559,174,-123,196,0,3248
RAW_IMU,164829210,1479,-4283,-15728,7587,-278,4325,182,-108,213,0,3248
RAW_IMU,164850211,1360,-4718,-15233,7487,-569,3981,173,-100,214,0,3248
RAW_IMU,164871213,1226,-4715,-15751,7360,-436,3710,170,-88,231,0,3136
RAW_IMU,164892210,1222,-6154,-15873,7054,-303,3730,170,-78,217,0,3232
RAW_IMU,164913210,1360,-7410,-15676,7116,-58,3634,160,-52,219,0,3200
RAW_IMU,164934211,1757,-7505,-15612,7123,565,3383,168,-47,229,0,3232
RAW_IMU,164955211,1381,-8206,-15399,6555,1350,2842,174,-41,233,0,3200
RAW_IMU,164976212,951,-8993,-15359,6597,2016,2233,163,-30,229,0,3136
RAW_IMU,164997212,647,-9528,-15182,6769,2175,1908,161,-2,242,0,3248
RAW_IMU,165018212,521,-10250,-14851,7006,1998,1634,161,-9,233,0,3168
RAW_IMU,165039212,764,-10119,-14168,7492,1749,1401,156,4,230,0,3248
RAW_IMU,165060211,1599,-9919,-13785,7665,1694,1232,163,20,231,0,3296
RAW_IMU,165081211,1364,-10455,-13365,7872,1621,1332,143,36,228,0,3184
RAW_IMU,165102212,821,-11743,-12821,8183,1227,1568,147,39,229,0,3168
RAW_IMU,165123212,971,-11329,-11543,8136,684,1636,151,53,230,0,3184
RAW_IMU,165144213,776,-12192,-11250,7577,336,1413,155,71,224,0,3200
RAW_IMU,165165211,55,-12444,-11565,7499,224,1104,155,90,224,0,3184
RAW_IMU,165186211,396,-11977,-11372,7330,238,932,144,88,219,0,3136
RAW_IMU,165207211,345,-12041,-10415,6816,407,845,159,104,218,0,3248
RAW_IMU,165228211,735,-13278,-9616,6101,620,579,155,110,209,0,3232
RAW_IMU,165249212,272,-13986,-9094,5506,819,335,161,130,206,0,3248
RAW_IMU,165270210,105,-14643,-8635,5210,982,166,153,133,198,0,3120
RAW_IMU,165291210,-56,-14521,-7885,5248,944,44,151,140,192,0,3248
RAW_IMU,165312211,340,-14461,-7224,5114,825,-12,143,152,188,0,3248
RAW_IMU,165333211,134,-14689,-6542,4921,776,19,140,152,176,0,3232
RAW_IMU,165354211,550,-14746,-6217,4678,534,19,142,153,182,0,3184
RAW_IMU,165375213,826,-15009,-6272,4534,539,35,157,161,170,0,3088
RAW_IMU,165396213,1292,-15417,-6314,4133,577,191,155,173,168,0,3232
RAW_IMU,165417210,868,-14717,-5724,3875,748,318,139,182,160,0,3168
RAW_IMU,165438373,932,-14197,-5497,3225,962,297,144,173,160,0,3232
RAW_IMU,165459211,968,-14409,-5242,2199,1263,255,144,185,153,0,3200
RAW_IMU,165480213,612,-14538,-4772,1073,1418,169,150,192,153,0,3168
RAW_IMU,165501210,387,-15104,-4658,8,1281,38,134,178,150,0,3248
RAW_IMU,165522210,-21,-15053,-4425,-796,1079,-105,135,186,157,0,3248
RAW_IMU,165543213,224,-14649,-4573,-1587,954,-213,144,190,158,0,3200
RAW_IMU,165564213,582,-14395,-4666,-2476,774,-206,139,173,153,0,3248
RAW_IMU,165585213,654,-14162,-5174,-3625,300,-278,138,186,154,0,3120
RAW_IMU,165606210,1311,-14065,-6098,-4883,-201,-370,140,171,159,0,3168
RAW_IMU,165627210,1207,-14850,-6936,-5716,-149,-132,127,171,159,0,3248
RAW_IMU,165648211,709,-15211,-7044,-5955,-208,82,143,169,169,0,3200
RAW_IMU,165669213,480,-14335,-8214,-6732,-756,-145,126,148,177,0,3200
RAW_IMU,165690210,1730,-15426,-9119,-7026,-472,-225,129,139,180,0,3136
RAW_IMU,165711210,1038,-14956,-8562,-6272,333,232,133,140,179,0,3232
RAW_IMU,165732210,246,-15296,-8039,-5349,224,570,138,121,193,0,3248
RAW_IMU,165753212,138,-14477,-8021,-4870,-630,692,135,121,196,0,3168
RAW_IMU,165774213,1231,-14455,-9171,-4989,-1257,552,135,104,201,0,3168
RAW_IMU,165795210,1860,-14335,-9738,-4640,-804,609,138,116,208,0,3136
RAW_IMU,165816210,386,-14116,-9906,-4095,-161,874,136,107,204,0,3248
RAW_IMU,165837210,-683,-13792,-9742,-3552,-186,1080,148,94,210,0,3200
RAW_IMU,165858212,-106,-12888,-10230,-3607,-715,951,139,100,222,0,3184
RAW_IMU,165879213,953,-11660,-11344,-4641,-934,510,143,92,218,0,3200
RAW_IMU,165900210,1152,-10814,-12729,-6254,-514,-222,152,98,219,0,3296
RAW_IMU,165921210,1362,-10388,-13953,-7889,416,-897,150,81,219,0,3248
RAW_IMU,165942210,1358,-10335,-14466,-9252,1606,-1417,139,69,224,0,3296
RAW_IMU,165963212,1639,-10478,-14208,-9936,2329,-1828,133,53,220,0,3264
RAW_IMU,165984213,1454,-10224,-13470,-9911,2505,-2184,136,35,222,0,3168
RAW_IMU,166005210,1122,-8266,-13212,-9955,2072,-2509,133,16,225,0,3232
RAW_IMU,166026210,2719,-6945,-14062,-10808,1710,-2796,126,13,224,0,3232
RAW_IMU,166047210,3625,-6712,-16277,-11457,2089,-2764,129,-10,212,0,3200
RAW_IMU,166068213,3264,-6902,-16864,-11124,2698,-2475,126,-20,222,0,3248
RAW_IMU,166089210,2434,-6503,-16207,-10253,3019,-2263,125,-33,208,0,3136
RAW_IMU,166110210,2451,-5847,-15859,-9534,2994,-2190,114,-72,198,0,3232
RAW_IMU,166131210,2706,-5648,-16119,-8833,2823,-2103,112,-67,201,0,3200
RAW_IMU,166152209,3766,-5027,-15811,-8088,2715,-1652,104,-87,176,0,3248
RAW_IMU,166173211,3172,-5060,-15353,-7878,2623,-1233,100,-102,177,0,3136
RAW_IMU,166194212,2978,-1032,-15004,-7236,2188,-974,108,-102,170,0,3168
RAW_IMU,166215212,3157,-875,-15410,-6959,1652,-744,104,-121,169,0,3296
RAW_IMU,166236212,3575,-531,-15825,-6761,1293,-754,97,-131,160,0,3248
RAW_IMU,166257212,4180,-380,-15897,-6458,1203,-676,90,-127,153,0,3232
RAW_IMU,166278210,4558,-266,-15735,-5720,1300,-620,86,-142,142,0,3184
RAW_IMU,166299210,4744,1589,-16104,-5306,1409,-635,91,-155,139,0,3232
RAW_IMU,166320212,5158,1564,-15936,-5269,1687,-593,92,-153,128,0,3200
RAW_IMU,166341213,4311,1342,-16167,-4805,1901,-544,84,-151,118,0,3296
RAW_IMU,166362212,4462,869,-16488,-3913,1998,-704,76,-156,109,0,3168
RAW_IMU,166383210,4884,2703,-16171,-2844,2094,-742,80,-164,115,0,3200
RAW_IMU,166404211,5548,4114,-15734,-2883,2185,-552,83,-169,107,0,3200
RAW_IMU,166425213,5472,3975,-15673,-3259,2496,-375,74,-170,111,0,3232
RAW_IMU,166446210,5722,3433,-15677,-3222,2831,-373,82,-175,91,0,3184
RAW_IMU,166467213,6161,4371,-15599,-2929,3366,-266,79,-173,96,0,3200
RAW_IMU,166488211,6722,5399,-15736,-3194,4070,68,75,-174,90,0,3136
RAW_IMU,166509212,7106,5549,-15704,-3808,4922,359,73,-176,80,0,3232
RAW_IMU,166530210,6990,5314,-15207,-4149,5965,405,74,-175,77,0,3232
RAW_IMU,166551216,8559,4798,-13991,-4027,6941,460,60,-188,58,0,3232
RAW_IMU,166572213,5656,11315,-16253,-4123,8045,730,56,-175,47,0,3232
RAW_IMU,166593210,7583,6743,-13729,-4407,7660,1201,61,-180,33,0,3136
RAW_IMU,166614212,7519,7135,-12382,-3539,7345,1477,48,-178,35,0,3200
RAW_IMU,166635210,7801,4662,-10018,-3082,5979,1407,44,-179,24,0,3136
RAW_IMU,166656215,9484,5575,-9693,-2356,4354,1392,46,-171,9,0,3232
RAW_IMU,166677212,9181,6111,-9152,-1614,3399,1654,36,-179,7,0,3248
RAW_IMU,166698210,9873,6511,-9974,-1164,2759,1690,39,-174,-4,0,3136
RAW_IMU,166719212,10008,6383,-10374,-1108,2426,1503,24,-165,-11,0,3200
RAW_IMU,166740213,11429,5828,-10329,-890,2216,1353,27,-170,-11,0,3184
RAW_IMU,166761210,11742,6169,-10588,-591,2484,1402,33,-174,-12,0,3248
RAW_IMU,166782212,11760,6465,-11524,-640,3171,1431,27,-170,-23,0,3232
RAW_IMU,166803210,11919,6277,-11007,-871,4065,1350,19,-173,-15,0,3184
RAW_IMU,166824212,12309,6307,-10137,-1132,4983,1182,20,-167,-31,0,3200
RAW_IMU,166845213,12477,6667,-9699,-1660,5620,1134,32,-158,-40,0,3312
RAW_IMU,166866211,11787,6783,-9229,-2295,5957,1110,18,-155,-34,0,3232
RAW_IMU,166887212,11767,6500,-8808,-2534,6082,1314,6,-153,-62,0,3232
RAW_IMU,166908210,12391,5989,-8335,-2289,6126,1831,14,-148,-60,0,3184
RAW_IMU,166929212,12802,5880,-7378,-2124,6118,2326,15,-159,-66,0,3232
RAW_IMU,166950213,12829,5723,-6546,-2164,5982,2529,11,-146,-84,0,3200
RAW_IMU,166971212,13109,5636,-5858,-2312,5953,2593,5,-147,-93,0,3200
RAW_IMU,166992213,13331,4992,-5032,-2192,5992,2676,10,-125,-93,0,3136
RAW_IMU,167013211,13570,5214,-3798,-1726,5752,2766,13,-130,-106,0,3200
RAW_IMU,167034212,14994,5480,-3512,-1740,5342,2761,-1,-119,-116,0,3200
RAW_IMU,167055212,15056,4892,-3144,-1985,4966,2588,5,-128,-127,0,3168
RAW_IMU,167076213,14296,4593,-2644,-1993,4523,2313,10,-111,-137,0,3184
RAW_IMU,167097211,14021,4405,-1506,-1311,3925,2132,-1,-112,-136,0,3200
RAW_IMU,167118213,14430,4417,-892,-562,3150,1880,2,-111,-137,0,3184
RAW_IMU,167139210,14825,5037,-1320,-512,2427,1690,-1,-105,-148,0,3136
RAW_IMU,167160214,15304,4661,-1842,-816,1923,1558,6,-107,-150,0,3168
RAW_IMU,167181213,15540,3859,-1991,-880,1774,1469,7,-99,-157,0,3184
RAW_IMU,167202211,15449,3193,-1250,-478,1832,1565,2,-92,-154,0,3136
RAW_IMU,167223212,15234,3895,-1032,-161,2017,1683,13,-87,-157,0,3168
RAW_IMU,167244210,15131,3797,-1378,-245,2230,1639,11,-85,-160,0,3136
RAW_IMU,167265213,15242,3519,-2080,-425,2650,1407,14,-83,-165,0,3312
RAW_IMU,167286211,15264,3191,-1956,-649,3248,1173,11,-78,-165,0,3184
RAW_IMU,167307212,14973,3982,-1147,-1028,3835,1287,-3,-78,-165,0,3136
RAW_IMU,167328210,15861,3499,-1507,-1788,4116,1489,15,-84,-181,0,3184
RAW_IMU,167349212,15859,2353,-759,-1542,4416,1469,6,-78,-180,0,3136
RAW_IMU,167370213,15928,3512,-926,-1799,4727,1582,19,-76,-182,0,3232
RAW_IMU,167391210,15894,3582,859,-2116,5060,1812,35,-78,-185,0,3184
RAW_IMU,167412212,15797,3641,1050,-2413,5486,2438,24,-66,-197,0,3024
RAW_IMU,167433210,15451,2655,1342,-2533,5918,2761,31,-62,-203,0,3232
RAW_IMU,167454211,15069,2196,2208,-2441,6159,2704,32,-61,-222,0,3232
RAW_IMU,167475210,15132,2569,3027,-2613,6080,2619,33,-60,-223,0,3200
RAW_IMU,167496212,14630,1915,3594,-2741,5784,2577,49,-46,-223,0,3200
RAW_IMU,167517213,15043,-462,4979,-2547,5449,2346,52,-38,-247,0,3120
RAW_IMU,167538211,17285,-1736,3577,-1823,4586,780,58,-32,-246,0,3248
RAW_IMU,167559373,14275,1428,6799,-1216,3370,127,61,-37,-241,0,3232
RAW_IMU,167580212,14620,2379,5398,-1103,2748,856,76,-23,-253,0,3136
RAW_IMU,167601210,14582,2844,4682,-1263,2449,1897,78,-36,-257,0,3136
RAW_IMU,167622212,14378,2752,4649,-1655,2224,2678,75,-24,-257,0,3296
RAW_IMU,167643210,15866,1622,5750,-1444,1710,2834,70,-26,-264,0,3200
RAW_IMU,167664212,15004,93,6243,-1543,593,2191,73,-16,-257,0,3232
RAW_IMU,167685213,16036,-1240,5641,-1882,74,1160,76,-10,-253,0,3248
RAW_IMU,167706210,16729,-946,4252,-2005,808,376,79,-6,-258,0,3168
RAW_IMU,167727212,16249,-1013,5526,-1428,1742,-155,84,-6,-258,0,3248
RAW_IMU,167748210,15821,229,6561,-1067,2186,-47,83,-16,-257,0,3232
RAW_IMU,167769212,15825,515,7238,-1234,2440,427,86,-7,-257,0,3296
RAW_IMU,167790210,15609,-26,7755,-1533,2841,875,93,0,-262,0,3184
RAW_IMU,167811212,14918,-464,7344,-1920,3503,995,91,-4,-269,0,3184
RAW_IMU,167832213,14465,-1676,8502,-1681,4112,729,96,-4,-255,0,3312
RAW_IMU,167853211,14272,-1529,9063,-1068,4505,482,95,3,-261,0,3248
RAW_IMU,167874210,14691,-616,9292,-844,4882,379,99,0,-267,0,3248
RAW_IMU,167895211,13669,-1567,9900,-1060,5500,519,103,-3,-271,0,3232
RAW_IMU,167916213,11664,-1146,10956,-620,5577,899,110,10,-285,0,3168
RAW_IMU,167937211,10792,-526,10450,-442,5144,1295,125,4,-287,0,3248
RAW_IMU,167958212,11611,-661,9578,-798,4953,1594,127,12,-289,0,3296
RAW_IMU,167979211,12116,-1797,9826,-1047,5171,1858,130,12,-294,0,3184
RAW_IMU,168000291,11901,-2256,10312,-962,5626,2262,139,8,-290,0,3248
RAW_IMU,168021212,11118,-2623,10794,-660,5937,2578,153,21,-299,0,3136
RAW_IMU,168042210,10672,-2108,11544,-433,6088,2762,167,16,-284,0,3232
RAW_IMU,168063212,10513,-1260,11166,-345,6292,2957,164,21,-296,0,3248
RAW_IMU,168084210,9963,-2915,12245,-544,6526,3005,174,9,-299,0,3312
RAW_IMU,168105212,8904,-3496,13254,-204,6055,2557,185,9,-301,0,3168
RAW_IMU,168126210,9768,-1923,12033,-263,5626,2178,204,25,-302,0,3232
RAW_IMU,168147211,9412,-2298,11759,-730,5856,2012,206,24,-306,0,3232
RAW_IMU,168168211,9026,-2391,12964,-941,5940,2052,221,16,-304,0,3184
RAW_IMU,168189210,10046,-2859,12733,-1008,6064,2068,233,23,-317,0,3184
RAW_IMU,168210211,9006,-3556,13706,-1269,6547,1693,225,13,-307,0,3136
RAW_IMU,168231213,5194,-6231,18305,-507,5740,997,249,32,-298,0,3184
RAW_IMU,168252211,7540,-3446,15215,317,4724,856,254,23,-315,0,3248
RAW_IMU,168273211,7104,-2611,14468,283,5063,1149,266,16,-306,0,3184
RAW_IMU,168294213,5394,-3236,16177,147,5037,1331,276,29,-314,0,3168
RAW_IMU,168315211,4240,-3238,16286,162,4391,1306,285,15,-305,0,3136
RAW_IMU,168336213,5978,-3127,14233,33,4296,1188,287,14,-311,0,3200
RAW_IMU,168357210,5309,-3592,15628,-220,4340,1012,285,8,-302,0,3184
RAW_IMU,168378213,5111,-3032,15794,-195,3920,1200,311,13,-295,0,3136
RAW_IMU,168399211,4242,-3594,16584,-201,3497,1462,296,10,-293,0,3200
RAW_IMU,168420212,4308,-3522,16329,7,3255,1803,300,16,-296,0,3088
RAW_IMU,168441210,4715,-4060,15898,98,3560,1844,320,19,-287,0,3248
RAW_IMU,168462212,4592,-4155,15440,-95,4209,1511,303,8,-293,0,3232
RAW_IMU,168483210,3708,-3208,15693,-258,4938,1320,326,21,-284,0,3200
RAW_IMU,168504212,2674,-3795,16543,-336,5160,1316,327,10,-293,0,3232
RAW_IMU,168525210,2809,-3904,16093,-602,5323,1009,343,25,-280,0,3136
RAW_IMU,168546211,2489,-2572,15182,-1182,5659,776,345,10,-290,0,3232
RAW_IMU,168567213,1189,-1619,15013,-2332,5948,771,353,15,-273,0,3184
RAW_IMU,168588212,-154,-2126,15643,-3784,5728,820,373,21,-260,0,3264
RAW_IMU,168609213,-346,-3794,14969,-4787,5303,863,380,26,-252,0,3184
RAW_IMU,168630211,-438,-6219,14394,-4914,5150,936,382,18,-261,0,3136
RAW_IMU,168651213,-858,-7703,14660,-3942,5162,1056,380,24,-240,0,3136
RAW_IMU,168672214,-1269,-7696,14431,-2658,5368,1164,394,29,-255,0,3248
RAW_IMU,168693212,-2097,-7323,15016,-1456,5607,1269,409,41,-255,0,3184
RAW_IMU,168714210,-3372,-7683,15174,-619,5500,1302,401,29,-250,0,3136
RAW_IMU,168735211,-4307,-7599,15641,140,5130,1286,417,41,-223,0,3136
RAW_IMU,168756213,-4172,-5939,15461,399,4894,1160,412,29,-230,0,3296
RAW_IMU,168777216,-3955,-5675,15426,12,5159,944,426,20,-229,0,3232
RAW_IMU,168798210,-4190,-5692,15284,-350,5690,742,431,32,-212,0,3136
RAW_IMU,168819212,-4756,-5910,15335,-656,6067,703,448,24,-213,0,3120
RAW_IMU,168840213,-5204,-5969,14957,-991,6404,672,454,21,-203,0,3184
RAW_IMU,168861211,-5882,-5621,14085,-1269,6840,709,444,10,-202,0,3136
RAW_IMU,168882212,-7369,-6862,14824,-1477,6853,564,463,18,-185,0,3168
RAW_IMU,168903210,-7636,-5805,13526,-1336,6950,424,473,18,-185,0,3184
RAW_IMU,168924211,-8703,-6781,13842,-1108,6821,341,468,15,-170,0,3184
RAW_IMU,168945213,-8936,-7729,13353,-272,6438,270,481,18,-165,0,3248
RAW_IMU,168966210,-8926,-7903,12989,750,6112,131,490,26,-157,0,3232
RAW_IMU,168987213,-10026,-5690,12551,1029,5784,54,489,23,-153,0,3248
RAW_IMU,169008213,-10472,-5844,12875,311,5317,-119,487,26,-147,0,3184
RAW_IMU,169029210,-10210,-6241,12422,71,4957,109,502,15,-141,0,3168
RAW_IMU,169050212,-10082,-6053,12023,337,4645,179,502,20,-123,0,3200
RAW_IMU,169071210,-9981,-5820,11543,650,4405,146,510,20,-114,0,3184
RAW_IMU,169092210,-9987,-4559,11202,272,4213,301,504,18,-114,0,3120
RAW_IMU,169113212,-10390,-5069,10783,-455,4183,503,515,15,-114,0,3136
RAW_IMU,169134210,-10998,-6121,10768,-828,4234,612,515,8,-101,0,3168
RAW_IMU,169155211,-11453,-6347,10709,-517,4169,504,521,14,-98,0,3184
RAW_IMU,169176212,-11446,-5914,10290,-349,4179,379,516,19,-93,0,3248
RAW_IMU,169197212,-11673,-6086,9696,-255,4256,391,512,8,-87,0,3184
RAW_IMU,169218210,-11774,-5880,9457,-393,4182,449,523,13,-67,0,3232
RAW_IMU,169239211,-12260,-5790,9424,-571,4024,551,524,2,-56,0,3232
RAW_IMU,169260213,-12069,-5865,8999,-542,3939,591,517,8,-65,0,3232
RAW_IMU,169281213,-12095,-6189,8691,-525,4218,663,515,6,-60,0,3248
RAW_IMU,169302212,-12391,-6639,8153,-360,4576,793,520,18,-47,0,3200
RAW_IMU,169323210,-13208,-6475,8022,-196,4734,1023,515,6,-42,0,3136
RAW_IMU,169344211,-13727,-5988,7684,-160,4775,1160,520,-1,-35,0,3296
RAW_IMU,169365213,-13708,-5587,7351,-245,4979,1184,514,2,-24,0,3168
RAW_IMU,169386211,-14120,-5639,7060,-390,5397,1161,519,-2,-12,0,3168
RAW_IMU,169407213,-14629,-5899,6679,-355,5705,1105,514,2,0,0,3248
RAW_IMU,169428211,-14527,-5631,6273,-380,5910,1140,515,-1,1,0,3136
RAW_IMU,169449212,-14464,-5273,5865,-486,6139,1350,511,0,2,0,3248
RAW_IMU,169470210,-14855,-5423,5029,-510,6282,1512,512,6,15,0,3232
RAW_IMU,169491211,-14996,-5489,4374,-328,6345,1608,503,-12,12,0,3248
RAW_IMU,169512213,-15255,-5399,3826,-106,6194,1773,506,-12,44,0,3232
RAW_IMU,169533210,-15560,-5070,3341,-108,5894,1832,491,-13,50,0,3136
RAW_IMU,169554212,-15887,-5014,2773,-112,5594,1771,494,-20,57,0,3296
RAW_IMU,169575210,-16279,-4921,2076,-96,5257,1596,502,-18,55,0,3248
RAW_IMU,169596211,-16190,-4483,1819,-314,4867,1319,490,-14,73,0,3248
RAW_IMU,169617213,-15553,-4120,1467,-656,4525,1230,478,-23,65,0,3248
RAW_IMU,169638210,-15255,-4702,1327,-610,4230,1103,486,-20,77,0,3136
RAW_IMU,169659212,-15330,-4652,871,-239,4077,822,469,-33,88,0,3136
RAW_IMU,169680370,-15459,-3800,393,-269,4009,548,474,-29,100,0,3232
RAW_IMU,169701212,-15550,-4029,-5,-708,4043,439,476,-27,109,0,3248
RAW_IMU,169722210,-15712,-4648,-377,-1085,3922,387,467,-29,110,0,3136
RAW_IMU,169743212,-15694,-4410,-903,-1285,3845,267,465,-35,111,0,3200
RAW_IMU,169764213,-15768,-4047,-1204,-1472,3957,134,463,-32,118,0,3264
RAW_IMU,169785212,-15823,-4615,-1901,-1460,4128,255,443,-46,122,0,3296
RAW_IMU,169806212,-16179,-4693,-1942,-1062,4049,372,457,-44,126,0,3248
RAW_IMU,169827213,-16684,-4732,-1910,-457,3665,370,447,-37,133,0,3088
RAW_IMU,169848211,-16500,-5012,-2542,93,3186,225,443,-48,139,0,3296
RAW_IMU,169869213,-16294,-4536,-3223,549,2794,264,437,-52,148,0,3232
RAW_IMU,169890211,-16565,-3706,-3282,662,2235,353,439,-52,153,0,3184
RAW_IMU,169911213,-16009,-3199,-3213,-36,1874,357,444,-56,150,0,3232
RAW_IMU,169932211,-15740,-3788,-3584,-625,1696,430,438,-48,152,0,3136
RAW_IMU,169953213,-15617,-3499,-3593,-1226,1845,486,434,-56,153,0,3248
RAW_IMU,169974210,-15300,-3410,-3625,-1988,2339,550,420,-50,152,0,3184
RAW_IMU,169995213,-15007,-3852,-3733,-2786,2881,807,424,-64,160,0,3232
RAW_IMU,170016211,-14906,-3927,-4128,-3060,3447,979,420,-62,159,0,3200
RAW_IMU,170037213,-15548,-3719,-3589,-3000,3944,1032,417,-79,159,0,3200
RAW_IMU,170058210,-15263,-4100,-3930,-2702,4404,976,420,-84,169,0,3232
RAW_IMU,170079212,-15224,-4596,-4628,-1660,4788,990,403,-83,182,0,3168
RAW_IMU,170100211,-15166,-4569,-5152,-111,4727,1020,405,-81,172,0,3264
RAW_IMU,170121213,-15362,-3511,-5229,809,4283,1114,390,-88,172,0,3168
RAW_IMU,170142211,-15532,-3498,-6017,923,3743,1175,387,-88,175,0,3136
RAW_IMU,170163212,-15390,-2608,-6377,582,3313,1103,386,-89,183,0,3248
RAW_IMU,170184210,-14882,-2650,-6976,-76,3108,1222,388,-82,191,0,3232
RAW_IMU,170205213,-14838,-3414,-7192,47,2932,1312,370,-101,176,0,3136
RAW_IMU,170226210,-14443,-2245,-7023,197,2726,1351,370,-96,186,0,3232
RAW_IMU,170247212,-14510,-1922,-7421,-238,2741,1321,373,-96,196,0,3136
RAW_IMU,170268210,-14521,-2133,-7785,-579,2749,1253,374,-100,190,0,3200
RAW_IMU,170289213,-14383,-2781,-8175,-741,2661,1287,362,-94,193,0,3296
RAW_IMU,170310212,-13958,-3223,-8431,-293,2409,1385,362,-94,198,0,3136
RAW_IMU,170331210,-13954,-1973,-8508,-136,2094,1495,350,-93,202,0,3168
RAW_IMU,170352211,-13995,-1027,-8622,-550,1951,1260,356,-107,190,0,3120
RAW_IMU,170373213,-13804,-1417,-8888,-976,1927,940,344,-108,193,0,3184
RAW_IMU,170394213,-13696,-2115,-9512,-814,1916,756,347,-106,198,0,3136
RAW_IMU,170415211,-14061,-1974,-9421,-488,1708,608,354,-108,188,0,3232
RAW_IMU,170436213,-13961,-1035,-9186,-689,1403,342,348,-110,195,0,3168
RAW_IMU,170457210,-13568,-1292,-9021,-890,1236,41,348,-107,199,0,3184
RAW_IMU,170478212,-13299,-1886,-9440,-757,1217,-159,347,-106,198,0,3248
RAW_IMU,170499211,-13028,-1478,-9629,-548,1242,-178,335,-115,202,0,3200
RAW_IMU,170520213,-12897,-1344,-9233,-525,1184,-121,339,-121,191,0,3168
RAW_IMU,170541210,-12805,-1553,-9374,-391,1144,-55,348,-115,199,0,3136
RAW_IMU,170562212,-12972,-1497,-9456,-182,1156,-100,337,-115,207,0,3200
RAW_IMU,170583210,-13128,-1381,-9746,-110,1187,-196,340,-122,204,0,3248
RAW_IMU,170604212,-13294,-1519,-9782,-98,1071,-212,327,-122,197,0,3184
RAW_IMU,170625210,-13379,-1693,-9733,-42,793,-295,334,-118,196,0,3232
RAW_IMU,170646212,-13563,-1968,-9858,181,414,-442,340,-127,199,0,3136
RAW_IMU,170667213,-13715,-1968,-9756,476,-60,-644,337,-115,197,0,3184
RAW_IMU,170688211,-13797,-2113,-9747,692,-554,-918,332,-122,204,0,3232
RAW_IMU,170709213,-13983,-2217,-9929,894,-1049,-1207,339,-121,201,0,3248
RAW_IMU,170730211,-14214,-2231,-9759,1117,-1751,-1413,337,-119,204,0,3120
RAW_IMU,170751212,-14337,-2083,-9676,1303,-2522,-1509,345,-112,204,0,3120
RAW_IMU,170772210,-14504,-1980,-9601,1150,-3123,-1824,357,-106,206,0,3200
RAW_IMU,170793216,-14645,-2227,-9269,641,-3488,-2469,364,-102,199,0,3296
RAW_IMU,170814213,-15099,-2861,-8997,270,-3777,-3064,370,-108,196,0,3168
RAW_IMU,170835210,-15012,-3403,-8674,218,-4081,-3387,384,-102,204,0,3248
RAW_IMU,170856212,-15424,-3716,-8132,478,-4535,-3410,375,-99,191,0,3184
RAW_IMU,170877210,-15668,-4334,-7312,874,-5100,-3404,392,-95,202,0,3200
RAW_IMU,170898215,-15825,-4406,-6982,1360,-5692,-3430,399,-87,191,0,3232
RAW_IMU,170919212,-15213,-3492,-6630,1215,-6138,-3508,408,-85,182,0,3168
RAW_IMU,170940210,-15677,-4308,-5852,829,-6456,-3338,417,-72,191,0,3136
RAW_IMU,170961212,-15920,-5414,-5375,959,-6844,-3323,426,-71,168,0,3248
RAW_IMU,170982213,-15383,-5237,-4995,1515,-7199,-3297,433,-70,166,0,3200
RAW_IMU,171003211,-15291,-6425,-4743,1813,-7261,-3460,438,-60,159,0,3232
RAW_IMU,171024210,-15725,-6023,-4108,2064,-7329,-3309,464,-43,144,0,3232
RAW_IMU,171045211,-15801,-5663,-3047,1931,-7506,-3036,454,-33,142,0,3136
RAW_IMU,171066213,-15364,-6078,-2865,1331,-7534,-2851,467,-41,139,0,3232
RAW_IMU,171087211,-15193,-7205,-2239,1059,-7396,-2753,473,-23,126,0,3184
RAW_IMU,171108210,-14995,-7288,-1276,1084,-7201,-2363,468,-15,114,0,3232
RAW_IMU,171129211,-15210,-7663,-540,1424,-6939,-1866,484,-6,99,0,3200
RAW_IMU,171150213,-15069,-8344,213,1962,-6791,-1405,486,-15,94,0,3200
RAW_IMU,171171211,-15000,-7634,1038,2150,-6665,-1086,495,-7,88,0,3248
RAW_IMU,171192212,-14941,-8399,1491,2253,-6477,-704,495,9,80,0,3200
RAW_IMU,171213211,-14509,-7164,2259,2214,-6168,-12,514,12,66,0,3232
RAW_IMU,171234213,-14210,-7782,3205,1580,-6049,620,504,13,62,0,3200
