mavpackettype,time_usec,xacc,yacc,zacc,xgyro,ygyro,zgyro,xmag,ymag,zmag,abs_pressure,diff_pressure,pressure_alt,temperature,fields_updated,id
HIGHRES_IMU,141015355,0.115386962890625,0.564422607421875,9.923492431640625,-0.30517578125,1.0528564453125,-0.823974609375,0.169403076171875,0.146026611328125,-0.541778564453125,0.0,0.0,0.0,27.37371826171875,0,0
HIGHRES_IMU,141036360,0.10821533203125,0.5333251953125,9.90496826171875,-0.1983642578125,0.701904296875,-0.6256103515625,0.169403076171875,0.13580322265625,-0.53448486328125,0.0,0.0,0.0,27.421630859375,0,0
HIGHRES_IMU,141057357,0.1165771484375,0.508209228515625,9.961151123046875,-0.6561279296875,0.8087158203125,-0.640869140625,0.163543701171875,0.15478515625,-0.53009033203125,0.0,0.0,0.0,27.709197998046875,0,0
HIGHRES_IMU,141078355,0.1524658203125,0.566802978515625,9.918121337890625,0.1983642578125,0.7171630859375,-0.6103515625,0.17669677734375,0.146026611328125,-0.53155517578125,0.0,0.0,0.0,27.421630859375,0,0
HIGHRES_IMU,141099357,0.1470947265625,0.555450439453125,9.938446044921875,-0.396728515625,1.2359619140625,-0.7171630859375,0.15478515625,0.147491455078125,-0.53594970703125,0.0,0.0,0.0,27.61334228515625,0,0
HIGHRES_IMU,141120354,0.109405517578125,0.582366943359375,9.889404296875,-0.1220703125,0.8392333984375,-0.6866455078125,0.166473388671875,0.144561767578125,-0.53302001953125,0.0,0.0,0.0,27.5654296875,0,0
HIGHRES_IMU,141141357,0.12615966796875,0.5399169921875,9.897186279296875,-0.274658203125,0.9918212890625,-0.5340576171875,0.163543701171875,0.127044677734375,-0.554931640625,0.0,0.0,0.0,27.61334228515625,0,0
HIGHRES_IMU,141162376,0.094482421875,0.537506103515625,9.929473876953125,-0.18310546875,0.8392333984375,-0.5645751953125,0.17230224609375,0.13873291015625,-0.53155517578125,0.0,0.0,0.0,27.709197998046875,0,0
HIGHRES_IMU,141183357,0.104034423828125,0.539306640625,9.902557373046875,-0.1678466796875,0.885009765625,-0.7171630859375,0.166473388671875,0.147491455078125,-0.53009033203125,0.0,0.0,0.0,27.5654296875,0,0
HIGHRES_IMU,141204357,0.08251953125,0.56024169921875,9.9366455078125,-0.335693359375,0.6561279296875,-0.823974609375,0.169403076171875,0.131439208984375,-0.541778564453125,0.0,0.0,0.0,27.90087890625,0,0
HIGHRES_IMU,141225360,0.12554931640625,0.556060791015625,9.900787353515625,0.0152587890625,0.7476806640625,-0.8087158203125,0.17523193359375,0.13433837890625,-0.540313720703125,0.0,0.0,0.0,27.37371826171875,0,0
HIGHRES_IMU,141246358,0.10882568359375,0.55126953125,9.856536865234375,-0.3662109375,0.48828125,-0.6866455078125,0.163543701171875,0.13726806640625,-0.543243408203125,0.0,0.0,0.0,27.757110595703125,0,0
HIGHRES_IMU,141267368,0.101043701171875,0.559051513671875,9.9193115234375,-0.0457763671875,0.8087158203125,-0.762939453125,0.165008544921875,0.143096923828125,-0.52716064453125,0.0,0.0,0.0,27.421630859375,0,0
HIGHRES_IMU,141288357,0.15185546875,0.543487548828125,9.88641357421875,-0.2899169921875,0.732421875,-0.7781982421875,0.166473388671875,0.13433837890625,-0.525726318359375,0.0,0.0,0.0,27.5654296875,0,0
HIGHRES_IMU,141309356,0.15545654296875,0.535125732421875,9.92291259765625,-0.0457763671875,0.79345703125,-0.7781982421875,0.1591796875,0.13726806640625,-0.540313720703125,0.0,0.0,0.0,27.757110595703125,0,0
HIGHRES_IMU,141330360,0.1231689453125,0.54229736328125,9.921112060546875,-0.18310546875,0.762939453125,-0.732421875,0.15771484375,0.13580322265625,-0.53155517578125,0.0,0.0,0.0,27.517486572265625,0,0
HIGHRES_IMU,141351354,0.1578369140625,0.54290771484375,9.92529296875,-0.2593994140625,0.6103515625,-0.7781982421875,0.169403076171875,0.1533203125,-0.53155517578125,0.0,0.0,0.0,27.709197998046875,0,0
HIGHRES_IMU,141372367,0.135711669921875,0.520782470703125,9.8953857421875,-0.640869140625,0.9307861328125,-0.54931640625,0.165008544921875,0.13873291015625,-0.53155517578125,0.0,0.0,0.0,27.61334228515625,0,0
HIGHRES_IMU,141393354,0.14410400390625,0.5865478515625,9.9306640625,-0.0457763671875,0.6256103515625,-0.823974609375,0.17816162109375,0.127044677734375,-0.53594970703125,0.0,0.0,0.0,27.37371826171875,0,0
HIGHRES_IMU,141414355,0.11419677734375,0.575775146484375,9.909149169921875,-0.2899169921875,0.9002685546875,-0.6866455078125,0.15771484375,0.131439208984375,-0.52716064453125,0.0,0.0,0.0,27.709197998046875,0,0
HIGHRES_IMU,141435355,0.127349853515625,0.5345458984375,9.95819091796875,-0.274658203125,0.732421875,-0.701904296875,0.15478515625,0.129974365234375,-0.547607421875,0.0,0.0,0.0,27.517486572265625,0,0
HIGHRES_IMU,141456358,0.127349853515625,0.5919189453125,9.93963623046875,-0.0762939453125,0.885009765625,-0.732421875,0.163543701171875,0.14019775390625,-0.53302001953125,0.0,0.0,0.0,27.517486572265625,0,0
HIGHRES_IMU,141477358,0.138702392578125,0.53155517578125,9.907958984375,-0.244140625,0.91552734375,-0.6256103515625,0.1533203125,0.13580322265625,-0.53448486328125,0.0,0.0,0.0,27.61334228515625,0,0
HIGHRES_IMU,141498356,0.121978759765625,0.57757568359375,9.905548095703125,-0.244140625,0.7476806640625,-0.8544921875,0.166473388671875,0.129974365234375,-0.53009033203125,0.0,0.0,0.0,27.5654296875,0,0
HIGHRES_IMU,141519354,0.103424072265625,0.572784423828125,9.929473876953125,-0.18310546875,0.701904296875,-0.6561279296875,0.17816162109375,0.13726806640625,-0.525726318359375,0.0,0.0,0.0,27.517486572265625,0,0
HIGHRES_IMU,141540359,0.127349853515625,0.544708251953125,9.94024658203125,-0.1678466796875,0.9307861328125,-0.9002685546875,0.165008544921875,0.128509521484375,-0.52716064453125,0.0,0.0,0.0,27.3258056640625,0,0
HIGHRES_IMU,141561366,0.145904541015625,0.573394775390625,9.947418212890625,-0.1373291015625,0.8544921875,-0.6103515625,0.150421142578125,0.146026611328125,-0.53155517578125,0.0,0.0,0.0,27.61334228515625,0,0
HIGHRES_IMU,141582357,0.104644775390625,0.559051513671875,9.909759521484375,-0.335693359375,0.5340576171875,-0.6256103515625,0.1591796875,0.13726806640625,-0.53594970703125,0.0,0.0,0.0,27.5654296875,0,0
HIGHRES_IMU,141603356,0.163818359375,0.555450439453125,9.95697021484375,-0.0152587890625,0.7781982421875,-0.701904296875,0.163543701171875,0.13433837890625,-0.547607421875,0.0,0.0,0.0,27.61334228515625,0,0
HIGHRES_IMU,141624357,0.14886474609375,0.567413330078125,9.933074951171875,-0.274658203125,0.7781982421875,-0.67138671875,0.165008544921875,0.128509521484375,-0.53448486328125,0.0,0.0,0.0,27.421630859375,0,0
HIGHRES_IMU,141645355,0.1590576171875,0.584747314453125,9.936065673828125,-0.2288818359375,0.885009765625,-0.6561279296875,0.169403076171875,0.13580322265625,-0.52716064453125,0.0,0.0,0.0,27.709197998046875,0,0
HIGHRES_IMU,141666532,0.129150390625,0.56085205078125,9.95758056640625,-0.2288818359375,0.732421875,-0.6103515625,0.169403076171875,0.129974365234375,-0.53009033203125,0.0,0.0,0.0,27.5654296875,0,0
HIGHRES_IMU,141687354,0.11181640625,0.56561279296875,9.903167724609375,-0.3662109375,0.9002685546875,-0.640869140625,0.165008544921875,0.13873291015625,-0.538848876953125,0.0,0.0,0.0,27.5654296875,0,0
HIGHRES_IMU,141708357,0.12017822265625,0.5859375,9.918121337890625,-0.1373291015625,0.7781982421875,-0.67138671875,0.17523193359375,0.144561767578125,-0.53302001953125,0.0,0.0,0.0,27.5654296875,0,0
HIGHRES_IMU,141729358,0.142303466796875,0.508209228515625,9.933074951171875,-0.1678466796875,0.8544921875,-0.7781982421875,0.166473388671875,0.13726806640625,-0.53302001953125,0.0,0.0,0.0,27.37371826171875,0,0
HIGHRES_IMU,141750356,0.16082763671875,0.55126953125,9.911529541015625,-0.030517578125,0.79345703125,-0.640869140625,0.169403076171875,0.146026611328125,-0.538848876953125,0.0,0.0,0.0,27.61334228515625,0,0
HIGHRES_IMU,141771367,0.127349853515625,0.56622314453125,9.900177001953125,-0.335693359375,0.6256103515625,-0.579833984375,0.166473388671875,0.13726806640625,-0.543243408203125,0.0,0.0,0.0,27.517486572265625,0,0
HIGHRES_IMU,141792357,0.109405517578125,0.547088623046875,9.9193115234375,-0.2593994140625,0.885009765625,-0.579833984375,0.1591796875,0.144561767578125,-0.547607421875,0.0,0.0,0.0,27.61334228515625,0,0
HIGHRES_IMU,141813356,0.1524658203125,0.532135009765625,9.941436767578125,-0.3204345703125,0.9307861328125,-0.54931640625,0.151885986328125,0.147491455078125,-0.525726318359375,0.0,0.0,0.0,27.5654296875,0,0
HIGHRES_IMU,141834359,0.14410400390625,0.615234375,9.94500732421875,-0.335693359375,0.701904296875,-0.732421875,0.17230224609375,0.13580322265625,-0.53155517578125,0.0,0.0,0.0,27.37371826171875,0,0
HIGHRES_IMU,141855357,0.124969482421875,0.56024169921875,9.92529296875,-0.4119873046875,1.0528564453125,-0.7171630859375,0.166473388671875,0.129974365234375,-0.540313720703125,0.0,0.0,0.0,27.61334228515625,0,0
HIGHRES_IMU,141876362,0.134521484375,0.549468994140625,9.93365478515625,-0.1068115234375,0.946044921875,-0.8087158203125,0.17230224609375,0.148956298828125,-0.53155517578125,0.0,0.0,0.0,27.517486572265625,0,0
HIGHRES_IMU,141897356,0.112396240234375,0.573394775390625,9.926483154296875,-0.2899169921875,0.9613037109375,-0.5340576171875,0.15771484375,0.13873291015625,-0.541778564453125,0.0,0.0,0.0,27.757110595703125,0,0
HIGHRES_IMU,141918357,0.10284423828125,0.53033447265625,9.92828369140625,-0.48828125,0.8697509765625,-0.5645751953125,0.1591796875,0.144561767578125,-0.518402099609375,0.0,0.0,0.0,27.517486572265625,0,0
HIGHRES_IMU,141939358,0.12078857421875,0.5399169921875,9.891204833984375,-0.18310546875,0.79345703125,-0.7171630859375,0.170867919921875,0.129974365234375,-0.543243408203125,0.0,0.0,0.0,27.37371826171875,0,0
HIGHRES_IMU,141960364,0.12677001953125,0.5506591796875,9.885833740234375,-0.091552734375,0.8087158203125,-0.8697509765625,0.17669677734375,0.13873291015625,-0.538848876953125,0.0,0.0,0.0,27.709197998046875,0,0
HIGHRES_IMU,141981355,0.09686279296875,0.5638427734375,9.891204833984375,-0.18310546875,0.6561279296875,-0.640869140625,0.170867919921875,0.14019775390625,-0.547607421875,0.0,0.0,0.0,27.5654296875,0,0
HIGHRES_IMU,142002355,0.14349365234375,0.553070068359375,9.91632080078125,-0.244140625,0.8087158203125,-0.8392333984375,0.163543701171875,0.127044677734375,-0.543243408203125,0.0,0.0,0.0,27.5654296875,0,0
HIGHRES_IMU,142023356,0.182373046875,0.56622314453125,9.89837646484375,-0.2593994140625,0.762939453125,-0.8697509765625,0.163543701171875,0.144561767578125,-0.540313720703125,0.0,0.0,0.0,27.37371826171875,0,0
HIGHRES_IMU,142044359,0.113616943359375,0.550079345703125,9.926483154296875,-0.0152587890625,0.8392333984375,-0.7781982421875,0.170867919921875,0.129974365234375,-0.53594970703125,0.0,0.0,0.0,27.229949951171875,0,0
HIGHRES_IMU,142065365,0.075927734375,0.5626220703125,9.873260498046875,-0.2593994140625,0.732421875,-0.67138671875,0.188385009765625,0.146026611328125,-0.53155517578125,0.0,0.0,0.0,27.5654296875,0,0
HIGHRES_IMU,142086355,0.115997314453125,0.56085205078125,9.897186279296875,-0.1983642578125,0.579833984375,-0.6561279296875,0.170867919921875,0.13726806640625,-0.53009033203125,0.0,0.0,0.0,27.5654296875,0,0
HIGHRES_IMU,142107525,0.115997314453125,0.5745849609375,9.909149169921875,-0.30517578125,0.9307861328125,-0.79345703125,0.163543701171875,0.13433837890625,-0.53009033203125,0.0,0.0,0.0,27.61334228515625,0,0
HIGHRES_IMU,142128354,0.13214111328125,0.56024169921875,9.900787353515625,-0.18310546875,0.579833984375,-0.6561279296875,0.169403076171875,0.1533203125,-0.538848876953125,0.0,0.0,0.0,27.5654296875,0,0
HIGHRES_IMU,142149360,0.13214111328125,0.523773193359375,9.9605712890625,-0.2899169921875,0.5035400390625,-0.9613037109375,0.1591796875,0.13726806640625,-0.53594970703125,0.0,0.0,0.0,27.37371826171875,0,0
HIGHRES_IMU,142170367,0.105224609375,0.54827880859375,9.919921875,-0.0152587890625,0.7476806640625,-0.6256103515625,0.16064453125,0.1533203125,-0.53448486328125,0.0,0.0,0.0,27.709197998046875,0,0
HIGHRES_IMU,142191356,0.12615966796875,0.517791748046875,9.91693115234375,-0.274658203125,0.79345703125,-0.54931640625,0.169403076171875,0.131439208984375,-0.541778564453125,0.0,0.0,0.0,27.517486572265625,0,0
HIGHRES_IMU,142212356,0.15008544921875,0.53155517578125,9.8953857421875,-0.1678466796875,0.5035400390625,-0.640869140625,0.165008544921875,0.143096923828125,-0.541778564453125,0.0,0.0,0.0,27.61334228515625,0,0
HIGHRES_IMU,142233356,0.163818359375,0.557861328125,9.971923828125,-0.274658203125,0.9765625,-0.732421875,0.1591796875,0.14019775390625,-0.53302001953125,0.0,0.0,0.0,27.37371826171875,0,0
HIGHRES_IMU,142254355,0.138702392578125,0.5166015625,9.920501708984375,-0.1983642578125,0.7476806640625,-0.9002685546875,0.16064453125,0.13873291015625,-0.546142578125,0.0,0.0,0.0,27.517486572265625,0,0
HIGHRES_IMU,142275364,0.167999267578125,0.54229736328125,9.89300537109375,-0.1068115234375,0.9307861328125,-0.8392333984375,0.163543701171875,0.14019775390625,-0.540313720703125,0.0,0.0,0.0,27.61334228515625,0,0
HIGHRES_IMU,142296356,0.101043701171875,0.563232421875,9.9013671875,-0.3814697265625,0.7781982421875,-0.6561279296875,0.1591796875,0.1226806640625,-0.53302001953125,0.0,0.0,0.0,27.61334228515625,0,0
HIGHRES_IMU,142317357,0.110015869140625,0.56561279296875,9.9073486328125,-0.18310546875,0.7781982421875,-0.7476806640625,0.166473388671875,0.14019775390625,-0.53302001953125,0.0,0.0,0.0,27.61334228515625,0,0
HIGHRES_IMU,142338358,0.14349365234375,0.544097900390625,9.89239501953125,-0.18310546875,0.67138671875,-0.701904296875,0.15771484375,0.13580322265625,-0.519866943359375,0.0,0.0,0.0,27.421630859375,0,0
HIGHRES_IMU,142359354,0.121978759765625,0.561431884765625,9.91033935546875,-0.42724609375,0.8544921875,-0.6561279296875,0.166473388671875,0.14019775390625,-0.540313720703125,0.0,0.0,0.0,27.517486572265625,0,0
HIGHRES_IMU,142380357,0.136932373046875,0.546478271484375,9.90435791015625,-0.1678466796875,0.762939453125,-0.5950927734375,0.17669677734375,0.13873291015625,-0.538848876953125,0.0,0.0,0.0,27.517486572265625,0,0
HIGHRES_IMU,142401356,0.1405029296875,0.5692138671875,9.86309814453125,-0.1220703125,0.9918212890625,-0.6256103515625,0.15771484375,0.124114990234375,-0.53448486328125,0.0,0.0,0.0,27.5654296875,0,0
HIGHRES_IMU,142422357,0.1004638671875,0.55963134765625,9.91033935546875,-0.3204345703125,0.8544921875,-0.67138671875,0.1533203125,0.13580322265625,-0.53155517578125,0.0,0.0,0.0,27.5654296875,0,0
HIGHRES_IMU,142443357,0.17340087890625,0.5452880859375,9.931854248046875,-0.244140625,0.732421875,-0.67138671875,0.15478515625,0.151885986328125,-0.525726318359375,0.0,0.0,0.0,27.37371826171875,0,0
HIGHRES_IMU,142464366,0.12255859375,0.58416748046875,9.936065673828125,-0.3509521484375,0.8544921875,-0.701904296875,0.17523193359375,0.13433837890625,-0.525726318359375,0.0,0.0,0.0,27.37371826171875,0,0
HIGHRES_IMU,142485356,0.0885009765625,0.538726806640625,9.89599609375,-0.213623046875,0.732421875,-0.9002685546875,0.17962646484375,0.13873291015625,-0.52716064453125,0.0,0.0,0.0,27.5654296875,0,0
HIGHRES_IMU,142506356,0.086700439453125,0.518402099609375,9.953399658203125,-0.3509521484375,0.8392333984375,-0.579833984375,0.16064453125,0.131439208984375,-0.53155517578125,0.0,0.0,0.0,27.421630859375,0,0
HIGHRES_IMU,142527355,0.115997314453125,0.529144287109375,9.870269775390625,-0.2899169921875,0.8087158203125,-0.5035400390625,0.163543701171875,0.14019775390625,-0.53009033203125,0.0,0.0,0.0,27.61334228515625,0,0
HIGHRES_IMU,142548357,0.1112060546875,0.564422607421875,9.870269775390625,-0.2288818359375,0.9613037109375,-0.7476806640625,0.1533203125,0.13873291015625,-0.538848876953125,0.0,0.0,0.0,27.517486572265625,0,0
HIGHRES_IMU,142569365,0.160247802734375,0.5638427734375,9.8900146484375,-0.152587890625,0.6103515625,-0.701904296875,0.15771484375,0.131439208984375,-0.541778564453125,0.0,0.0,0.0,27.61334228515625,0,0
HIGHRES_IMU,142590358,0.098052978515625,0.511199951171875,9.914520263671875,-0.2288818359375,0.6866455078125,-0.6103515625,0.16064453125,0.13873291015625,-0.538848876953125,0.0,0.0,0.0,27.61334228515625,0,0
HIGHRES_IMU,142611356,0.12677001953125,0.564422607421875,9.924102783203125,-0.1678466796875,0.67138671875,-0.7171630859375,0.182525634765625,0.13433837890625,-0.543243408203125,0.0,0.0,0.0,27.5654296875,0,0
HIGHRES_IMU,142632358,0.103424072265625,0.5626220703125,9.931854248046875,-0.1068115234375,0.9613037109375,-0.67138671875,0.1591796875,0.15478515625,-0.518402099609375,0.0,0.0,0.0,27.37371826171875,0,0
HIGHRES_IMU,142653358,0.11480712890625,0.5626220703125,9.937255859375,-0.1678466796875,0.8392333984375,-0.6103515625,0.182525634765625,0.14019775390625,-0.53594970703125,0.0,0.0,0.0,27.229949951171875,0,0
HIGHRES_IMU,142674366,0.133331298828125,0.511810302734375,9.9019775390625,-0.2899169921875,1.0528564453125,-0.6256103515625,0.165008544921875,0.143096923828125,-0.538848876953125,0.0,0.0,0.0,27.5654296875,0,0
HIGHRES_IMU,142695354,0.172210693359375,0.553070068359375,9.9073486328125,-0.091552734375,0.8697509765625,-0.7781982421875,0.163543701171875,0.14019775390625,-0.5111083984375,0.0,0.0,0.0,27.5654296875,0,0
HIGHRES_IMU,142716354,0.115997314453125,0.56622314453125,9.929473876953125,-0.274658203125,0.9002685546875,-0.6561279296875,0.17230224609375,0.131439208984375,-0.53155517578125,0.0,0.0,0.0,27.709197998046875,0,0
HIGHRES_IMU,142737355,0.098052978515625,0.5985107421875,9.961761474609375,-0.2899169921875,1.068115234375,-0.732421875,0.183990478515625,0.148956298828125,-0.541778564453125,0.0,0.0,0.0,27.517486572265625,0,0
HIGHRES_IMU,142758357,0.17578125,0.541107177734375,9.891815185546875,-0.1678466796875,0.79345703125,-0.640869140625,0.16064453125,0.148956298828125,-0.549072265625,0.0,0.0,0.0,27.37371826171875,0,0
HIGHRES_IMU,142779357,0.153076171875,0.510009765625,9.94500732421875,-0.3662109375,0.946044921875,-0.8087158203125,0.183990478515625,0.143096923828125,-0.53155517578125,0.0,0.0,0.0,27.61334228515625,0,0
HIGHRES_IMU,142800355,0.12078857421875,0.547088623046875,9.879852294921875,-0.701904296875,0.54931640625,-0.5035400390625,0.163543701171875,0.15478515625,-0.5155029296875,0.0,0.0,0.0,27.5654296875,0,0
HIGHRES_IMU,142821354,0.101654052734375,0.57757568359375,9.920501708984375,-0.2899169921875,1.007080078125,-0.579833984375,0.17816162109375,0.129974365234375,-0.53594970703125,0.0,0.0,0.0,27.61334228515625,0,0
HIGHRES_IMU,142842358,0.08489990234375,0.59014892578125,9.856536865234375,-0.152587890625,0.7781982421875,-0.579833984375,0.17523193359375,0.14019775390625,-0.53302001953125,0.0,0.0,0.0,27.229949951171875,0,0
HIGHRES_IMU,142863368,0.2164306640625,0.553070068359375,9.997039794921875,-0.1678466796875,1.0986328125,-0.42724609375,0.166473388671875,0.13433837890625,-0.522796630859375,0.0,0.0,0.0,27.517486572265625,0,0
HIGHRES_IMU,142884357,0.1937255859375,0.591339111328125,9.850555419921875,-0.2593994140625,0.79345703125,-0.7171630859375,0.163543701171875,0.144561767578125,-0.547607421875,0.0,0.0,0.0,27.5654296875,0,0
HIGHRES_IMU,142905355,0.15545654296875,0.496856689453125,9.973724365234375,-0.2288818359375,0.6866455078125,-0.9765625,0.17230224609375,0.13580322265625,-0.538848876953125,0.0,0.0,0.0,27.709197998046875,0,0
HIGHRES_IMU,142926356,0.062774658203125,0.591339111328125,9.88641357421875,-0.30517578125,0.701904296875,-0.6866455078125,0.17230224609375,0.13580322265625,-0.53448486328125,0.0,0.0,0.0,27.61334228515625,0,0
HIGHRES_IMU,142947356,0.1165771484375,0.5333251953125,9.919921875,-0.1068115234375,0.6561279296875,-0.8087158203125,0.1591796875,0.13433837890625,-0.543243408203125,0.0,0.0,0.0,27.37371826171875,0,0
HIGHRES_IMU,142968368,0.115997314453125,0.570404052734375,9.9246826171875,-0.213623046875,0.8544921875,-0.5035400390625,0.17230224609375,0.13873291015625,-0.541778564453125,0.0,0.0,0.0,27.517486572265625,0,0
HIGHRES_IMU,142989354,0.179962158203125,0.5745849609375,9.909759521484375,-0.1220703125,1.0223388671875,-0.7476806640625,0.17962646484375,0.13873291015625,-0.553466796875,0.0,0.0,0.0,27.517486572265625,0,0
HIGHRES_IMU,143010354,0.15185546875,0.56622314453125,9.9432373046875,-0.1220703125,0.946044921875,-0.8087158203125,0.15478515625,0.14019775390625,-0.550537109375,0.0,0.0,0.0,27.5654296875,0,0
HIGHRES_IMU,143031357,0.150665283203125,0.541107177734375,9.8953857421875,-0.18310546875,0.885009765625,-0.6561279296875,0.16064453125,0.128509521484375,-0.524261474609375,0.0,0.0,0.0,27.709197998046875,0,0
HIGHRES_IMU,143052356,0.0872802734375,0.550079345703125,9.89361572265625,-0.1373291015625,0.823974609375,-0.4119873046875,0.166473388671875,0.14019775390625,-0.525726318359375,0.0,0.0,0.0,27.3258056640625,0,0
HIGHRES_IMU,143073357,0.14410400390625,0.552459716796875,9.91094970703125,-0.18310546875,0.8544921875,-0.54931640625,0.169403076171875,0.128509521484375,-0.53448486328125,0.0,0.0,0.0,27.61334228515625,0,0
HIGHRES_IMU,143094356,0.121368408203125,0.547698974609375,9.9366455078125,-0.335693359375,0.79345703125,-0.7171630859375,0.170867919921875,0.13726806640625,-0.53009033203125,0.0,0.0,0.0,27.709197998046875,0,0
HIGHRES_IMU,143115355,0.1297607421875,0.5345458984375,9.920501708984375,-0.0762939453125,0.91552734375,-0.7171630859375,0.1591796875,0.13726806640625,-0.543243408203125,0.0,0.0,0.0,27.5654296875,0,0
HIGHRES_IMU,143136356,0.10821533203125,0.564422607421875,9.921112060546875,-0.18310546875,0.8392333984375,-0.6561279296875,0.169403076171875,0.13580322265625,-0.541778564453125,0.0,0.0,0.0,27.61334228515625,0,0
HIGHRES_IMU,143157395,0.135711669921875,0.53033447265625,9.932464599609375,-0.274658203125,0.732421875,-0.7781982421875,0.165008544921875,0.143096923828125,-0.538848876953125,0.0,0.0,0.0,27.421630859375,0,0
HIGHRES_IMU,143178356,0.1524658203125,0.54827880859375,9.929473876953125,-0.4425048828125,0.9307861328125,-0.79345703125,0.17523193359375,0.13726806640625,-0.547607421875,0.0,0.0,0.0,27.61334228515625,0,0
HIGHRES_IMU,143199355,0.14111328125,0.529144287109375,9.919921875,-0.3509521484375,0.823974609375,-0.54931640625,0.170867919921875,0.13433837890625,-0.540313720703125,0.0,0.0,0.0,27.517486572265625,0,0
HIGHRES_IMU,143220358,0.12078857421875,0.550079345703125,9.90496826171875,-0.3814697265625,0.946044921875,-0.8392333984375,0.17230224609375,0.1212158203125,-0.538848876953125,0.0,0.0,0.0,27.61334228515625,0,0
HIGHRES_IMU,143241358,0.103424072265625,0.532745361328125,9.94500732421875,-0.42724609375,0.6866455078125,-0.79345703125,0.17523193359375,0.13433837890625,-0.543243408203125,0.0,0.0,0.0,27.421630859375,0,0
HIGHRES_IMU,143262369,0.09149169921875,0.544097900390625,9.905548095703125,-0.091552734375,0.7781982421875,-0.8087158203125,0.163543701171875,0.147491455078125,-0.53594970703125,0.0,0.0,0.0,27.229949951171875,0,0
HIGHRES_IMU,143283356,0.153076171875,0.508209228515625,9.97552490234375,-0.335693359375,0.9002685546875,-0.732421875,0.15478515625,0.144561767578125,-0.53302001953125,0.0,0.0,0.0,27.5654296875,0,0
HIGHRES_IMU,143304355,0.139312744140625,0.510009765625,9.8834228515625,-0.274658203125,0.9613037109375,-0.5340576171875,0.151885986328125,0.13726806640625,-0.543243408203125,0.0,0.0,0.0,27.517486572265625,0,0
HIGHRES_IMU,143325355,0.142913818359375,0.570404052734375,9.905548095703125,-0.3662109375,1.007080078125,-0.7781982421875,0.170867919921875,0.13726806640625,-0.53009033203125,0.0,0.0,0.0,27.517486572265625,0,0
HIGHRES_IMU,143346358,0.104644775390625,0.6044921875,9.942626953125,-0.0762939453125,0.823974609375,-0.7171630859375,0.17816162109375,0.14019775390625,-0.547607421875,0.0,0.0,0.0,27.61334228515625,0,0
HIGHRES_IMU,143367370,0.130340576171875,0.5518798828125,9.9366455078125,-0.3662109375,0.946044921875,-0.5035400390625,0.17230224609375,0.131439208984375,-0.52716064453125,0.0,0.0,0.0,27.37371826171875,0,0
HIGHRES_IMU,143388356,0.10223388671875,0.51898193359375,9.950408935546875,0.030517578125,0.732421875,-0.7171630859375,0.17816162109375,0.14019775390625,-0.53302001953125,0.0,0.0,0.0,27.757110595703125,0,0
HIGHRES_IMU,143409355,0.139923095703125,0.559051513671875,9.92529296875,-0.6866455078125,0.640869140625,-0.5340576171875,0.1591796875,0.13726806640625,-0.53302001953125,0.0,0.0,0.0,27.421630859375,0,0
HIGHRES_IMU,143430356,0.14410400390625,0.57159423828125,9.9659423828125,-0.18310546875,0.6866455078125,-0.9002685546875,0.151885986328125,0.13433837890625,-0.540313720703125,0.0,0.0,0.0,27.5654296875,0,0
HIGHRES_IMU,143451358,0.06097412109375,0.57159423828125,9.858917236328125,-0.5035400390625,0.42724609375,-0.885009765625,0.163543701171875,0.14019775390625,-0.53594970703125,0.0,0.0,0.0,27.37371826171875,0,0
HIGHRES_IMU,143472370,0.154266357421875,0.579376220703125,9.95220947265625,-0.213623046875,0.885009765625,-0.7171630859375,0.169403076171875,0.124114990234375,-0.53155517578125,0.0,0.0,0.0,27.61334228515625,0,0
HIGHRES_IMU,143493356,0.148284912109375,0.541717529296875,9.88702392578125,-0.42724609375,1.03759765625,-0.6866455078125,0.169403076171875,0.1533203125,-0.541778564453125,0.0,0.0,0.0,27.61334228515625,0,0
HIGHRES_IMU,143514354,0.187744140625,0.538726806640625,9.9605712890625,-0.1220703125,0.7171630859375,-0.8392333984375,0.165008544921875,0.13580322265625,-0.538848876953125,0.0,0.0,0.0,27.5654296875,0,0
HIGHRES_IMU,143535355,0.15008544921875,0.57818603515625,9.879241943359375,-0.274658203125,0.8697509765625,-0.5035400390625,0.165008544921875,0.131439208984375,-0.53448486328125,0.0,0.0,0.0,27.709197998046875,0,0
HIGHRES_IMU,143556355,0.133331298828125,0.60150146484375,9.941436767578125,-0.3204345703125,0.732421875,-0.9613037109375,0.166473388671875,0.1197509765625,-0.53594970703125,0.0,0.0,0.0,27.37371826171875,0,0
HIGHRES_IMU,143577357,0.1112060546875,0.55426025390625,9.9073486328125,-0.3662109375,0.7476806640625,-0.5340576171875,0.17523193359375,0.15478515625,-0.53594970703125,0.0,0.0,0.0,27.709197998046875,0,0
HIGHRES_IMU,143598356,0.1578369140625,0.58355712890625,9.89361572265625,-0.2593994140625,1.0223388671875,-0.885009765625,0.1591796875,0.147491455078125,-0.540313720703125,0.0,0.0,0.0,27.37371826171875,0,0
HIGHRES_IMU,143619355,0.130340576171875,0.538116455078125,9.90435791015625,-0.42724609375,0.946044921875,-0.5645751953125,0.15478515625,0.13433837890625,-0.53594970703125,0.0,0.0,0.0,27.517486572265625,0,0
HIGHRES_IMU,143640358,0.12255859375,0.528564453125,9.907958984375,0.0152587890625,0.79345703125,-0.885009765625,0.150421142578125,0.13873291015625,-0.52716064453125,0.0,0.0,0.0,27.517486572265625,0,0
HIGHRES_IMU,143661364,0.105224609375,0.53033447265625,9.88702392578125,-0.6256103515625,0.8544921875,-0.6103515625,0.169403076171875,0.13873291015625,-0.541778564453125,0.0,0.0,0.0,27.3258056640625,0,0
HIGHRES_IMU,143682354,0.163238525390625,0.54827880859375,9.891204833984375,0.0762939453125,0.8544921875,-0.8392333984375,0.170867919921875,0.127044677734375,-0.53009033203125,0.0,0.0,0.0,27.5654296875,0,0
HIGHRES_IMU,143703357,0.115386962890625,0.541107177734375,9.928863525390625,-0.3662109375,0.885009765625,-0.518798828125,0.17816162109375,0.15478515625,-0.518402099609375,0.0,0.0,0.0,27.37371826171875,0,0
HIGHRES_IMU,143724355,0.16741943359375,0.57757568359375,9.919921875,-0.0152587890625,0.946044921875,-0.732421875,0.169403076171875,0.148956298828125,-0.52716064453125,0.0,0.0,0.0,27.5654296875,0,0
HIGHRES_IMU,143745356,0.06695556640625,0.556060791015625,9.920501708984375,-0.3662109375,0.9307861328125,-0.67138671875,0.15771484375,0.143096923828125,-0.53448486328125,0.0,0.0,0.0,27.61334228515625,0,0
HIGHRES_IMU,143766366,0.10284423828125,0.52435302734375,9.880462646484375,-0.06103515625,0.762939453125,-0.701904296875,0.170867919921875,0.13726806640625,-0.540313720703125,0.0,0.0,0.0,27.37371826171875,0,0
HIGHRES_IMU,143787354,0.0992431640625,0.529144287109375,9.911529541015625,-0.518798828125,0.732421875,-0.6103515625,0.169403076171875,0.143096923828125,-0.53155517578125,0.0,0.0,0.0,27.5654296875,0,0
HIGHRES_IMU,143808357,0.127349853515625,0.535736083984375,9.932464599609375,-0.2899169921875,0.823974609375,-0.9307861328125,0.1591796875,0.13433837890625,-0.547607421875,0.0,0.0,0.0,27.517486572265625,0,0
HIGHRES_IMU,143829358,0.132720947265625,0.59552001953125,9.900787353515625,-0.3204345703125,0.9307861328125,-0.579833984375,0.170867919921875,0.129974365234375,-0.53009033203125,0.0,0.0,0.0,27.61334228515625,0,0
HIGHRES_IMU,143850358,0.12017822265625,0.5458984375,9.917510986328125,-0.0762939453125,0.8697509765625,-0.5035400390625,0.1591796875,0.147491455078125,-0.53594970703125,0.0,0.0,0.0,27.517486572265625,0,0
HIGHRES_IMU,143871365,0.129150390625,0.550079345703125,9.90435791015625,-0.4730224609375,0.7476806640625,-0.6866455078125,0.15771484375,0.131439208984375,-0.541778564453125,0.0,0.0,0.0,27.182037353515625,0,0
HIGHRES_IMU,143892357,0.142303466796875,0.54888916015625,9.91094970703125,-0.2288818359375,0.7171630859375,-0.7781982421875,0.163543701171875,0.14019775390625,-0.53302001953125,0.0,0.0,0.0,27.517486572265625,0,0
HIGHRES_IMU,143913356,0.17041015625,0.58355712890625,9.900177001953125,-0.2288818359375,0.91552734375,-0.732421875,0.17523193359375,0.13726806640625,-0.540313720703125,0.0,0.0,0.0,27.85296630859375,0,0
HIGHRES_IMU,143934356,0.160247802734375,0.526153564453125,9.9539794921875,-0.1678466796875,0.8544921875,-0.8392333984375,0.165008544921875,0.131439208984375,-0.52716064453125,0.0,0.0,0.0,27.5654296875,0,0
HIGHRES_IMU,143955356,0.11181640625,0.55963134765625,9.836212158203125,-0.1983642578125,0.8392333984375,-0.823974609375,0.16064453125,0.13873291015625,-0.519866943359375,0.0,0.0,0.0,27.5654296875,0,0
HIGHRES_IMU,143976357,0.05621337890625,0.58416748046875,10.094512939453125,-0.701904296875,1.2359619140625,-0.2593994140625,0.166473388671875,0.13580322265625,-0.549072265625,0.0,0.0,0.0,27.37371826171875,0,0
HIGHRES_IMU,143997356,0.17938232421875,0.535125732421875,9.67059326171875,1.0528564453125,-0.3509521484375,-1.3885498046875,0.146026611328125,0.146026611328125,-0.538848876953125,0.0,0.0,0.0,27.61334228515625,0,0
HIGHRES_IMU,144018357,0.12017822265625,0.509429931640625,10.055633544921875,-1.9683837890625,1.77001953125,0.091552734375,0.170867919921875,0.13726806640625,-0.540313720703125,0.0,0.0,0.0,27.61334228515625,0,0
HIGHRES_IMU,144039357,0.11956787109375,0.645751953125,9.85113525390625,1.0986328125,1.0223388671875,-1.0223388671875,0.165008544921875,0.13873291015625,-0.538848876953125,0.0,0.0,0.0,27.61334228515625,0,0
HIGHRES_IMU,144060365,0.14886474609375,0.535125732421875,9.85113525390625,-0.3814697265625,1.2054443359375,-0.732421875,0.16064453125,0.1212158203125,-0.538848876953125,0.0,0.0,0.0,27.3258056640625,0,0
HIGHRES_IMU,144081355,0.2469482421875,0.414947509765625,10.081939697265625,-0.335693359375,0.2288818359375,-1.03759765625,0.17962646484375,0.148956298828125,-0.53448486328125,0.0,0.0,0.0,27.61334228515625,0,0
HIGHRES_IMU,144102356,0.109405517578125,0.77069091796875,9.849365234375,-0.8087158203125,1.6326904296875,-0.30517578125,0.169403076171875,0.13580322265625,-0.52716064453125,0.0,0.0,0.0,27.37371826171875,0,0
HIGHRES_IMU,144123355,0.18536376953125,0.352752685546875,9.953399658203125,0.18310546875,0.213623046875,-1.2054443359375,0.147491455078125,0.129974365234375,-0.550537109375,0.0,0.0,0.0,27.61334228515625,0,0
HIGHRES_IMU,144144357,0.189544677734375,0.56622314453125,9.845184326171875,0.0152587890625,0.3814697265625,-0.7476806640625,0.169403076171875,0.13580322265625,-0.541778564453125,0.0,0.0,0.0,27.85296630859375,0,0
HIGHRES_IMU,144165367,0.035888671875,0.508209228515625,10.11602783203125,-1.739501953125,1.312255859375,-0.18310546875,0.16064453125,0.143096923828125,-0.53448486328125,0.0,0.0,0.0,27.37371826171875,0,0
HIGHRES_IMU,144186357,0.080108642578125,0.53155517578125,9.741729736328125,0.5950927734375,0.3814697265625,-1.312255859375,0.170867919921875,0.14019775390625,-0.53302001953125,0.0,0.0,0.0,27.517486572265625,0,0
HIGHRES_IMU,144207356,0.13751220703125,0.51898193359375,10.0185546875,-0.885009765625,0.7171630859375,-0.2288818359375,0.1533203125,0.13580322265625,-0.538848876953125,0.0,0.0,0.0,27.5654296875,0,0
HIGHRES_IMU,144228525,0.203277587890625,0.543487548828125,9.873870849609375,0.3662109375,0.5645751953125,-0.91552734375,0.17816162109375,0.13726806640625,-0.53302001953125,0.0,0.0,0.0,27.517486572265625,0,0
HIGHRES_IMU,144249355,0.160247802734375,0.5865478515625,9.94024658203125,-1.0528564453125,0.6256103515625,-0.518798828125,0.15771484375,0.131439208984375,-0.546142578125,0.0,0.0,0.0,27.517486572265625,0,0
HIGHRES_IMU,144270369,0.113006591796875,0.43768310546875,9.928863525390625,0.9002685546875,0.3204345703125,-1.1444091796875,0.17523193359375,0.13726806640625,-0.540313720703125,0.0,0.0,0.0,27.517486572265625,0,0
HIGHRES_IMU,144291356,0.04425048828125,0.68939208984375,9.870880126953125,-0.8087158203125,1.2359619140625,-0.2288818359375,0.1591796875,0.147491455078125,-0.53594970703125,0.0,0.0,0.0,27.517486572265625,0,0
HIGHRES_IMU,144312356,0.260101318359375,0.386260986328125,10.019775390625,0.1373291015625,0.5645751953125,-0.9918212890625,0.17523193359375,0.147491455078125,-0.53302001953125,0.0,0.0,0.0,27.421630859375,0,0
HIGHRES_IMU,144333354,0.17279052734375,0.682220458984375,9.82781982421875,-0.0762939453125,0.457763671875,-0.640869140625,0.169403076171875,0.128509521484375,-0.52716064453125,0.0,0.0,0.0,27.5654296875,0,0
HIGHRES_IMU,144354356,0.13751220703125,0.39642333984375,10.01080322265625,-0.5645751953125,0.9307861328125,-0.579833984375,0.166473388671875,0.147491455078125,-0.540313720703125,0.0,0.0,0.0,27.517486572265625,0,0
HIGHRES_IMU,144375355,0.084320068359375,0.7623291015625,9.820648193359375,0.274658203125,1.0528564453125,-0.9002685546875,0.166473388671875,0.13726806640625,-0.53009033203125,0.0,0.0,0.0,27.182037353515625,0,0
HIGHRES_IMU,144396357,0.169219970703125,0.45501708984375,10.040679931640625,-0.6866455078125,0.79345703125,-0.7171630859375,0.15771484375,0.13873291015625,-0.546142578125,0.0,0.0,0.0,27.5654296875,0,0
HIGHRES_IMU,144417356,0.129150390625,0.628387451171875,9.81646728515625,0.5645751953125,0.732421875,-1.03759765625,0.169403076171875,0.1212158203125,-0.541778564453125,0.0,0.0,0.0,27.709197998046875,0,0
HIGHRES_IMU,144438357,0.121978759765625,0.451416015625,9.97491455078125,-1.15966796875,1.1138916015625,-0.457763671875,0.170867919921875,0.13433837890625,-0.543243408203125,0.0,0.0,0.0,27.5654296875,0,0
HIGHRES_IMU,144459396,0.104034423828125,0.570404052734375,9.89599609375,0.732421875,0.6866455078125,-1.03759765625,0.15771484375,0.131439208984375,-0.52716064453125,0.0,0.0,0.0,27.61334228515625,0,0
HIGHRES_IMU,144480355,0.041839599609375,0.5751953125,9.90435791015625,-1.1749267578125,1.3275146484375,-0.18310546875,0.17816162109375,0.13726806640625,-0.53009033203125,0.0,0.0,0.0,27.182037353515625,0,0
HIGHRES_IMU,144501358,0.1297607421875,0.543487548828125,9.956390380859375,0.48828125,0.640869140625,-0.91552734375,0.163543701171875,0.14019775390625,-0.53302001953125,0.0,0.0,0.0,27.517486572265625,0,0
HIGHRES_IMU,144522357,0.107635498046875,0.570404052734375,9.844573974609375,-0.5950927734375,0.8087158203125,-0.6866455078125,0.16064453125,0.131439208984375,-0.538848876953125,0.0,0.0,0.0,27.517486572265625,0,0
HIGHRES_IMU,144543358,0.09747314453125,0.429290771484375,9.882232666015625,0.54931640625,0.67138671875,-0.6103515625,0.16064453125,0.13580322265625,-0.549072265625,0.0,0.0,0.0,27.421630859375,0,0
HIGHRES_IMU,144564403,0.046630859375,0.6864013671875,9.812896728515625,-0.152587890625,1.495361328125,-0.3814697265625,0.1591796875,0.127044677734375,-0.53594970703125,0.0,0.0,0.0,27.5654296875,0,0
HIGHRES_IMU,144585358,0.167999267578125,0.469970703125,9.95758056640625,0.335693359375,1.6326904296875,-0.6866455078125,0.17669677734375,0.146026611328125,-0.541778564453125,0.0,0.0,0.0,27.517486572265625,0,0
HIGHRES_IMU,144606356,0.204498291015625,0.52435302734375,9.919921875,0.1983642578125,0.244140625,-0.885009765625,0.163543701171875,0.151885986328125,-0.540313720703125,0.0,0.0,0.0,27.5654296875,0,0
HIGHRES_IMU,144627354,0.18536376953125,0.53631591796875,9.882232666015625,-0.9613037109375,0.4425048828125,-0.6103515625,0.17669677734375,0.13873291015625,-0.53448486328125,0.0,0.0,0.0,27.709197998046875,0,0
HIGHRES_IMU,144648355,0.030487060546875,0.656494140625,9.90496826171875,-0.3662109375,1.3275146484375,-0.5340576171875,0.17523193359375,0.14019775390625,-0.53302001953125,0.0,0.0,0.0,27.5654296875,0,0
HIGHRES_IMU,144669368,0.101043701171875,0.553070068359375,9.90496826171875,0.457763671875,1.03759765625,-0.91552734375,0.17230224609375,0.13873291015625,-0.541778564453125,0.0,0.0,0.0,27.37371826171875,0,0
HIGHRES_IMU,144690357,0.269073486328125,0.629608154296875,10.050262451171875,-0.457763671875,0.823974609375,-0.457763671875,0.17523193359375,0.13726806640625,-0.53009033203125,0.0,0.0,0.0,27.61334228515625,0,0
HIGHRES_IMU,144711356,0.329437255859375,0.541717529296875,10.020965576171875,-0.823974609375,0.6256103515625,-0.5340576171875,0.169403076171875,0.146026611328125,-0.53155517578125,0.0,0.0,0.0,27.421630859375,0,0
HIGHRES_IMU,144732357,0.063385009765625,0.514801025390625,9.912139892578125,-0.213623046875,0.4730224609375,-0.885009765625,0.169403076171875,0.143096923828125,-0.541778564453125,0.0,0.0,0.0,27.517486572265625,0,0
HIGHRES_IMU,144753357,-0.083709716796875,0.51300048828125,9.92529296875,0.4119873046875,0.640869140625,-0.79345703125,0.166473388671875,0.151885986328125,-0.547607421875,0.0,0.0,0.0,27.757110595703125,0,0
HIGHRES_IMU,144774357,0.64276123046875,0.573394775390625,10.0897216796875,-1.28173828125,0.3204345703125,-0.4425048828125,0.151885986328125,0.13726806640625,-0.53302001953125,0.0,0.0,0.0,27.37371826171875,0,0
HIGHRES_IMU,144795355,0.23797607421875,0.599700927734375,10.137542724609375,-0.4730224609375,-1.1444091796875,-1.220703125,0.17669677734375,0.13873291015625,-0.53448486328125,0.0,0.0,0.0,27.61334228515625,0,0
HIGHRES_IMU,144816354,0.29656982421875,0.685211181640625,9.931854248046875,-0.7171630859375,0.335693359375,-0.6866455078125,0.169403076171875,0.124114990234375,-0.52716064453125,0.0,0.0,0.0,27.61334228515625,0,0
HIGHRES_IMU,144837355,0.147674560546875,0.541717529296875,9.78179931640625,-0.3509521484375,0.762939453125,-1.129150390625,0.1591796875,0.14019775390625,-0.53594970703125,0.0,0.0,0.0,27.709197998046875,0,0
HIGHRES_IMU,144858355,0.086090087890625,0.541107177734375,9.900787353515625,-0.1220703125,0.79345703125,-0.640869140625,0.17669677734375,0.124114990234375,-0.53155517578125,0.0,0.0,0.0,27.517486572265625,0,0
HIGHRES_IMU,144879355,0.1171875,0.670867919921875,9.905548095703125,-0.457763671875,0.6256103515625,-0.6256103515625,0.165008544921875,0.13580322265625,-0.53155517578125,0.0,0.0,0.0,27.229949951171875,0,0
HIGHRES_IMU,144900355,0.55487060546875,0.282806396484375,10.075958251953125,-1.40380859375,-0.48828125,-1.64794921875,0.15771484375,0.143096923828125,-0.524261474609375,0.0,0.0,0.0,27.5654296875,0,0
HIGHRES_IMU,144921354,-0.10821533203125,0.68402099609375,10.00482177734375,0.1220703125,-0.885009765625,-1.15966796875,0.17816162109375,0.129974365234375,-0.53009033203125,0.0,0.0,0.0,27.709197998046875,0,0
HIGHRES_IMU,144942355,0.05499267578125,0.5225830078125,10.082550048828125,-0.2593994140625,2.8839111328125,0.396728515625,0.1533203125,0.128509521484375,-0.519866943359375,0.0,0.0,0.0,27.517486572265625,0,0
HIGHRES_IMU,144963364,-0.394622802734375,0.887298583984375,10.108245849609375,0.579833984375,2.5787353515625,-0.7171630859375,0.147491455078125,0.13726806640625,-0.53302001953125,0.0,0.0,0.0,27.5654296875,0,0
HIGHRES_IMU,144984355,2.526153564453125,1.765625,11.261627197265625,-0.91552734375,-1.77001953125,2.044677734375,0.15771484375,0.146026611328125,-0.541778564453125,0.0,0.0,0.0,27.5654296875,0,0
HIGHRES_IMU,145005356,1.19403076171875,1.90374755859375,10.619476318359375,-8.1939697265625,-1.9073486328125,11.6119384765625,0.165008544921875,0.13873291015625,-0.516937255859375,0.0,0.0,0.0,27.709197998046875,0,0
HIGHRES_IMU,145026357,0.851409912109375,1.359649658203125,10.944122314453125,-0.579833984375,3.96728515625,16.571044921875,0.170867919921875,0.13726806640625,-0.53302001953125,0.0,0.0,0.0,27.5654296875,0,0
HIGHRES_IMU,145047358,0.3575439453125,0.5985107421875,10.946533203125,0.579833984375,15.7928466796875,19.7296142578125,0.165008544921875,0.148956298828125,-0.538848876953125,0.0,0.0,0.0,27.61334228515625,0,0
HIGHRES_IMU,145068367,-0.1177978515625,0.022735595703125,10.92559814453125,0.3509521484375,8.880615234375,18.2647705078125,0.17962646484375,0.131439208984375,-0.519866943359375,0.0,0.0,0.0,27.5654296875,0,0
HIGHRES_IMU,145089358,-1.307037353515625,-1.62213134765625,10.867584228515625,4.119873046875,4.1046142578125,17.059326171875,0.17523193359375,0.129974365234375,-0.543243408203125,0.0,0.0,0.0,27.37371826171875,0,0
HIGHRES_IMU,145110354,-1.644256591796875,0.594329833984375,10.598541259765625,23.74267578125,-0.762939453125,11.8865966796875,0.17962646484375,0.13580322265625,-0.53155517578125,0.0,0.0,0.0,27.61334228515625,0,0
HIGHRES_IMU,145131357,-0.70672607421875,0.05322265625,11.5025634765625,26.0162353515625,7.4005126953125,20.9503173828125,0.1971435546875,0.13726806640625,-0.525726318359375,0.0,0.0,0.0,27.709197998046875,0,0
HIGHRES_IMU,145152354,-0.698944091796875,0.467559814453125,10.984771728515625,45.0439453125,-1.8463134765625,21.6522216796875,0.17962646484375,0.124114990234375,-0.53155517578125,0.0,0.0,0.0,27.90087890625,0,0
HIGHRES_IMU,145173357,-0.579376220703125,0.78265380859375,11.351318359375,44.0521240234375,-2.532958984375,29.6783447265625,0.182525634765625,0.1226806640625,-0.53302001953125,0.0,0.0,0.0,27.61334228515625,0,0
HIGHRES_IMU,145194355,-0.758758544921875,1.770416259765625,10.710357666015625,48.492431640625,-5.5084228515625,30.76171875,0.182525634765625,0.10223388671875,-0.540313720703125,0.0,0.0,0.0,27.229949951171875,0,0
HIGHRES_IMU,145215355,-0.387451171875,2.489105224609375,10.624847412109375,41.839599609375,-3.7384033203125,36.2701416015625,0.183990478515625,0.103668212890625,-0.549072265625,0.0,0.0,0.0,27.709197998046875,0,0
HIGHRES_IMU,145236354,-0.362335205078125,3.0499267578125,10.645782470703125,33.3709716796875,-3.021240234375,39.1387939453125,0.182525634765625,0.087615966796875,-0.543243408203125,0.0,0.0,0.0,27.5654296875,0,0
HIGHRES_IMU,145257355,-0.275634765625,3.0625,10.62542724609375,20.93505859375,-3.7689208984375,40.252685546875,0.17669677734375,0.071563720703125,-0.53448486328125,0.0,0.0,0.0,27.5654296875,0,0
HIGHRES_IMU,145278360,-0.2935791015625,3.210784912109375,10.393463134765625,8.6517333984375,-5.37109375,42.022705078125,0.17962646484375,0.086151123046875,-0.541778564453125,0.0,0.0,0.0,27.229949951171875,0,0
HIGHRES_IMU,145299357,-0.075927734375,3.02362060546875,10.3187255859375,-6.866455078125,-6.500244140625,45.10498046875,0.1971435546875,0.084686279296875,-0.547607421875,0.0,0.0,0.0,27.517486572265625,0,0
HIGHRES_IMU,145320358,0.163238525390625,2.92138671875,10.501678466796875,-19.2108154296875,-4.57763671875,46.81396484375,0.202972412109375,0.075927734375,-0.541778564453125,0.0,0.0,0.0,27.61334228515625,0,0
HIGHRES_IMU,145341356,0.077728271484375,2.321685791015625,10.136962890625,-32.8826904296875,-5.828857421875,48.736572265625,0.183990478515625,0.089080810546875,-0.553466796875,0.0,0.0,0.0,27.5654296875,0,0
HIGHRES_IMU,145362367,0.1644287109375,2.271453857421875,9.56414794921875,-42.572021484375,-5.5084228515625,46.5850830078125,0.17962646484375,0.09637451171875,-0.549072265625,0.0,0.0,0.0,27.85296630859375,0,0
HIGHRES_IMU,145383355,0.171600341796875,2.095672607421875,9.64605712890625,-54.473876953125,-3.021240234375,49.1485595703125,0.208831787109375,0.10223388671875,-0.53009033203125,0.0,0.0,0.0,27.517486572265625,0,0
HIGHRES_IMU,145404356,0.17041015625,2.200897216796875,9.401519775390625,-64.453125,-2.5787353515625,52.2308349609375,0.189849853515625,0.109527587890625,-0.543243408203125,0.0,0.0,0.0,27.421630859375,0,0
HIGHRES_IMU,145425357,0.503448486328125,1.79193115234375,9.420654296875,-77.2247314453125,0.5645751953125,53.314208984375,0.189849853515625,0.105133056640625,-0.547607421875,0.0,0.0,0.0,27.5654296875,0,0
HIGHRES_IMU,145446357,0.27203369140625,1.93304443359375,9.1802978515625,-88.7908935546875,1.77001953125,51.361083984375,0.2015380859375,0.13433837890625,-0.540313720703125,0.0,0.0,0.0,27.61334228515625,0,0
HIGHRES_IMU,145467364,0.306732177734375,1.397918701171875,9.463104248046875,-102.2491455078125,4.0283203125,49.13330078125,0.202972412109375,0.13873291015625,-0.538848876953125,0.0,0.0,0.0,27.5654296875,0,0
HIGHRES_IMU,145488358,0.209259033203125,1.097747802734375,9.403900146484375,-111.083984375,3.8604736328125,44.219970703125,0.208831787109375,0.147491455078125,-0.53594970703125,0.0,0.0,0.0,27.229949951171875,0,0
HIGHRES_IMU,145509354,0.03765869140625,0.46575927734375,9.100189208984375,-121.9482421875,5.8135986328125,42.90771484375,0.21466064453125,0.185455322265625,-0.5067138671875,0.0,0.0,0.0,27.517486572265625,0,0
HIGHRES_IMU,145530357,0.286407470703125,-0.4400634765625,8.4066162109375,-127.4566650390625,5.2032470703125,41.015625,0.21905517578125,0.1986083984375,-0.524261474609375,0.0,0.0,0.0,27.517486572265625,0,0
HIGHRES_IMU,145551357,-0.693572998046875,-1.960540771484375,8.196746826171875,-125.6256103515625,8.8043212890625,44.769287109375,0.208831787109375,0.21173095703125,-0.5155029296875,0.0,0.0,0.0,27.517486572265625,0,0
HIGHRES_IMU,145572366,-0.775482177734375,-3.35784912109375,8.6822509765625,-113.494873046875,2.50244140625,43.02978515625,0.221954345703125,0.230743408203125,-0.5067138671875,0.0,0.0,0.0,27.61334228515625,0,0
HIGHRES_IMU,145593357,-0.552459716796875,-3.19403076171875,8.904052734375,-102.96630859375,-2.777099609375,41.656494140625,0.223419189453125,0.25701904296875,-0.503814697265625,0.0,0.0,0.0,27.517486572265625,0,0
HIGHRES_IMU,145614358,-0.087890625,-2.933349609375,9.366851806640625,-94.268798828125,-1.8768310546875,37.4908447265625,0.229278564453125,0.240966796875,-0.484832763671875,0.0,0.0,0.0,27.709197998046875,0,0
HIGHRES_IMU,145635357,0.015533447265625,-2.262481689453125,8.80242919921875,-94.970703125,-0.91552734375,31.951904296875,0.232177734375,0.2789306640625,-0.483367919921875,0.0,0.0,0.0,27.5654296875,0,0
HIGHRES_IMU,145656358,0.16741943359375,-3.442169189453125,8.820343017578125,-102.020263671875,5.3863525390625,32.257080078125,0.232177734375,0.2789306640625,-0.464385986328125,0.0,0.0,0.0,27.517486572265625,0,0
HIGHRES_IMU,145677359,-0.962646484375,-5.433807373046875,8.507659912109375,-105.9722900390625,5.096435546875,27.6641845703125,0.248260498046875,0.305206298828125,-0.45269775390625,0.0,0.0,0.0,27.517486572265625,0,0
HIGHRES_IMU,145698357,-0.82452392578125,-7.80450439453125,9.114532470703125,-81.2225341796875,-3.662109375,29.0985107421875,0.248260498046875,0.3125,-0.4307861328125,0.0,0.0,0.0,27.37371826171875,0,0
HIGHRES_IMU,145719358,-0.299560546875,-7.6263427734375,8.4765625,-43.1060791015625,-14.923095703125,30.364990234375,0.25115966796875,0.33148193359375,-0.424957275390625,0.0,0.0,0.0,27.517486572265625,0,0
HIGHRES_IMU,145740355,0.279815673828125,-6.7755126953125,8.5811767578125,-23.0255126953125,-6.744384765625,27.34375,0.245330810546875,0.327117919921875,-0.4351806640625,0.0,0.0,0.0,27.61334228515625,0,0
HIGHRES_IMU,145761368,-0.64752197265625,-5.398529052734375,8.52618408203125,-11.077880859375,-4.8675537109375,22.8118896484375,0.235107421875,0.33587646484375,-0.4322509765625,0.0,0.0,0.0,27.517486572265625,0,0
HIGHRES_IMU,145782358,-0.444244384765625,-4.0418701171875,8.523193359375,-15.045166015625,-8.7890625,26.702880859375,0.25262451171875,0.327117919921875,-0.427886962890625,0.0,0.0,0.0,27.61334228515625,0,0
HIGHRES_IMU,145803358,0.015533447265625,-3.34051513671875,8.28045654296875,-25.238037109375,-14.3280029296875,31.9366455078125,0.25848388671875,0.33880615234375,-0.4322509765625,0.0,0.0,0.0,27.709197998046875,0,0
HIGHRES_IMU,21356,-1.89178466796875,-7.436798095703125,7.790740966796875,-13.1988525390625,34.7747802734375,37.3382568359375,0.322723388671875,0.3533935546875,-0.385528564453125,0.0,0.0,0.0,27.37371826171875,0,0
HIGHRES_IMU,42357,-0.89984130859375,-6.838287353515625,7.57611083984375,11.41357421875,26.519775390625,34.088134765625,0.319793701171875,0.3563232421875,-0.392822265625,0.0,0.0,0.0,27.757110595703125,0,0
HIGHRES_IMU,63368,-0.9554443359375,-5.870880126953125,7.78118896484375,16.3421630859375,29.84619140625,35.8428955078125,0.328582763671875,0.3504638671875,-0.401580810546875,0.0,0.0,0.0,27.517486572265625,0,0
HIGHRES_IMU,84356,-1.089996337890625,-5.1497802734375,7.929473876953125,17.9290771484375,30.5633544921875,34.4696044921875,0.327117919921875,0.341705322265625,-0.389892578125,0.0,0.0,0.0,27.517486572265625,0,0
HIGHRES_IMU,105357,-1.456512451171875,-4.89208984375,8.378509521484375,15.5487060546875,31.4483642578125,35.3851318359375,0.3504638671875,0.328582763671875,-0.400115966796875,0.0,0.0,0.0,27.229949951171875,0,0
HIGHRES_IMU,126360,-1.298065185546875,-4.111236572265625,8.081329345703125,10.8795166015625,31.402587890625,32.3028564453125,0.347564697265625,0.319793701171875,-0.395751953125,0.0,0.0,0.0,27.61334228515625,0,0
HIGHRES_IMU,147358,-1.04931640625,-3.60479736328125,8.0018310546875,-3.72314453125,36.163330078125,31.2957763671875,0.344635009765625,0.33294677734375,-0.395751953125,0.0,0.0,0.0,27.85296630859375,0,0
HIGHRES_IMU,168357,-1.585662841796875,-4.386260986328125,6.95965576171875,-26.153564453125,41.7938232421875,32.1044921875,0.366546630859375,0.319793701171875,-0.391357421875,0.0,0.0,0.0,27.5654296875,0,0
HIGHRES_IMU,189356,-0.804779052734375,-5.684906005859375,7.79315185546875,-25.0701904296875,50.35400390625,27.2979736328125,0.379669189453125,0.324188232421875,-0.382598876953125,0.0,0.0,0.0,27.517486572265625,0,0
HIGHRES_IMU,210354,-1.629302978515625,-6.123779296875,7.396148681640625,-21.3775634765625,57.7392578125,27.191162109375,0.389892578125,0.327117919921875,-0.362152099609375,0.0,0.0,0.0,27.517486572265625,0,0
HIGHRES_IMU,231354,-1.4140625,-5.469085693359375,7.02783203125,-13.1988525390625,64.9871826171875,23.92578125,0.40887451171875,0.33734130859375,-0.36944580078125,0.0,0.0,0.0,27.5654296875,0,0
HIGHRES_IMU,252363,-1.376983642578125,-4.48193359375,6.9154052734375,-21.9573974609375,79.2694091796875,27.6031494140625,0.426422119140625,0.324188232421875,-0.3533935546875,0.0,0.0,0.0,27.421630859375,0,0
HIGHRES_IMU,273356,-1.918701171875,-3.8367919921875,6.718109130859375,-40.71044921875,88.653564453125,29.296875,0.422027587890625,0.33148193359375,-0.3533935546875,0.0,0.0,0.0,27.5654296875,0,0
HIGHRES_IMU,294355,-2.353973388671875,-4.3414306640625,6.398223876953125,-61.614990234375,93.8262939453125,30.7464599609375,0.45123291015625,0.33734130859375,-0.349029541015625,0.0,0.0,0.0,27.5654296875,0,0
HIGHRES_IMU,315355,-2.98834228515625,-5.39910888671875,6.099853515625,-68.7103271484375,98.052978515625,28.38134765625,0.4716796875,0.33880615234375,-0.325653076171875,0.0,0.0,0.0,27.37371826171875,0,0
HIGHRES_IMU,336358,-3.43377685546875,-6.7874755859375,5.68731689453125,-63.4613037109375,98.5107421875,26.8096923828125,0.47314453125,0.33294677734375,-0.29498291015625,0.0,0.0,0.0,27.61334228515625,0,0
HIGHRES_IMU,357364,-3.52288818359375,-7.431427001953125,5.81585693359375,-48.0194091796875,97.991943359375,23.5137939453125,0.497955322265625,0.341705322265625,-0.267242431640625,0.0,0.0,0.0,27.5654296875,0,0
HIGHRES_IMU,378354,-4.3641357421875,-6.9739990234375,5.860107421875,-36.2091064453125,94.573974609375,18.5699462890625,0.49066162109375,0.341705322265625,-0.25701904296875,0.0,0.0,0.0,27.517486572265625,0,0
HIGHRES_IMU,399355,-4.60748291015625,-6.726470947265625,5.853515625,-31.06689453125,89.599609375,16.571044921875,0.503814697265625,0.362152099609375,-0.245330810546875,0.0,0.0,0.0,27.517486572265625,0,0
HIGHRES_IMU,420358,-4.69598388671875,-6.66070556640625,5.818267822265625,-25.8026123046875,85.906982421875,13.8397216796875,0.516937255859375,0.3563232421875,-0.224884033203125,0.0,0.0,0.0,27.229949951171875,0,0
HIGHRES_IMU,441360,-5.051727294921875,-6.664306640625,5.979095458984375,-23.86474609375,83.4808349609375,11.627197265625,0.525726318359375,0.349029541015625,-0.207366943359375,0.0,0.0,0.0,27.517486572265625,0,0
HIGHRES_IMU,462356,-5.031402587890625,-6.431121826171875,5.847564697265625,-24.7650146484375,80.4443359375,8.3770751953125,0.53594970703125,0.3563232421875,-0.202972412109375,0.0,0.0,0.0,27.5654296875,0,0
HIGHRES_IMU,483354,-5.131866455078125,-5.973724365234375,5.48101806640625,-29.47998046875,80.902099609375,7.4920654296875,0.554931640625,0.349029541015625,-0.182525634765625,0.0,0.0,0.0,27.61334228515625,0,0
HIGHRES_IMU,504357,-5.175506591796875,-6.06878662109375,5.14501953125,-37.1551513671875,82.1075439453125,8.5906982421875,0.53448486328125,0.344635009765625,-0.17230224609375,0.0,0.0,0.0,27.61334228515625,0,0
HIGHRES_IMU,525358,-5.224517822265625,-6.91363525390625,4.740814208984375,-40.34423828125,84.7930908203125,11.688232421875,0.544708251953125,0.363616943359375,-0.150421142578125,0.0,0.0,0.0,27.37371826171875,0,0
HIGHRES_IMU,546358,-5.703460693359375,-7.392547607421875,4.45263671875,-38.330078125,88.531494140625,13.702392578125,0.550537109375,0.347564697265625,-0.129974365234375,0.0,0.0,0.0,27.517486572265625,0,0
HIGHRES_IMU,567356,-6.318695068359375,-7.800933837890625,4.59613037109375,-30.9295654296875,88.3331298828125,16.510009765625,0.547607421875,0.3563232421875,-0.1138916015625,0.0,0.0,0.0,27.5654296875,0,0
HIGHRES_IMU,588355,-6.17999267578125,-7.568328857421875,4.388641357421875,-18.4783935546875,84.625244140625,16.4947509765625,0.57537841796875,0.346099853515625,-0.09637451171875,0.0,0.0,0.0,27.3258056640625,0,0
HIGHRES_IMU,609358,-6.330078125,-6.554290771484375,4.2523193359375,-12.9241943359375,83.49609375,15.0146484375,0.57098388671875,0.3533935546875,-0.089080810546875,0.0,0.0,0.0,27.517486572265625,0,0
HIGHRES_IMU,630357,-6.377899169921875,-5.906158447265625,3.831390380859375,-20.1416015625,82.9925537109375,15.3961181640625,0.554931640625,0.33880615234375,-0.071563720703125,0.0,0.0,0.0,27.086181640625,0,0
HIGHRES_IMU,651356,-6.15966796875,-5.749481201171875,3.6197509765625,-31.097412109375,92.0257568359375,18.6920166015625,0.576812744140625,0.344635009765625,-0.048187255859375,0.0,0.0,0.0,27.421630859375,0,0
HIGHRES_IMU,672358,-7.1031494140625,-5.47265625,2.83349609375,-43.0145263671875,95.5810546875,20.7977294921875,0.582672119140625,0.328582763671875,-0.013153076171875,0.0,0.0,0.0,27.61334228515625,0,0
HIGHRES_IMU,693356,-7.44696044921875,-6.671478271484375,1.94677734375,-54.0771484375,92.1630859375,26.9775390625,0.557830810546875,0.340240478515625,-0.026275634765625,0.0,0.0,0.0,27.5654296875,0,0
HIGHRES_IMU,714357,-7.3267822265625,-7.645477294921875,2.218841552734375,-45.379638671875,91.4764404296875,26.6876220703125,0.56951904296875,0.33734130859375,0.008758544921875,0.0,0.0,0.0,27.517486572265625,0,0
HIGHRES_IMU,735359,-7.99884033203125,-6.979400634765625,2.145904541015625,-36.6668701171875,88.1500244140625,25.726318359375,0.5855712890625,0.33148193359375,0.024810791015625,0.0,0.0,0.0,27.61334228515625,0,0
HIGHRES_IMU,756369,-8.066986083984375,-6.916015625,1.90313720703125,-32.5164794921875,83.648681640625,25.2532958984375,0.565155029296875,0.33734130859375,0.0408935546875,0.0,0.0,0.0,27.61334228515625,0,0
HIGHRES_IMU,777355,-7.823028564453125,-5.73394775390625,1.782379150390625,-26.85546875,79.8797607421875,17.15087890625,0.57098388671875,0.324188232421875,0.064239501953125,0.0,0.0,0.0,27.709197998046875,0,0
HIGHRES_IMU,798358,-8.03887939453125,-5.240081787109375,1.1324462890625,-35.8734130859375,78.9947509765625,17.578125,0.559295654296875,0.321258544921875,0.089080810546875,0.0,0.0,0.0,27.61334228515625,0,0
HIGHRES_IMU,819358,-7.645477294921875,-5.632904052734375,0.927947998046875,-46.9207763671875,75.7598876953125,18.61572265625,0.578277587890625,0.321258544921875,0.09930419921875,0.0,0.0,0.0,27.37371826171875,0,0
HIGHRES_IMU,840356,-8.171630859375,-6.30853271484375,0.222412109375,-48.583984375,79.4677734375,18.0206298828125,0.56951904296875,0.305206298828125,0.112457275390625,0.0,0.0,0.0,27.61334228515625,0,0
HIGHRES_IMU,861356,-8.028717041015625,-6.147705078125,-0.268463134765625,-40.3289794921875,77.1484375,14.434814453125,0.57244873046875,0.3154296875,0.13726806640625,0.0,0.0,0.0,27.517486572265625,0,0
HIGHRES_IMU,882357,-7.765655517578125,-6.01495361328125,-0.312713623046875,-37.139892578125,79.1778564453125,15.3656005859375,0.557830810546875,0.305206298828125,0.151885986328125,0.0,0.0,0.0,27.517486572265625,0,0
HIGHRES_IMU,903358,-8.17999267578125,-5.991058349609375,-0.75933837890625,-41.961669921875,81.35986328125,17.7764892578125,0.56951904296875,0.29498291015625,0.17962646484375,0.0,0.0,0.0,27.61334228515625,0,0
HIGHRES_IMU,924354,-8.140533447265625,-5.9713134765625,-0.656494140625,-45.2880859375,79.925537109375,20.660400390625,0.560760498046875,0.283294677734375,0.191314697265625,0.0,0.0,0.0,27.5654296875,0,0
HIGHRES_IMU,945356,-8.310333251953125,-5.76385498046875,-0.801788330078125,-43.304443359375,76.6754150390625,20.6451416015625,0.550537109375,0.29498291015625,0.21173095703125,0.0,0.0,0.0,27.5654296875,0,0
HIGHRES_IMU,966356,-7.934844970703125,-5.39971923828125,-1.620941162109375,-41.68701171875,75.5157470703125,20.6298828125,0.538848876953125,0.2730712890625,0.223419189453125,0.0,0.0,0.0,27.709197998046875,0,0
HIGHRES_IMU,987355,-8.304962158203125,-5.74053955078125,-2.0819091796875,-45.34912109375,80.9326171875,23.9715576171875,0.53594970703125,0.261383056640625,0.249725341796875,0.0,0.0,0.0,27.709197998046875,0,0
HIGHRES_IMU,1008355,-8.4765625,-5.81585693359375,-1.779388427734375,-42.6788330078125,76.6143798828125,23.712158203125,0.541778564453125,0.25994873046875,0.25848388671875,0.0,0.0,0.0,27.85296630859375,0,0
HIGHRES_IMU,1029357,-8.26190185546875,-5.52288818359375,-1.9940185546875,-40.0543212890625,73.6083984375,22.88818359375,0.519866943359375,0.240966796875,0.2803955078125,0.0,0.0,0.0,27.517486572265625,0,0
HIGHRES_IMU,1050362,-8.474761962890625,-4.8980712890625,-2.684600830078125,-40.069580078125,69.580078125,21.209716796875,0.522796630859375,0.245330810546875,0.29058837890625,0.0,0.0,0.0,27.5654296875,0,0
HIGHRES_IMU,1071358,-8.404205322265625,-4.700775146484375,-3.5025634765625,-49.4537353515625,67.2149658203125,22.674560546875,0.49652099609375,0.238037109375,0.29058837890625,0.0,0.0,0.0,27.709197998046875,0,0
HIGHRES_IMU,1092357,-7.990447998046875,-5.40869140625,-3.26995849609375,-60.48583984375,67.56591796875,27.0538330078125,0.502349853515625,0.236572265625,0.321258544921875,0.0,0.0,0.0,27.61334228515625,0,0
HIGHRES_IMU,1113360,-8.20330810546875,-5.533050537109375,-3.62451171875,-51.5289306640625,68.5577392578125,25.177001953125,0.49505615234375,0.21173095703125,0.328582763671875,0.0,0.0,0.0,27.37371826171875,0,0
HIGHRES_IMU,1134356,-8.022735595703125,-5.218536376953125,-3.796112060546875,-48.065185546875,70.7855224609375,24.7955322265625,0.47314453125,0.188385009765625,0.349029541015625,0.0,0.0,0.0,27.421630859375,0,0
HIGHRES_IMU,1155369,-7.59344482421875,-5.04693603515625,-3.61016845703125,-41.9921875,71.77734375,20.8587646484375,0.477508544921875,0.185455322265625,0.362152099609375,0.0,0.0,0.0,27.5654296875,0,0
HIGHRES_IMU,1176355,-7.99884033203125,-4.587158203125,-4.07354736328125,-39.642333984375,69.4580078125,15.44189453125,0.45123291015625,0.18109130859375,0.366546630859375,0.0,0.0,0.0,27.517486572265625,0,0
HIGHRES_IMU,1197356,-7.6837158203125,-4.7808837890625,-4.468170166015625,-39.764404296875,66.2994384765625,14.068603515625,0.462921142578125,0.17816162109375,0.37384033203125,0.0,0.0,0.0,27.709197998046875,0,0
HIGHRES_IMU,1218356,-7.591064453125,-4.64874267578125,-4.646942138671875,-37.109375,67.3065185546875,11.4898681640625,0.4337158203125,0.169403076171875,0.395751953125,0.0,0.0,0.0,27.5654296875,0,0
HIGHRES_IMU,1239356,-7.782379150390625,-4.863983154296875,-4.645751953125,-37.841796875,63.995361328125,8.514404296875,0.427886962890625,0.167938232421875,0.391357421875,0.0,0.0,0.0,27.61334228515625,0,0
HIGHRES_IMU,1260355,-7.271759033203125,-5.42840576171875,-4.52496337890625,-28.778076171875,65.24658203125,6.744384765625,0.401580810546875,0.15625,0.40887451171875,0.0,0.0,0.0,27.709197998046875,0,0
HIGHRES_IMU,1281354,-7.298675537109375,-5.12347412109375,-5.12109375,-17.0440673828125,64.056396484375,4.058837890625,0.419097900390625,0.13726806640625,0.41473388671875,0.0,0.0,0.0,27.61334228515625,0,0
