mavpackettype,time_usec,xacc,yacc,zacc,xgyro,ygyro,zgyro,xmag,ymag,zmag,id,temperature
RAW_IMU,139020210,-81,-621,16722,-35,62,26,397,224,278,0,3136
RAW_IMU,139041208,-70,-562,16662,-96,63,18,404,225,267,0,3088
RAW_IMU,139062210,-162,-734,16658,-89,71,7,401,213,264,0,3088
RAW_IMU,139083214,-178,-683,16610,-42,57,7,399,213,262,0,2960
RAW_IMU,139104208,-60,-638,16677,-45,52,12,394,220,262,0,3088
RAW_IMU,139125211,11,-629,16759,-65,65,12,387,224,268,0,3008
RAW_IMU,139146209,-56,-665,16710,-116,56,18,388,217,274,0,3120
RAW_IMU,139167211,-169,-780,16571,-64,53,17,401,225,269,0,3088
RAW_IMU,139188208,-155,-692,16593,-15,60,15,397,216,266,0,3072
RAW_IMU,139209210,-70,-530,16648,-74,53,21,405,221,278,0,3120
RAW_IMU,139230208,-92,-670,16650,-109,70,22,396,217,269,0,3088
RAW_IMU,139251210,-111,-668,16605,-54,60,21,404,215,262,0,3072
RAW_IMU,139272208,67,-458,16628,-33,52,21,404,213,267,0,3088
RAW_IMU,139293209,-96,-571,16592,-102,63,28,400,207,261,0,2960
RAW_IMU,139314211,-363,-879,16685,-120,59,13,397,216,266,0,3120
RAW_IMU,139335209,-344,-774,16617,10,52,35,388,217,262,0,3088
RAW_IMU,139356211,-104,-278,16623,-5,46,27,399,217,277,0,3072
RAW_IMU,139377209,-5,-697,16737,-130,70,24,395,216,273,0,3120
RAW_IMU,139398208,4,-879,16653,-89,76,11,400,216,266,0,3008
RAW_IMU,139419210,-88,-654,16635,-10,46,22,405,221,268,0,3008
RAW_IMU,139440208,-165,-409,16610,-21,54,6,396,217,264,0,3024
RAW_IMU,139461210,-291,-572,16626,-112,67,16,396,220,277,0,3024
RAW_IMU,139482209,-123,-743,16606,-82,59,19,394,215,272,0,3120
RAW_IMU,139503208,-58,-640,16673,-20,32,19,394,222,267,0,3008
RAW_IMU,139524210,101,-503,16639,-70,58,21,403,216,275,0,3024
RAW_IMU,139545208,32,-804,16716,-101,80,6,388,210,274,0,3088
RAW_IMU,139566210,-204,-788,16642,-15,67,18,396,215,274,0,3008
RAW_IMU,139587211,-201,-422,16642,-47,40,14,396,215,264,0,3088
RAW_IMU,139608208,-212,-482,16629,-86,70,20,399,215,264,0,2992
RAW_IMU,139629210,-136,-740,16651,-93,55,20,401,227,262,0,3024
RAW_IMU,139650208,1,-741,16703,-28,48,17,401,210,272,0,3088
RAW_IMU,139671210,48,-544,16706,-29,60,30,394,220,269,0,3136
RAW_IMU,139692209,-82,-538,16699,-81,65,11,407,215,272,0,3024
RAW_IMU,139713211,-188,-719,16675,-93,54,27,394,213,260,0,3120
RAW_IMU,139734209,-178,-690,16647,-43,59,18,391,222,262,0,3088
RAW_IMU,139755211,-103,-572,16633,-44,42,26,400,221,268,0,3088
RAW_IMU,139776209,-127,-680,16669,-78,60,11,400,214,261,0,3120
RAW_IMU,139797210,-50,-733,16677,-75,69,16,387,216,271,0,3024
RAW_IMU,139818208,-42,-644,16629,-45,53,22,401,215,264,0,3120
RAW_IMU,139839210,11,-547,16648,-58,48,15,397,209,263,0,3088
RAW_IMU,139860208,-102,-721,16650,-74,77,9,397,224,263,0,3088
RAW_IMU,139881210,-111,-716,16567,-65,56,7,396,203,267,0,3072
RAW_IMU,139902211,-95,-711,16657,-53,46,33,397,219,275,0,3008
RAW_IMU,139923209,9,-573,16632,-84,71,25,395,221,268,0,3136
RAW_IMU,139944211,-113,-731,16681,-95,54,6,401,227,269,0,3120
RAW_IMU,139965209,-80,-701,16647,-48,66,16,396,215,264,0,3120
RAW_IMU,139986375,-113,-625,16615,-57,62,9,394,225,264,0,3072
RAW_IMU,140007207,-88,-551,16650,-63,61,6,401,208,262,0,2912
RAW_IMU,140028209,-179,-718,16687,-58,57,19,395,216,263,0,3088
RAW_IMU,140049211,-61,-651,16673,-41,57,14,400,221,268,0,3088
RAW_IMU,140070209,-52,-563,16683,-50,65,18,392,219,275,0,3056
RAW_IMU,247947209,-53,-638,16646,-61,49,18,390,219,271,0,3488
RAW_IMU,247968210,-167,-655,16634,-62,59,20,412,225,255,0,3536
RAW_IMU,247989208,-69,-675,16606,-76,58,17,388,213,269,0,3536
RAW_IMU,248010211,-149,-636,16632,-80,44,15,397,214,263,0,3488
RAW_IMU,248031209,-74,-580,16603,-64,52,22,388,222,264,0,3472
RAW_IMU,248052211,-84,-650,16660,-55,58,13,395,224,258,0,3536
RAW_IMU,248073210,-108,-706,16625,-78,50,4,403,216,263,0,3488
RAW_IMU,248094208,-173,-611,16648,-71,54,3,387,219,266,0,3536
RAW_IMU,248115209,-113,-714,16683,-46,66,7,394,213,267,0,3520
RAW_IMU,248136211,-115,-671,16599,-68,47,12,391,220,267,0,3408
RAW_IMU,248157374,-112,-692,16639,-73,59,22,388,210,269,0,3536
RAW_IMU,248178208,-136,-697,16626,-57,63,20,395,219,261,0,3488
RAW_IMU,248199210,-102,-660,16614,-64,55,13,396,217,269,0,3552
RAW_IMU,248220208,-119,-712,16615,-60,48,15,394,213,262,0,3536
RAW_IMU,248241210,-14,-680,16625,-72,65,23,396,215,264,0,3440
RAW_IMU,248262208,-133,-639,16670,-79,59,14,391,215,262,0,3584
RAW_IMU,248283210,-119,-662,16640,-52,68,9,392,228,268,0,3488
RAW_IMU,248304208,-86,-569,16655,-74,51,10,399,220,257,0,3600
RAW_IMU,248325211,-79,-567,16658,-69,69,16,404,225,262,0,3584
RAW_IMU,248346209,-103,-643,16610,-39,53,15,396,213,267,0,3424
RAW_IMU,248367208,-112,-698,16628,-55,57,15,395,216,266,0,3520
RAW_IMU,248388210,-36,-625,16668,-55,50,29,404,225,264,0,3520
RAW_IMU,248409208,-129,-686,16639,-48,51,17,395,221,273,0,3488
RAW_IMU,248430210,-110,-682,16673,-55,50,16,392,221,268,0,3440
RAW_IMU,248451208,-157,-655,16661,-65,57,12,403,224,271,0,3488
RAW_IMU,248472211,-139,-607,16607,-63,57,9,391,220,269,0,3488
RAW_IMU,248493209,-111,-650,16605,-67,59,32,405,214,275,0,3472
RAW_IMU,248514211,-100,-696,16649,-69,55,24,394,215,267,0,3488
RAW_IMU,248535209,-192,-666,16613,-55,37,24,395,219,268,0,3440
RAW_IMU,248556211,-137,-643,16657,-65,49,9,396,217,267,0,3472
RAW_IMU,248577210,-114,-680,16601,-77,45,15,407,217,264,0,3552
RAW_IMU,248598208,-120,-608,16574,-64,55,29,390,219,266,0,3536
RAW_IMU,248619209,-174,-608,16641,-76,60,11,400,216,261,0,3488
RAW_IMU,248640211,-155,-697,16665,-50,54,8,397,214,263,0,3408
RAW_IMU,248661209,-204,-683,16561,-68,59,8,395,219,271,0,3536
RAW_IMU,248682208,-152,-633,16623,-62,48,14,401,213,272,0,3472
RAW_IMU,248703210,-111,-622,16689,-62,51,4,395,214,275,0,3488
RAW_IMU,248724208,-72,-640,16656,-68,51,15,384,228,263,0,3584
RAW_IMU,248745210,-156,-628,16637,-67,64,26,400,214,266,0,3408
RAW_IMU,248766209,-177,-601,16585,-72,41,12,396,215,262,0,3552
RAW_IMU,248787209,-104,-593,16596,-67,50,11,396,222,262,0,3536
RAW_IMU,248808211,-109,-604,16645,-62,55,15,397,214,266,0,3536
RAW_IMU,248829209,-138,-651,16641,-68,52,10,391,220,264,0,3520
RAW_IMU,248850211,-78,-632,16657,-68,55,16,387,226,256,0,3408
RAW_IMU,248871211,-162,-697,16668,-64,54,28,394,232,257,0,3552
RAW_IMU,248892210,-146,-698,16592,-56,61,8,409,220,269,0,3520
RAW_IMU,248913208,-126,-643,16606,-68,49,21,401,215,267,0,3520
RAW_IMU,248934210,-125,-592,16621,-71,50,6,392,214,258,0,3552
RAW_IMU,248955208,-156,-627,16646,-67,72,22,395,219,268,0,3552
RAW_IMU,248976211,-189,-663,16683,-60,43,13,404,220,264,0,3536
RAW_IMU,248997209,-89,-623,16640,-65,55,10,409,203,264,0,3488
RAW_IMU,249018208,-164,-659,16643,-66,50,8,396,215,274,0,3520
RAW_IMU,249039210,-56,-602,16667,-55,56,16,399,215,260,0,3488
RAW_IMU,249060208,-100,-703,16583,-62,60,14,397,209,273,0,3552
RAW_IMU,249081211,-151,-685,16648,-58,64,30,391,210,269,0,3520
RAW_IMU,249102209,-115,-678,16612,-69,53,19,394,217,272,0,3584
RAW_IMU,249123211,-62,-629,16598,-82,46,14,407,227,272,0,3600
RAW_IMU,249144209,-99,-612,16549,-60,56,34,394,217,260,0,3472
RAW_IMU,249165211,-44,-616,16664,-64,48,18,395,226,263,0,3488
RAW_IMU,249186210,-85,-683,16609,-81,47,27,407,222,264,0,3552
RAW_IMU,249207208,-31,-611,16579,-62,57,23,396,222,264,0,3488
RAW_IMU,249228209,-65,-636,16726,-73,45,6,399,210,264,0,3584
RAW_IMU,249249211,-101,-615,16679,-62,59,24,394,213,267,0,3536
RAW_IMU,249270212,-97,-667,16620,-77,59,14,394,210,269,0,3600
RAW_IMU,249291211,-135,-742,16679,-73,64,20,399,215,269,0,3520
RAW_IMU,249312209,-167,-633,16643,-52,47,14,403,211,273,0,3536
RAW_IMU,249333211,-38,-613,16628,-55,51,28,388,210,264,0,3488
RAW_IMU,249354209,-135,-628,16684,-65,61,14,399,215,267,0,3472
RAW_IMU,249375215,-130,-668,16606,-87,57,31,395,214,268,0,3552
RAW_IMU,249396209,-56,-686,16633,-59,54,16,396,222,257,0,3536
RAW_IMU,249417211,-59,-631,16627,-58,53,9,404,222,262,0,3584
RAW_IMU,249438209,-157,-628,16629,-65,68,19,397,216,263,0,3472
RAW_IMU,249459211,-88,-619,16637,-72,66,21,403,216,258,0,3440
RAW_IMU,249480208,-119,-595,16635,-66,69,7,394,220,257,0,3536
RAW_IMU,249501210,-117,-649,16603,-65,52,18,391,220,267,0,3440
RAW_IMU,249522208,-88,-682,16598,-77,45,26,401,220,264,0,3488
RAW_IMU,249543210,-105,-568,16689,-57,58,20,400,216,256,0,3536
RAW_IMU,249564208,-42,-630,16633,-72,58,13,394,213,262,0,3488
RAW_IMU,249585209,-109,-630,16678,-67,61,21,388,215,264,0,3488
RAW_IMU,249606211,-117,-695,16625,-59,55,17,390,219,266,0,3552
RAW_IMU,249627209,-210,-651,16594,-66,49,25,395,226,268,0,3536
RAW_IMU,249648211,-56,-584,16575,-65,47,9,397,214,266,0,3488
RAW_IMU,249669209,-150,-730,16671,-77,46,27,387,219,263,0,3552
RAW_IMU,249690208,-81,-598,16678,-60,48,18,391,222,269,0,3488
RAW_IMU,249711210,-115,-624,16688,-60,62,18,391,220,269,0,3488
RAW_IMU,249732208,-49,-678,16685,-63,55,12,401,215,260,0,3552
RAW_IMU,249753210,-166,-584,16654,-73,65,30,401,217,272,0,3520
RAW_IMU,249774209,-138,-680,16593,-70,56,8,395,221,268,0,3584
RAW_IMU,249795208,-95,-647,16654,-66,69,18,396,220,277,0,3488
RAW_IMU,249816210,-126,-549,16679,-84,62,22,405,216,256,0,3520
RAW_IMU,249837208,-127,-716,16645,-67,57,20,392,219,261,0,3520
RAW_IMU,249858210,-120,-588,16623,-56,62,19,400,219,268,0,3440
RAW_IMU,249879211,-90,-676,16623,-59,52,12,392,214,268,0,3552
RAW_IMU,249900208,-82,-638,16591,-77,51,10,397,219,258,0,3488
RAW_IMU,249921210,-50,-613,16667,-67,64,12,394,225,272,0,3488
RAW_IMU,249942208,-107,-642,16608,-59,45,21,395,226,258,0,3472
RAW_IMU,249963210,-141,-616,16585,-61,51,20,395,216,268,0,3440
RAW_IMU,249984209,-183,-580,16602,-57,71,15,401,215,269,0,3584
RAW_IMU,250005210,-70,-602,16670,-63,52,5,396,213,274,0,3536
RAW_IMU,250026208,-128,-617,16666,-69,56,7,405,219,271,0,3488
RAW_IMU,250047211,-110,-670,16569,-77,47,18,400,224,275,0,3488
RAW_IMU,250068209,-80,-613,16699,-57,67,14,396,213,272,0,3488
RAW_IMU,250089210,-60,-631,16662,-66,65,15,400,216,273,0,3488
RAW_IMU,250110208,-173,-629,16603,-62,59,20,400,214,261,0,3520
RAW_IMU,250131210,-48,-615,16606,-56,65,14,401,215,272,0,3520
RAW_IMU,250152208,-102,-676,16566,-78,75,7,409,213,269,0,3472
RAW_IMU,250173210,-93,-642,16692,-69,58,20,396,213,272,0,3472
RAW_IMU,250194211,-91,-676,16660,-50,51,19,395,219,271,0,3552
RAW_IMU,250215209,-133,-649,16585,-62,42,14,391,208,277,0,3488
RAW_IMU,250236211,-94,-650,16682,-55,51,0,388,220,262,0,3488
RAW_IMU,250257209,-106,-694,16631,-80,45,22,403,216,263,0,3488
RAW_IMU,250278375,-122,-609,16616,-52,45,29,395,219,263,0,3488
RAW_IMU,250299210,-106,-639,16603,-73,72,5,410,226,268,0,3552
RAW_IMU,250320208,-149,-700,16638,-64,51,-3,390,214,266,0,3552
RAW_IMU,250341210,-141,-616,16717,-59,54,-2,407,222,267,0,3552
RAW_IMU,250362208,-143,-624,16658,-72,59,9,395,221,261,0,3520
RAW_IMU,250383209,-76,-653,16640,-62,42,34,407,220,264,0,3536
RAW_IMU,250404208,-97,-655,16611,-76,74,20,409,213,257,0,3488
RAW_IMU,250425210,-118,-678,16638,-53,65,28,399,215,267,0,3552
RAW_IMU,250446208,-135,-635,16648,-73,45,23,395,214,268,0,3520
RAW_IMU,250467210,-75,-692,16722,-71,71,9,405,211,275,0,3488
RAW_IMU,250488209,-102,-628,16665,-64,48,8,395,214,261,0,3488
RAW_IMU,250509211,-133,-574,16586,-63,54,9,401,203,264,0,3488
RAW_IMU,250530209,-92,-634,16690,-72,52,16,391,217,274,0,3488
RAW_IMU,250551211,-105,-666,16607,-63,50,29,399,217,264,0,3536
RAW_IMU,250572209,15,-676,16609,-70,49,20,392,214,275,0,3440
RAW_IMU,250593208,-121,-682,16519,-65,56,-3,400,211,266,0,3488
RAW_IMU,250614210,-69,-638,16628,-63,57,27,401,215,272,0,3584
RAW_IMU,250635208,-86,-595,16647,-73,61,11,401,210,264,0,3584
RAW_IMU,250656210,-87,-664,16685,-66,62,24,400,221,271,0,3472
RAW_IMU,250677208,-62,-630,16669,-57,47,36,390,216,266,0,3536
RAW_IMU,250698210,-93,-721,16617,-58,56,9,396,217,267,0,3552
RAW_IMU,250719208,-63,-549,16613,-57,62,13,391,210,279,0,3472
RAW_IMU,250740211,-27,-620,16633,-58,53,14,394,215,269,0,3520
RAW_IMU,250761209,-102,-645,16638,-63,52,12,394,217,267,0,3488
RAW_IMU,250782211,-68,-672,16675,-66,63,17,394,215,264,0,3488
RAW_IMU,250803210,-126,-668,16703,-60,58,26,395,226,261,0,3552
RAW_IMU,250824208,-15,-703,16634,-67,57,12,391,222,267,0,3584
RAW_IMU,250845209,-121,-687,16715,-65,69,19,391,215,264,0,3520
RAW_IMU,250866211,-96,-590,16623,-60,43,18,399,213,269,0,3488
RAW_IMU,250887210,-40,-589,16704,-59,52,3,397,214,258,0,3488
RAW_IMU,250908209,-163,-697,16660,-72,50,10,403,221,263,0,3536
RAW_IMU,250929211,-79,-656,16633,-55,44,13,408,216,268,0,3584
RAW_IMU,250950209,-109,-663,16644,-73,61,5,404,210,257,0,3472
RAW_IMU,250971211,-114,-618,16622,-62,61,29,400,221,261,0,3424
RAW_IMU,250992211,-161,-660,16686,-60,60,26,400,221,263,0,3600
RAW_IMU,251013211,-130,-702,16613,-56,60,18,399,222,267,0,3520
RAW_IMU,251034209,-109,-601,16639,-59,50,25,404,215,257,0,3552
RAW_IMU,251055211,-32,-670,16656,-54,50,20,401,217,269,0,3488
RAW_IMU,251076209,-61,-694,16628,-66,65,15,399,213,262,0,3440
RAW_IMU,251097208,-56,-687,16643,-57,52,25,403,219,271,0,3600
RAW_IMU,251118210,-120,-704,16569,-57,57,15,390,219,268,0,3584
RAW_IMU,251139208,-156,-679,16621,-68,60,12,394,217,267,0,3584
RAW_IMU,251160210,-156,-677,16651,-53,51,23,392,221,268,0,3584
RAW_IMU,251181208,-151,-604,16631,-74,54,13,399,217,264,0,3536
RAW_IMU,251202210,-51,-635,16703,-71,58,22,401,220,262,0,3536
RAW_IMU,251223208,-129,-636,16614,-71,47,14,400,216,263,0,3536
RAW_IMU,251244211,-115,-640,16594,-67,66,7,397,211,258,0,3488
RAW_IMU,251265209,-99,-629,16583,-70,57,14,396,222,260,0,3488
RAW_IMU,251286211,-109,-635,16667,-75,55,9,391,217,274,0,3552
RAW_IMU,251307210,-124,-635,16562,-54,64,25,395,214,273,0,3488
RAW_IMU,251328208,-132,-604,16649,-70,48,33,401,220,267,0,3536
RAW_IMU,251349209,-165,-683,16654,-80,61,18,396,225,272,0,3600
RAW_IMU,251370211,-105,-633,16632,-67,65,18,392,214,268,0,3440
RAW_IMU,251391212,-88,-720,16577,-75,58,25,396,222,262,0,3616
RAW_IMU,251412211,-82,-662,16682,-52,60,14,397,216,268,0,3552
RAW_IMU,251433209,-128,-690,16600,-76,52,23,387,216,263,0,3584
RAW_IMU,251454211,-114,-627,16602,-62,35,19,394,217,272,0,3600
RAW_IMU,251475209,-181,-642,16601,-71,54,33,397,226,271,0,3488
RAW_IMU,251496215,-87,-651,16617,-73,58,14,404,217,264,0,3520
RAW_IMU,251517209,-138,-668,16630,-70,49,22,392,214,261,0,3552
RAW_IMU,251538211,-93,-627,16624,-58,39,24,403,216,278,0,3552
RAW_IMU,251559209,-123,-666,16632,-52,53,25,395,216,268,0,3536
RAW_IMU,251580211,-119,-598,16661,-64,61,42,403,224,266,0,3520
RAW_IMU,251601208,-91,-630,16644,-53,57,17,403,226,268,0,3552
RAW_IMU,251622210,-122,-604,16608,-64,57,30,391,213,272,0,3584
RAW_IMU,251643208,-72,-683,16663,-75,57,29,397,219,271,0,3488
RAW_IMU,251664210,-130,-699,16594,-56,69,21,397,219,258,0,3584
RAW_IMU,251685208,-130,-624,16642,-86,67,30,400,224,263,0,3440
RAW_IMU,251706209,-73,-661,16561,-58,58,17,405,219,268,0,3488
RAW_IMU,251727211,-125,-645,16652,-64,53,10,399,215,267,0,3520
RAW_IMU,251748209,-110,-637,16681,-59,58,8,396,215,260,0,3520
RAW_IMU,251769211,-146,-619,16636,-61,64,30,395,221,271,0,3488
RAW_IMU,251790209,-125,-698,16601,-59,60,15,399,225,272,0,3584
RAW_IMU,251811208,-139,-675,16639,-67,61,23,400,216,271,0,3600
RAW_IMU,251832210,-118,-622,16648,-66,59,25,396,213,267,0,3520
RAW_IMU,251853208,-84,-642,16674,-65,46,23,394,227,267,0,3536
RAW_IMU,251874210,-31,-618,16702,-63,62,12,394,217,269,0,3440
RAW_IMU,251895209,-209,-632,16668,-63,71,26,404,217,269,0,3552
RAW_IMU,251916208,-128,-616,16622,-72,53,8,404,220,264,0,3584
RAW_IMU,251937210,-109,-626,16638,-68,66,25,400,214,268,0,3520
RAW_IMU,251958208,-102,-658,16636,-84,71,21,400,221,266,0,3488
RAW_IMU,251979210,-164,-672,16599,-64,60,7,390,209,268,0,3440
RAW_IMU,252000290,-129,-634,16581,-56,64,14,401,225,262,0,3552
RAW_IMU,252021210,-59,-673,16657,-74,60,26,396,220,272,0,3536
RAW_IMU,252042208,-160,-696,16584,-76,55,9,391,215,264,0,3472
RAW_IMU,252063210,-113,-649,16712,-49,51,22,394,208,264,0,3552
RAW_IMU,252084208,-144,-657,16657,-69,72,18,404,220,272,0,3440
RAW_IMU,252105209,-103,-655,16620,-51,62,6,396,217,269,0,3584
RAW_IMU,252126211,-153,-652,16584,-56,66,14,397,214,266,0,3520
RAW_IMU,252147209,-130,-616,16630,-57,51,16,396,210,264,0,3536
RAW_IMU,252168211,-105,-592,16639,-63,55,4,397,214,261,0,3520
RAW_IMU,252189209,-79,-657,16570,-62,52,15,396,225,269,0,3488
RAW_IMU,252210210,-136,-741,16639,-65,68,24,399,217,267,0,3536
RAW_IMU,252231208,-119,-655,16636,-74,53,9,395,211,266,0,3440
RAW_IMU,252252210,-132,-642,16583,-52,55,12,401,222,272,0,3536
RAW_IMU,252273208,-70,-678,16521,-53,58,18,405,216,275,0,3536
RAW_IMU,252294210,-134,-640,16616,-66,50,15,397,211,266,0,3520
RAW_IMU,252315211,-112,-638,16615,-69,59,19,384,219,275,0,3520
RAW_IMU,252336209,-116,-677,16617,-69,54,28,400,224,261,0,3696
RAW_IMU,252357211,-62,-642,16625,-68,55,10,403,216,261,0,3600
RAW_IMU,252378209,-81,-651,16584,-61,54,32,401,215,269,0,3472
RAW_IMU,252399375,-104,-676,16643,-70,61,24,401,220,267,0,3536
RAW_IMU,252420210,-41,-606,16619,-65,53,15,397,216,271,0,3584
RAW_IMU,252441208,-137,-633,16625,-76,65,29,403,219,268,0,3600
RAW_IMU,252462210,-167,-652,16600,-64,66,8,391,217,267,0,3584
RAW_IMU,252483208,-149,-595,16638,-63,50,11,397,221,268,0,3488
RAW_IMU,252504209,-79,-669,16562,-69,56,19,392,224,271,0,3584
RAW_IMU,252525208,-86,-682,16634,-66,50,15,396,208,264,0,3600
RAW_IMU,252546210,-97,-638,16625,-72,60,11,403,216,266,0,3552
RAW_IMU,252567208,-125,-656,16605,-57,41,16,401,215,272,0,3584
RAW_IMU,252588210,-113,-638,16568,-69,62,3,405,219,275,0,3488
RAW_IMU,252609209,-97,-605,16602,-67,49,18,395,216,266,0,3536
RAW_IMU,252630211,-135,-642,16622,-82,65,7,388,215,267,0,3552
RAW_IMU,252651209,-147,-691,16642,-75,63,23,399,217,274,0,3536
RAW_IMU,252672211,-136,-717,16635,-55,62,6,395,221,261,0,3584
RAW_IMU,252693209,-143,-664,16624,-61,51,13,404,220,264,0,3520
RAW_IMU,252714208,-140,-665,16609,-67,58,8,397,231,273,0,3584
RAW_IMU,252735210,-109,-619,16627,-53,55,26,394,210,257,0,3584
RAW_IMU,252756208,-104,-572,16621,-70,63,22,405,224,268,0,3584
RAW_IMU,252777210,-139,-606,16676,-59,56,9,384,214,268,0,3536
RAW_IMU,252798208,-60,-691,16681,-64,62,30,396,217,267,0,3488
RAW_IMU,252819210,-56,-615,16644,-54,55,20,400,216,266,0,3536
RAW_IMU,252840208,-147,-608,16643,-54,63,23,387,216,273,0,3552
RAW_IMU,252861211,-80,-649,16637,-61,51,32,400,214,258,0,3584
RAW_IMU,252882209,-182,-619,16611,-69,47,27,399,215,269,0,3488
RAW_IMU,252903211,-55,-690,16628,-69,45,25,403,211,266,0,3520
RAW_IMU,252924210,-66,-666,16659,-59,57,29,405,216,266,0,3536
RAW_IMU,252945208,-56,-645,16604,-59,51,30,392,214,273,0,3552
RAW_IMU,252966209,-62,-595,16659,-69,59,9,391,215,260,0,3552
RAW_IMU,252987211,-82,-647,16610,-70,50,19,396,213,277,0,3408
RAW_IMU,253008208,-134,-710,16679,-65,56,14,387,214,271,0,3584
RAW_IMU,253029208,-112,-611,16607,-68,45,12,400,224,263,0,3536
RAW_IMU,253050210,-161,-653,16592,-40,52,14,401,215,264,0,3552
RAW_IMU,253071208,-133,-671,16670,-70,60,17,396,217,269,0,3472
RAW_IMU,253092210,-179,-627,16592,-64,61,13,392,214,261,0,3472
RAW_IMU,253113210,-68,-627,16657,-62,60,13,404,217,272,0,3488
RAW_IMU,253134209,-140,-642,16575,-69,47,37,396,220,257,0,3488
RAW_IMU,253155211,-146,-670,16633,-49,52,20,391,213,269,0,3520
RAW_IMU,253176209,-163,-680,16623,-82,56,16,404,217,264,0,3552
RAW_IMU,253197211,-49,-681,16595,-79,41,12,394,210,269,0,3440
RAW_IMU,253218210,-154,-709,16693,-52,57,14,400,214,275,0,3584
RAW_IMU,253239208,-71,-595,16587,-65,49,15,390,216,263,0,3600
RAW_IMU,253260209,-96,-675,16593,-55,66,20,401,225,269,0,3584
RAW_IMU,253281211,-106,-695,16629,-51,59,24,396,225,269,0,3488
RAW_IMU,253302209,-122,-563,16662,-67,43,17,399,225,269,0,3488
RAW_IMU,253323208,-119,-657,16623,-62,64,8,394,213,277,0,3584
RAW_IMU,253344209,-180,-650,16606,-57,58,32,396,215,272,0,3584
RAW_IMU,253365211,-183,-657,16580,-57,62,7,400,207,271,0,3520
RAW_IMU,253386209,-84,-614,16620,-80,48,16,390,219,263,0,3520
RAW_IMU,253407211,-111,-640,16664,-71,53,25,395,219,266,0,3488
RAW_IMU,253428210,-112,-689,16612,-69,58,35,400,211,271,0,3552
RAW_IMU,253449208,-113,-691,16584,-59,59,10,395,216,261,0,3552
RAW_IMU,253470210,-52,-630,16622,-76,55,28,392,214,268,0,3584
RAW_IMU,253491208,-140,-642,16672,-64,52,5,390,216,258,0,3552
RAW_IMU,253512212,-137,-679,16582,-47,45,10,396,222,267,0,3600
RAW_IMU,253533210,-194,-655,16568,-76,64,15,401,227,260,0,3488
RAW_IMU,253554208,-126,-685,16626,-67,61,21,404,227,277,0,3552
RAW_IMU,253575211,-144,-683,16642,-69,52,25,396,220,272,0,3536
RAW_IMU,253596209,-71,-595,16622,-66,49,31,395,219,263,0,3536
RAW_IMU,253617215,-66,-636,16610,-56,59,17,392,226,261,0,3584
RAW_IMU,253638209,-140,-680,16641,-79,52,17,399,222,260,0,3584
RAW_IMU,253659211,-216,-691,16620,-54,43,15,407,222,267,0,3536
RAW_IMU,253680209,-117,-585,16640,-46,58,12,404,217,267,0,3584
RAW_IMU,253701211,-120,-664,16635,-71,57,11,400,219,271,0,3440
RAW_IMU,253722208,-84,-664,16582,-68,56,-6,394,213,269,0,3536
RAW_IMU,253743210,-128,-728,16720,-53,59,8,388,220,264,0,3584
RAW_IMU,253764208,-153,-545,16612,-60,65,20,404,217,274,0,3584
RAW_IMU,253785210,-85,-640,16606,-58,56,17,404,220,272,0,3584
RAW_IMU,253806208,-105,-653,16655,-68,52,9,404,220,264,0,3424
RAW_IMU,253827209,-113,-637,16597,-72,62,32,395,209,266,0,3536
RAW_IMU,253848211,-88,-636,16598,-45,61,21,396,213,257,0,3536
RAW_IMU,253869209,-106,-671,16662,-54,55,24,408,226,268,0,3600
RAW_IMU,253890211,-122,-681,16597,-50,58,38,405,216,263,0,3536
RAW_IMU,253911209,-64,-634,16555,-51,65,14,409,215,264,0,3520
RAW_IMU,253932208,-127,-600,16491,-76,56,22,401,217,274,0,3600
RAW_IMU,253953210,-125,-679,16581,-57,51,25,399,222,264,0,3520
RAW_IMU,253974208,-83,-709,16642,-50,55,13,395,214,273,0,3600
RAW_IMU,253995210,-80,-661,16597,-58,51,15,400,211,271,0,3488
RAW_IMU,254016210,-186,-581,16609,-87,50,30,392,221,275,0,3584
RAW_IMU,254037209,-125,-566,16648,-73,63,23,400,216,271,0,3536
RAW_IMU,254058211,-160,-623,16674,-46,48,20,387,226,268,0,3552
RAW_IMU,254079209,-125,-679,16685,-57,81,25,409,217,267,0,3600
RAW_IMU,254100211,-233,-580,16625,-51,52,37,395,221,261,0,3472
RAW_IMU,254121208,-50,-621,16609,-52,58,22,394,210,274,0,3536
RAW_IMU,254142210,-161,-639,16632,-78,54,10,396,215,260,0,3536
RAW_IMU,254163208,-117,-580,16655,-62,65,17,409,225,274,0,3584
RAW_IMU,254184210,-157,-634,16637,-79,56,2,396,217,269,0,3488
RAW_IMU,254205208,-151,-610,16587,-69,58,19,399,215,264,0,3536
RAW_IMU,254226209,-123,-678,16715,-59,51,15,401,222,260,0,3600
RAW_IMU,254247211,-95,-689,16656,-63,61,23,388,217,260,0,3520
RAW_IMU,254268209,-195,-735,16634,-50,55,9,400,221,266,0,3584
RAW_IMU,254289211,-166,-707,16679,-62,63,18,401,217,267,0,3536
RAW_IMU,254310209,-125,-633,16656,-64,61,32,400,224,273,0,3536
RAW_IMU,254331210,-137,-627,16664,-61,50,18,403,228,266,0,3584
RAW_IMU,254352208,-159,-582,16653,-62,61,6,397,216,266,0,3584
RAW_IMU,254373210,-134,-587,16613,-62,61,23,392,224,268,0,3520
RAW_IMU,254394208,-176,-659,16645,-49,59,16,404,217,262,0,3536
RAW_IMU,254415210,-92,-645,16641,-59,58,6,388,217,269,0,3584
RAW_IMU,254436211,-118,-635,16606,-58,56,9,391,217,264,0,3536
RAW_IMU,254457209,-17,-682,16671,-86,57,18,395,209,273,0,3616
RAW_IMU,254478211,-88,-710,16683,-78,61,16,396,217,269,0,3584
RAW_IMU,254499209,-84,-625,16624,-53,59,20,396,210,269,0,3552
RAW_IMU,254520375,-167,-648,16616,-59,68,33,403,219,261,0,3440
RAW_IMU,254541210,-146,-694,16561,-80,62,4,399,220,264,0,3520
RAW_IMU,254562208,-161,-614,16534,-61,53,14,396,225,267,0,3536
RAW_IMU,254583210,-101,-673,16670,-57,52,25,401,222,274,0,3520
RAW_IMU,254604208,-63,-653,16537,-68,71,14,401,213,282,0,3536
RAW_IMU,254625209,-114,-689,16670,-49,50,21,395,221,263,0,3600
RAW_IMU,254646208,-137,-702,16576,-67,67,21,399,222,262,0,3520
RAW_IMU,254667210,-102,-612,16585,-73,52,17,394,222,262,0,3584
RAW_IMU,254688208,-112,-643,16607,-75,57,22,401,220,267,0,3472
RAW_IMU,254709210,-115,-722,16621,-64,60,9,394,220,264,0,3440
RAW_IMU,254730209,-11,-655,16571,-65,46,17,396,220,272,0,3552
RAW_IMU,254751211,-237,-579,16642,-85,46,16,395,216,268,0,3520
RAW_IMU,254772209,-166,-583,16638,-65,56,31,403,216,275,0,3536
RAW_IMU,254793211,-68,-629,16606,-62,65,18,403,226,268,0,3552
RAW_IMU,254814209,-14,-705,16615,-74,66,10,388,225,272,0,3488
RAW_IMU,254835208,-67,-754,16661,-65,58,32,404,225,277,0,3536
RAW_IMU,254856210,-91,-644,16556,-53,35,19,397,211,275,0,3584
RAW_IMU,254877208,-98,-534,16634,-62,63,10,396,210,262,0,3584
RAW_IMU,254898210,-129,-666,16617,-63,52,-2,387,226,261,0,3536
RAW_IMU,254919208,-157,-737,16637,-49,42,24,400,216,268,0,3488
RAW_IMU,254940210,-91,-577,16589,-62,65,4,392,224,273,0,3600
RAW_IMU,254961208,-119,-573,16632,-70,60,2,404,213,272,0,3600
RAW_IMU,254982211,-215,-678,16615,-68,64,18,400,224,271,0,3520
RAW_IMU,255003212,-148,-753,16648,-59,46,14,394,220,269,0,3584
RAW_IMU,255024209,-117,-605,16623,-62,51,24,395,226,271,0,3488
RAW_IMU,255045208,-15,-554,16652,-69,71,30,396,215,267,0,3520
RAW_IMU,255066210,-184,-678,16627,-67,63,17,392,216,266,0,3488
RAW_IMU,255087208,-200,-661,16651,-71,65,3,394,220,267,0,3520
RAW_IMU,255108210,-118,-629,16654,-63,50,17,404,220,262,0,3424
RAW_IMU,255129209,-160,-700,16788,-73,61,23,396,215,269,0,3584
RAW_IMU,255150209,-162,-671,16638,-57,41,22,399,222,269,0,3520
RAW_IMU,255171211,-163,-678,16685,-75,44,31,395,224,268,0,3488
RAW_IMU,255192209,-205,-549,16468,-64,47,17,391,222,267,0,3584
RAW_IMU,255213211,-131,-605,16642,-55,55,23,394,215,272,0,3472
RAW_IMU,255234211,-155,-622,16635,-40,51,26,396,217,277,0,3616
RAW_IMU,255255210,-56,-677,16682,-64,58,12,399,222,274,0,3536
RAW_IMU,255276208,-106,-680,16646,-72,49,12,410,209,263,0,3520
RAW_IMU,255297210,-50,-716,16675,-40,51,9,387,214,263,0,3552
RAW_IMU,255318208,-89,-628,16643,-54,49,18,397,209,278,0,3440
RAW_IMU,255339211,-115,-695,16601,-80,56,20,396,205,269,0,3552
RAW_IMU,255360209,-169,-684,16635,-55,47,36,399,230,272,0,3536
RAW_IMU,255381211,-96,-667,16593,-44,54,23,392,224,268,0,3488
RAW_IMU,255402209,-67,-616,16651,-52,58,7,386,220,264,0,3536
RAW_IMU,255423211,-139,-665,16594,-72,71,21,399,215,260,0,3488
RAW_IMU,255444210,-119,-667,16615,-78,49,11,388,213,272,0,3488
RAW_IMU,255465208,-76,-643,16622,-54,54,6,396,222,274,0,3552
RAW_IMU,255486209,-140,-647,16579,-79,69,16,392,224,278,0,3440
RAW_IMU,255507211,-176,-669,16611,-69,58,19,399,220,269,0,3536
RAW_IMU,255528209,-101,-678,16586,-61,61,26,404,220,272,0,3440
RAW_IMU,255549208,-130,-666,16665,-58,48,21,395,211,263,0,3552
RAW_IMU,255570209,-93,-655,16648,-83,43,7,403,224,266,0,3472
RAW_IMU,255591211,-158,-682,16657,-68,49,15,408,221,271,0,3488
RAW_IMU,255612209,-172,-685,16555,-66,58,12,397,216,266,0,3536
RAW_IMU,255633210,-109,-677,16605,-55,60,15,391,220,269,0,3488
RAW_IMU,255654209,-135,-626,16593,-55,60,19,397,219,263,0,3488
RAW_IMU,255675211,-99,-687,16620,-67,65,16,395,224,271,0,3520
RAW_IMU,255696209,-71,-580,16622,-69,48,25,391,220,272,0,3584
RAW_IMU,255717211,-92,-706,16589,-67,52,12,395,214,273,0,3488
RAW_IMU,255738213,-174,-607,16652,-67,49,6,400,207,271,0,3600
RAW_IMU,255759211,-125,-639,16593,-79,59,21,397,228,266,0,3584
RAW_IMU,255780209,-101,-670,16649,-68,57,22,392,219,266,0,3536
RAW_IMU,255801211,-142,-596,16595,-53,73,20,399,220,267,0,3488
RAW_IMU,255822209,-110,-577,16676,-74,50,24,396,220,260,0,3440
RAW_IMU,255843210,-146,-672,16579,-79,64,23,397,209,271,0,3552
RAW_IMU,255864208,-142,-634,16658,-73,54,24,395,219,271,0,3488
RAW_IMU,255885210,-171,-631,16642,-72,57,34,403,226,271,0,3520
RAW_IMU,255906208,-99,-622,16614,-59,66,27,396,210,257,0,3584
RAW_IMU,255927210,-96,-691,16602,-82,68,32,404,210,267,0,3520
RAW_IMU,255948208,-164,-580,16603,-65,57,15,399,208,274,0,3552
RAW_IMU,255969210,-108,-699,16687,-57,54,35,400,214,261,0,3536
RAW_IMU,255990208,-139,-640,16639,-55,52,9,399,213,262,0,3584
RAW_IMU,256011208,-92,-629,16564,-81,64,18,397,219,263,0,3488
RAW_IMU,256032209,-62,-659,16654,-71,58,20,392,221,266,0,3488
RAW_IMU,256053208,-83,-619,16584,-60,63,20,404,222,267,0,3552
RAW_IMU,256074211,-107,-623,16605,-63,46,27,394,215,267,0,3584
RAW_IMU,256095209,-104,-658,16652,-66,36,6,392,216,268,0,3600
RAW_IMU,256116211,-74,-599,16657,-55,44,23,401,222,269,0,3584
RAW_IMU,256137210,-116,-702,16579,-75,67,14,400,211,266,0,3520
RAW_IMU,256158209,-215,-705,16656,-68,58,27,390,219,271,0,3552
RAW_IMU,256179211,-120,-625,16616,-66,73,41,405,214,261,0,3488
RAW_IMU,256200209,-166,-694,16595,-60,56,23,386,217,264,0,3520
RAW_IMU,256221211,-76,-646,16697,-63,52,-3,400,211,266,0,3488
RAW_IMU,256242208,-107,-627,16604,-74,63,7,396,217,269,0,3488
RAW_IMU,256263209,-115,-645,16575,-67,66,7,401,222,264,0,3584
RAW_IMU,256284211,-78,-740,16681,-50,52,25,392,221,263,0,3552
RAW_IMU,256305209,-112,-697,16711,-69,54,32,391,232,269,0,3552
RAW_IMU,256326211,-171,-623,16730,-50,55,20,391,217,269,0,3520
RAW_IMU,256347210,-143,-611,16629,-83,72,36,403,219,268,0,3520
RAW_IMU,256368208,-122,-652,16665,-71,48,15,403,219,263,0,3488
RAW_IMU,256389209,-104,-618,16600,-68,53,20,388,210,269,0,3536
RAW_IMU,256410211,-127,-653,16605,-40,48,32,395,221,266,0,3536
RAW_IMU,256431209,-105,-628,16537,-56,57,16,400,221,273,0,3488
RAW_IMU,256452210,-90,-729,16647,-58,45,34,390,214,261,0,3584
RAW_IMU,256473208,-126,-608,16584,-53,50,1,397,221,268,0,3584
RAW_IMU,256494210,-102,-668,16604,-66,49,18,404,210,264,0,3584
RAW_IMU,256515208,-195,-671,16641,-69,44,15,400,216,266,0,3552
RAW_IMU,256536210,-139,-618,16614,-53,61,20,397,216,271,0,3536
RAW_IMU,256557211,-98,-665,16576,-65,55,24,400,224,266,0,3584
RAW_IMU,256578209,-133,-721,16597,-65,58,19,403,214,266,0,3584
RAW_IMU,256599211,-115,-674,16657,-70,66,7,388,210,279,0,3600
RAW_IMU,256620209,-120,-612,16594,-68,48,15,405,221,263,0,3552
RAW_IMU,256641375,-76,-656,16632,-52,39,12,395,219,266,0,3488
RAW_IMU,256662210,-131,-634,16605,-65,46,9,408,211,266,0,3520
RAW_IMU,256683208,-104,-655,16630,-59,58,19,392,216,273,0,3552
RAW_IMU,256704210,-61,-676,16570,-62,59,21,400,228,271,0,3488
RAW_IMU,256725208,-105,-635,16594,-67,58,16,396,222,260,0,3472
RAW_IMU,256746209,-114,-639,16650,-53,57,5,397,216,268,0,3520
RAW_IMU,256767208,-137,-600,16638,-62,45,23,395,209,261,0,3488
RAW_IMU,256788210,-45,-638,16644,-60,50,28,404,227,267,0,3536
RAW_IMU,256809208,-127,-668,16687,-71,54,22,390,221,266,0,3584
RAW_IMU,256830210,-94,-704,16656,-57,48,12,397,216,271,0,3408
RAW_IMU,256851209,-107,-642,16729,-53,65,19,394,213,269,0,3552
RAW_IMU,256872211,-73,-639,16603,-78,77,-2,397,219,266,0,3552
RAW_IMU,256893209,-77,-666,16631,-56,67,29,395,216,263,0,3488
RAW_IMU,256914211,-67,-689,16589,-48,46,10,399,215,269,0,3584
RAW_IMU,256935209,-145,-609,16602,-62,58,23,405,216,275,0,3536
RAW_IMU,256956208,-166,-619,16601,-58,59,18,408,219,266,0,3520
RAW_IMU,256977210,-133,-615,16611,-59,52,11,401,222,262,0,3600
RAW_IMU,256998208,-76,-668,16608,-64,58,19,396,220,267,0,3488
RAW_IMU,257019209,-101,-641,16671,-58,47,39,394,220,269,0,3536
RAW_IMU,257040211,-163,-609,16629,-55,54,13,397,211,271,0,3424
RAW_IMU,257061210,-98,-696,16571,-57,62,33,407,210,274,0,3584
RAW_IMU,257082208,-192,-691,16665,-62,54,8,396,220,267,0,3520
RAW_IMU,257103209,-106,-607,16623,-60,56,29,378,225,269,0,3520
RAW_IMU,257124211,-171,-666,16608,-56,46,15,388,230,269,0,3520
RAW_IMU,257145209,-112,-607,16578,-47,44,18,396,217,267,0,3520
RAW_IMU,257166208,-85,-636,16564,-64,43,19,403,219,266,0,3520
RAW_IMU,257187210,-107,-635,16590,-76,50,3,387,214,266,0,3600
RAW_IMU,257208208,-178,-696,16620,-78,50,8,396,217,269,0,3600
RAW_IMU,257229210,-134,-638,16613,-75,57,12,400,226,256,0,3584
RAW_IMU,257250209,-35,-709,16661,-65,48,16,400,219,266,0,3488
RAW_IMU,257271209,-160,-624,16628,-63,62,19,395,221,268,0,3536
RAW_IMU,257292211,-52,-631,16656,-78,46,13,386,215,269,0,3520
RAW_IMU,257313209,-97,-688,16642,-72,56,11,403,211,258,0,3536
RAW_IMU,257334211,-148,-591,16600,-46,50,21,397,221,266,0,3488
RAW_IMU,257355211,-70,-605,16641,-58,62,29,395,214,263,0,3536
RAW_IMU,257376210,-130,-555,16637,-74,76,16,390,215,272,0,3536
RAW_IMU,257397208,-144,-677,16627,-72,61,8,392,219,275,0,3600
RAW_IMU,257418210,-98,-685,16651,-46,52,24,390,216,261,0,3584
RAW_IMU,257439208,-43,-609,16642,-63,71,6,405,226,261,0,3440
RAW_IMU,257460211,-94,-639,16581,-73,58,19,394,217,269,0,3536
RAW_IMU,257481209,-80,-684,16632,-78,59,28,396,215,262,0,3536
RAW_IMU,257502211,-94,-614,16581,-67,53,28,392,216,268,0,3584
RAW_IMU,257523209,-101,-646,16600,-71,64,11,395,216,278,0,3488
RAW_IMU,257544211,-89,-625,16633,-66,63,13,399,217,262,0,3440
RAW_IMU,257565210,-85,-677,16574,-48,65,11,396,222,272,0,3616
RAW_IMU,257586208,-55,-623,16674,-66,59,10,391,217,269,0,3520
RAW_IMU,257607209,-142,-601,16665,-71,58,17,400,214,263,0,3520
RAW_IMU,257628211,-109,-692,16651,-67,47,7,399,217,267,0,3600
RAW_IMU,257649209,-129,-623,16671,-51,45,16,388,210,262,0,3536
RAW_IMU,257670208,-98,-617,16614,-65,64,24,403,219,268,0,3584
RAW_IMU,257691209,-165,-607,16692,-67,30,5,395,216,271,0,3520
RAW_IMU,257712211,-115,-652,16677,-76,69,4,395,214,268,0,3488
RAW_IMU,257733209,-147,-640,16685,-52,49,27,388,215,267,0,3600
RAW_IMU,257754210,-136,-666,16615,-68,49,22,399,220,274,0,3600
RAW_IMU,257775209,-75,-690,16675,-57,44,11,388,225,277,0,3552
RAW_IMU,257796211,-137,-685,16599,-75,59,22,397,216,273,0,3600
RAW_IMU,257817209,-84,-668,16614,-68,54,27,403,219,263,0,3520
RAW_IMU,257838211,-91,-694,16637,-71,41,23,405,216,266,0,3536
RAW_IMU,257859213,-61,-611,16632,-60,59,15,396,217,269,0,3488
RAW_IMU,257880211,-121,-594,16656,-68,57,14,388,208,269,0,3552
RAW_IMU,257901209,-142,-650,16651,-55,57,13,400,224,271,0,3488
RAW_IMU,257922211,-59,-713,16635,-68,61,21,397,214,256,0,3488
RAW_IMU,257943209,-137,-633,16615,-66,59,9,395,216,263,0,3408
RAW_IMU,257964210,-111,-716,16660,-82,50,23,399,220,272,0,3536
RAW_IMU,257985208,-105,-575,16589,-63,48,11,401,217,264,0,3552
RAW_IMU,258006209,-99,-628,16594,-68,53,26,408,219,266,0,3520
RAW_IMU,258027211,-44,-615,16673,-45,54,11,401,210,269,0,3536
RAW_IMU,258048209,-138,-565,16536,-70,53,31,394,208,267,0,3488
RAW_IMU,258069210,-131,-631,16670,-81,66,30,401,222,267,0,3584
RAW_IMU,258090208,-224,-662,16562,-55,71,28,416,221,271,0,3600
RAW_IMU,258111210,-84,-602,16600,-75,64,10,395,216,268,0,3584
RAW_IMU,258132208,-75,-699,16705,-68,59,27,388,222,264,0,3536
RAW_IMU,258153210,-76,-653,16639,-51,50,23,391,220,274,0,3488
RAW_IMU,258174209,-172,-677,16668,-46,57,18,399,225,262,0,3520
RAW_IMU,258195211,-46,-618,16617,-40,39,21,386,222,264,0,3552
RAW_IMU,258216209,-115,-551,16560,-83,57,27,396,217,257,0,3616
RAW_IMU,258237211,-131,-722,16632,-70,59,25,407,215,272,0,3552
RAW_IMU,258258210,-169,-710,16587,-46,48,10,379,211,263,0,3488
RAW_IMU,258279209,-103,-611,16584,-68,55,17,405,226,273,0,3488
RAW_IMU,258300211,-171,-636,16711,-61,62,26,391,215,264,0,3584
RAW_IMU,258321209,-203,-668,16615,-61,65,8,401,210,267,0,3552
RAW_IMU,258342211,-100,-715,16598,-48,53,25,403,209,271,0,3552
RAW_IMU,258363208,-84,-606,16592,-58,53,20,394,220,272,0,3408
RAW_IMU,258384209,-131,-713,16613,-71,65,24,396,220,264,0,3536
RAW_IMU,258405211,-138,-665,16685,-71,69,14,397,221,280,0,3536
RAW_IMU,258426209,-132,-680,16516,-38,49,8,388,220,269,0,3584
RAW_IMU,258447211,-130,-593,16477,-68,57,24,401,217,262,0,3520
RAW_IMU,258468210,29,-565,16413,-61,65,18,384,224,258,0,3584
RAW_IMU,258489208,24,-681,16651,-55,59,10,392,214,266,0,3584
RAW_IMU,258510209,-24,-692,16695,-54,48,20,405,221,266,0,3552
RAW_IMU,258531211,-104,-740,16671,-64,39,23,394,208,262,0,3536
RAW_IMU,258552209,-165,-616,16635,-70,59,14,403,209,271,0,3488
RAW_IMU,258573210,-94,-619,16617,-75,51,14,404,215,260,0,3536
RAW_IMU,258594208,-104,-558,16535,-79,63,11,403,214,268,0,3600
RAW_IMU,258615210,-94,-713,16637,-74,50,13,391,215,272,0,3536
RAW_IMU,258636208,-95,-643,16586,-70,62,19,403,221,273,0,3520
RAW_IMU,258657210,-189,-593,16564,-61,67,15,392,219,261,0,3488
RAW_IMU,258678211,-16,-679,16633,-61,50,27,408,214,261,0,3552
RAW_IMU,258699209,-96,-645,16640,-50,57,20,401,222,262,0,3584
RAW_IMU,258720211,-181,-592,16641,-66,53,21,400,219,268,0,3536
RAW_IMU,258741209,-90,-691,16618,-63,66,12,394,213,267,0,3552
RAW_IMU,258762375,-73,-612,16614,-68,60,17,395,219,275,0,3440
RAW_IMU,258783210,-192,-620,16676,-58,51,10,400,216,271,0,3600
RAW_IMU,258804208,-139,-613,16626,-69,62,5,396,222,272,0,3616
RAW_IMU,258825210,-100,-627,16647,-69,64,12,403,221,268,0,3536
RAW_IMU,258846208,-87,-688,16656,-49,72,2,391,227,269,0,3584
RAW_IMU,258867209,-91,-623,16608,-74,54,10,395,209,271,0,3536
RAW_IMU,258888208,-122,-609,16627,-63,68,10,401,215,267,0,3584
RAW_IMU,258909210,-48,-630,16576,-71,65,21,391,208,267,0,3552
RAW_IMU,258930208,-139,-625,16614,-66,58,28,397,221,268,0,3584
RAW_IMU,258951210,-153,-630,16578,-75,54,33,388,215,264,0,3584
RAW_IMU,258972209,-160,-685,16630,-70,62,31,395,224,266,0,3520
RAW_IMU,258993211,-67,-690,16644,-58,56,28,395,221,268,0,3648
RAW_IMU,259014210,-114,-697,16628,-67,42,28,408,214,263,0,3616
RAW_IMU,259035208,-104,-650,16622,-56,64,2,401,208,267,0,3520
RAW_IMU,259056210,-110,-722,16609,-62,46,14,399,215,267,0,3552
RAW_IMU,259077208,-128,-680,16599,-62,58,14,405,216,275,0,3536
RAW_IMU,259098210,-159,-637,16653,-68,49,9,396,225,264,0,3536
RAW_IMU,259119208,-96,-675,16660,-56,57,1,395,211,268,0,3536
RAW_IMU,259140210,-124,-646,16657,-65,56,17,395,216,273,0,3520
RAW_IMU,259161208,-71,-572,16599,-66,53,5,395,221,268,0,3520
RAW_IMU,259182210,-89,-678,16629,-61,61,16,400,221,271,0,3616
RAW_IMU,259203208,-200,-699,16625,-54,46,11,399,208,257,0,3552
RAW_IMU,259224211,-43,-650,16605,-59,65,26,396,217,267,0,3536
RAW_IMU,259245209,-81,-666,16629,-56,49,5,394,215,262,0,3488
RAW_IMU,259266211,-154,-576,16605,-58,58,10,391,220,260,0,3488
RAW_IMU,259287210,-81,-618,16634,-69,58,12,397,224,261,0,3584
RAW_IMU,259308208,-189,-640,16641,-44,48,20,396,225,264,0,3520
RAW_IMU,259329209,-20,-660,16617,-72,55,20,392,228,275,0,3600
RAW_IMU,259350211,-158,-692,16672,-55,50,14,404,213,267,0,3584
RAW_IMU,259371210,-121,-639,16648,-51,67,23,396,210,267,0,3520
RAW_IMU,259392209,-75,-645,16662,-49,51,16,392,209,266,0,3536
RAW_IMU,259413211,-51,-653,16600,-64,55,25,399,215,267,0,3648
RAW_IMU,259434209,-28,-620,16582,-66,55,1,397,221,271,0,3600
RAW_IMU,259455211,-153,-659,16598,-60,42,22,399,213,257,0,3648
RAW_IMU,259476211,-59,-674,16682,-58,44,23,400,221,268,0,3488
RAW_IMU,259497210,-200,-623,16612,-78,59,14,405,209,268,0,3584
RAW_IMU,259518208,-119,-628,16657,-65,65,18,403,204,258,0,3600
RAW_IMU,259539210,-125,-611,16674,-58,55,19,397,211,268,0,3584
RAW_IMU,259560208,-121,-651,16583,-54,52,17,392,219,263,0,3488
RAW_IMU,259581211,-107,-631,16674,-68,70,25,404,220,271,0,3584
RAW_IMU,259602209,-85,-612,16652,-59,51,26,399,217,272,0,3584
RAW_IMU,259623211,-126,-593,16634,-66,69,18,404,213,262,0,3600
RAW_IMU,259644209,-101,-623,16654,-63,40,20,384,219,266,0,3600
RAW_IMU,259665211,-178,-670,16611,-68,64,11,392,214,263,0,3520
RAW_IMU,259686210,-192,-644,16672,-57,63,24,396,220,264,0,3600
RAW_IMU,259707208,-124,-672,16625,-71,59,15,399,222,267,0,3552
RAW_IMU,259728209,-92,-649,16644,-50,56,23,400,216,268,0,3536
RAW_IMU,259749211,-161,-679,16617,-72,50,13,399,215,269,0,3520
RAW_IMU,259770209,-94,-599,16704,-52,48,15,399,210,267,0,3488
RAW_IMU,259791208,-88,-567,16640,-68,52,29,401,215,267,0,3600
RAW_IMU,259812209,-69,-618,16662,-55,56,22,396,215,269,0,3536
RAW_IMU,259833211,-107,-612,16646,-62,55,18,392,224,268,0,3584
RAW_IMU,259854209,-116,-618,16600,-62,67,20,399,225,262,0,3584
RAW_IMU,259875210,-119,-721,16622,-57,55,17,404,227,262,0,3488
RAW_IMU,259896209,-104,-656,16618,-70,48,19,395,221,256,0,3536
RAW_IMU,259917211,-157,-699,16667,-74,72,2,399,220,272,0,3536
RAW_IMU,259938209,-120,-666,16637,-50,55,13,408,211,268,0,3536
RAW_IMU,259959211,-142,-613,16604,-72,53,15,404,227,269,0,3584
RAW_IMU,259980213,-117,-586,16649,-62,63,27,399,217,267,0,3472
RAW_IMU,260001208,-91,-690,16659,-56,55,19,399,217,269,0,3552
RAW_IMU,260022210,-116,-600,16652,-53,55,11,400,219,268,0,3552
RAW_IMU,260043208,-148,-597,16644,-63,45,9,388,217,262,0,3584
RAW_IMU,260064210,-124,-626,16650,-61,60,12,397,214,263,0,3488
RAW_IMU,260085211,-152,-634,16620,-50,48,12,400,219,273,0,3488
RAW_IMU,260106209,-145,-625,16663,-61,79,22,401,222,267,0,3552
RAW_IMU,260127211,-81,-601,16674,-41,48,20,405,224,266,0,3520
RAW_IMU,260148209,-119,-685,16589,-66,66,15,399,225,257,0,3616
RAW_IMU,260169211,-116,-640,16606,-62,52,26,395,216,268,0,3520
RAW_IMU,260190208,-142,-667,16594,-56,46,5,391,210,262,0,3488
RAW_IMU,260211210,-90,-630,16577,-60,47,21,403,226,271,0,3584
RAW_IMU,260232208,-56,-717,16623,-66,60,26,408,214,263,0,3584
RAW_IMU,260253210,-120,-700,16676,-69,47,6,405,214,266,0,3584
RAW_IMU,260274208,-84,-677,16625,-67,56,6,395,216,263,0,3408
RAW_IMU,260295208,-106,-607,16636,-67,46,19,403,221,266,0,3552
RAW_IMU,260316210,-154,-711,16637,-48,53,8,386,213,269,0,3488
RAW_IMU,260337208,-106,-654,16619,-67,45,39,407,213,274,0,3552
RAW_IMU,260358210,-144,-673,16668,-56,53,20,395,211,273,0,3600
RAW_IMU,260379209,-130,-602,16598,-73,67,13,395,226,268,0,3552
RAW_IMU,260400208,-18,-624,16627,-65,57,22,403,216,266,0,3488
RAW_IMU,260421210,-70,-599,16700,-64,59,17,399,222,269,0,3520
RAW_IMU,260442208,-145,-696,16628,-59,61,12,390,216,261,0,3536
RAW_IMU,260463210,-108,-676,16622,-46,46,23,403,219,268,0,3616
RAW_IMU,260484211,-100,-667,16597,-57,64,29,397,216,266,0,3408
RAW_IMU,260505208,-256,-641,16622,-70,50,26,397,224,268,0,3536
RAW_IMU,260526210,-141,-664,16549,-82,67,27,399,220,267,0,3552
RAW_IMU,260547208,-75,-624,16606,-63,64,11,407,217,274,0,3600
RAW_IMU,260568210,-116,-669,16640,-40,50,31,391,215,260,0,3520
RAW_IMU,260589209,-91,-649,16629,-60,62,19,407,222,272,0,3488
RAW_IMU,260610211,-67,-545,16644,-78,60,10,399,210,274,0,3520
RAW_IMU,260631209,-132,-681,16612,-88,67,11,399,213,269,0,3584
RAW_IMU,260652211,-231,-759,16557,-58,49,22,397,211,268,0,3600
RAW_IMU,260673209,-190,-659,16563,-52,41,15,403,221,271,0,3488
RAW_IMU,260694210,-29,-640,16628,-79,47,17,397,211,271,0,3616
RAW_IMU,260715208,-66,-583,16692,-72,71,14,397,211,278,0,3584
RAW_IMU,260736210,-110,-650,16610,-82,41,23,403,221,266,0,3600
RAW_IMU,260757208,-109,-661,16648,-57,66,11,401,230,260,0,3584
RAW_IMU,260778210,-74,-543,16644,-64,57,35,400,224,273,0,3488
RAW_IMU,260799211,-150,-620,16612,-68,51,23,400,216,263,0,3616
RAW_IMU,260820209,-101,-699,16592,-51,62,19,395,219,263,0,3584
RAW_IMU,260841211,-207,-654,16671,-49,51,29,392,221,258,0,3536
RAW_IMU,260862209,-119,-570,16692,-53,52,21,403,224,275,0,3584
RAW_IMU,260883375,-74,-632,16677,-82,65,18,397,219,266,0,3520
RAW_IMU,260904210,-94,-711,16687,-68,60,11,390,214,266,0,3600
RAW_IMU,260925208,-61,-681,16601,-39,70,18,397,226,278,0,3584
RAW_IMU,260946210,-70,-679,16627,-64,55,16,395,216,271,0,3488
RAW_IMU,260967208,-35,-687,16609,-69,71,20,386,213,272,0,3584
RAW_IMU,260988209,-111,-669,16647,-57,50,22,403,211,263,0,3488
RAW_IMU,261009210,-110,-657,16616,-46,52,24,390,221,263,0,3584
RAW_IMU,261030208,-146,-631,16653,-68,59,29,401,215,267,0,3600
RAW_IMU,261051210,-60,-594,16619,-66,65,23,395,226,261,0,3584
RAW_IMU,261072208,-126,-638,16589,-63,64,24,392,214,268,0,3552
RAW_IMU,261093210,-47,-623,16592,-74,50,21,403,216,263,0,3520
RAW_IMU,261114208,-137,-607,16621,-62,49,27,396,213,269,0,3472
RAW_IMU,261135211,-61,-643,16589,-55,53,29,400,209,275,0,3600
RAW_IMU,261156209,-146,-632,16623,-53,64,10,399,222,272,0,3600
RAW_IMU,261177211,-129,-687,16614,-56,57,12,394,220,264,0,3600
RAW_IMU,261198210,-112,-578,16669,-57,58,23,396,213,262,0,3584
RAW_IMU,261219208,-42,-673,16654,-73,57,25,397,221,263,0,3584
RAW_IMU,261240210,-100,-638,16630,-64,48,16,394,227,274,0,3520
RAW_IMU,261261208,-178,-666,16601,-73,61,17,400,209,266,0,3536
RAW_IMU,261282210,-136,-618,16558,-57,64,13,397,221,246,0,3520
RAW_IMU,261303208,-51,-635,16649,-61,54,34,394,213,262,0,3584
RAW_IMU,261324210,-128,-633,16619,-51,49,29,397,219,271,0,3664
RAW_IMU,261345208,-121,-656,16675,-62,55,15,396,215,279,0,3584
RAW_IMU,261366210,-143,-653,16702,-41,58,27,392,211,271,0,3552
RAW_IMU,261387208,-99,-641,16600,-85,59,13,396,210,264,0,3520
RAW_IMU,261408210,-102,-688,16633,-75,65,21,403,214,258,0,3584
RAW_IMU,261429208,-134,-603,16679,-42,51,-3,396,215,274,0,3552
RAW_IMU,261450211,-67,-701,16693,-57,62,24,394,217,274,0,3584
RAW_IMU,261471209,-102,-722,16637,-56,63,15,401,220,267,0,3488
RAW_IMU,261492208,-15,-598,16660,-81,59,15,395,216,273,0,3472
RAW_IMU,261513207,-132,-665,16623,-52,51,8,399,215,272,0,3584
RAW_IMU,261534209,-179,-687,16616,-55,57,19,394,213,260,0,3600
RAW_IMU,261555211,-176,-605,16621,-64,62,21,395,226,263,0,3616
RAW_IMU,261576209,-131,-638,16674,-63,46,12,397,216,273,0,3600
RAW_IMU,261597209,-85,-676,16692,-57,42,24,395,219,271,0,3488
RAW_IMU,261618211,-132,-633,16572,-65,48,18,397,221,263,0,3648
RAW_IMU,261639209,-161,-712,16628,-75,65,7,392,231,273,0,3552
RAW_IMU,261660211,-87,-653,16647,-74,63,12,399,210,260,0,3664
RAW_IMU,261681209,-149,-673,16605,-56,73,23,404,215,274,0,3520
RAW_IMU,261702208,-73,-668,16581,-67,64,2,403,214,263,0,3536
RAW_IMU,261723210,-97,-650,16646,-65,48,14,413,219,268,0,3536
RAW_IMU,261744208,-83,-660,16578,-62,61,20,400,228,268,0,3520
RAW_IMU,261765210,-19,-641,16586,-53,48,10,407,208,269,0,3536
RAW_IMU,261786208,-118,-683,16608,-69,57,14,388,217,264,0,3488
RAW_IMU,261807210,-44,-605,16592,-51,47,30,391,220,269,0,3552
RAW_IMU,261828208,-69,-710,16650,-55,51,25,399,215,264,0,3488
RAW_IMU,261849211,-74,-688,16610,-66,61,18,399,215,264,0,3536
RAW_IMU,261870209,-148,-624,16582,-67,56,37,392,216,268,0,3584
RAW_IMU,261891211,-125,-620,16644,-60,50,24,404,215,269,0,3440
RAW_IMU,261912210,-102,-614,16547,-65,56,12,400,221,261,0,3600
RAW_IMU,261933208,-63,-695,16692,-66,67,21,397,221,258,0,3552
RAW_IMU,261954209,-84,-640,16694,-75,62,26,394,217,272,0,3584
RAW_IMU,261975211,-66,-706,16619,-60,70,12,395,216,268,0,3520
RAW_IMU,261996212,-227,-590,16724,-56,59,2,394,210,272,0,3520
RAW_IMU,262017210,-134,-630,16639,-76,53,12,395,233,275,0,3552
RAW_IMU,262038207,-118,-715,16616,-63,58,23,410,221,273,0,3520
RAW_IMU,262059209,-127,-649,16564,-63,47,16,405,219,275,0,3520
RAW_IMU,262080211,-174,-671,16642,-72,55,16,405,214,266,0,3488
RAW_IMU,262101213,-146,-648,16585,-76,69,23,396,217,279,0,3520
RAW_IMU,262122211,-151,-682,16680,-68,59,19,382,219,273,0,3488
RAW_IMU,262143209,-115,-661,16603,-73,55,8,395,211,273,0,3536
RAW_IMU,262164211,-78,-651,16558,-49,61,19,395,219,271,0,3488
RAW_IMU,262185209,-65,-692,16650,-44,53,12,397,216,278,0,3520
RAW_IMU,262206210,-140,-681,16649,-60,69,25,388,227,272,0,3472
RAW_IMU,262227208,-68,-697,16675,-66,56,12,400,219,263,0,3536
RAW_IMU,262248210,-159,-633,16620,-64,59,22,394,213,264,0,3552
RAW_IMU,262269208,-94,-624,16639,-68,51,24,401,225,267,0,3488
RAW_IMU,262290210,-84,-633,16634,-71,58,3,405,224,273,0,3552
RAW_IMU,262311208,-111,-669,16569,-53,60,22,392,224,266,0,3472
RAW_IMU,262332210,-132,-654,16611,-59,58,26,401,210,267,0,3584
RAW_IMU,262353208,-123,-638,16620,-57,64,19,396,215,269,0,3600
RAW_IMU,262374210,-56,-634,16622,-66,58,11,405,226,273,0,3616
RAW_IMU,262395208,-81,-690,16615,-59,53,18,400,216,271,0,3488
RAW_IMU,262416208,-97,-683,16614,-69,54,13,391,225,269,0,3616
RAW_IMU,262437210,-103,-635,16641,-62,43,12,397,221,268,0,3536
RAW_IMU,262458208,-90,-674,16584,-63,69,17,408,221,266,0,3616
RAW_IMU,262479210,-54,-672,16623,-66,60,9,387,214,273,0,3520
RAW_IMU,262500209,-131,-597,16572,-60,58,4,397,221,261,0,3472
RAW_IMU,262521208,-125,-708,16544,-75,61,22,394,220,274,0,3552
RAW_IMU,262542210,-87,-674,16657,-73,49,33,391,220,269,0,3552
RAW_IMU,262563208,-123,-595,16597,-55,59,1,403,214,258,0,3600
RAW_IMU,262584210,-126,-655,16593,-62,52,22,401,220,260,0,3600
RAW_IMU,262605211,-127,-693,16604,-63,46,19,397,209,261,0,3520
RAW_IMU,262626208,-128,-714,16625,-61,47,19,384,224,268,0,3600
RAW_IMU,262647210,-90,-644,16605,-45,54,26,401,222,269,0,3584
RAW_IMU,262668208,-130,-595,16609,-65,57,25,395,216,275,0,3584
RAW_IMU,262689210,-102,-622,16590,-73,67,19,396,217,272,0,3600
RAW_IMU,262710209,-75,-664,16659,-57,52,25,388,222,264,0,3536
RAW_IMU,262731211,-86,-663,16624,-56,51,24,394,215,272,0,3552
RAW_IMU,262752209,-59,-664,16671,-58,55,23,396,217,267,0,3584
RAW_IMU,262773211,-112,-656,16637,-67,41,24,407,220,274,0,3552
RAW_IMU,262794209,-172,-581,16632,-50,63,20,403,219,263,0,3552
RAW_IMU,262815210,-60,-627,16609,-63,75,36,399,213,269,0,3536
RAW_IMU,262836208,-141,-669,16632,-68,64,13,394,215,272,0,3600
RAW_IMU,262857210,-88,-663,16608,-77,48,20,403,219,268,0,3584
RAW_IMU,262878208,-108,-713,16612,-53,52,18,401,222,267,0,3600
RAW_IMU,262899210,-104,-633,16603,-68,59,12,401,217,272,0,3584
RAW_IMU,262920211,-198,-606,16665,-61,59,21,397,216,271,0,3600
RAW_IMU,262941209,-94,-635,16609,-63,59,26,399,215,257,0,3552
RAW_IMU,262962211,-134,-667,16610,-55,54,10,407,220,262,0,3584
RAW_IMU,262983209,-104,-660,16634,-73,68,19,396,217,264,0,3584
RAW_IMU,263004375,-116,-736,16600,-46,46,23,395,209,271,0,3488
RAW_IMU,263025209,-48,-657,16622,-67,53,6,396,217,264,0,3584
RAW_IMU,263046211,-120,-632,16663,-42,52,14,396,215,267,0,3536
RAW_IMU,263067209,-129,-653,16619,-64,59,18,399,215,262,0,3552
RAW_IMU,263088211,-124,-634,16658,-70,49,12,405,214,268,0,3536
RAW_IMU,263109208,-142,-656,16633,-48,56,20,396,220,269,0,3440
RAW_IMU,263130207,-194,-688,16561,-57,50,23,401,213,272,0,3584
RAW_IMU,263151209,-115,-635,16640,-61,62,-1,396,215,272,0,3488
RAW_IMU,263172211,-139,-620,16620,-58,55,16,399,210,269,0,3600
RAW_IMU,263193209,-66,-736,16614,-67,49,18,387,216,263,0,3584
RAW_IMU,263214208,-103,-688,16659,-63,41,17,408,219,258,0,3520
RAW_IMU,263235210,-122,-614,16616,-61,63,7,395,219,273,0,3552
RAW_IMU,263256208,-171,-679,16678,-66,51,22,401,225,277,0,3552
RAW_IMU,263277210,-135,-603,16611,-70,75,26,400,219,263,0,3584
RAW_IMU,263298208,-132,-698,16607,-66,58,21,396,215,269,0,3520
RAW_IMU,263319211,-131,-653,16640,-53,47,0,401,220,277,0,3584
RAW_IMU,263340209,-126,-633,16687,-66,67,20,395,216,268,0,3584
RAW_IMU,263361211,-174,-704,16618,-66,62,22,396,225,264,0,3600
RAW_IMU,263382209,-90,-624,16653,-51,61,10,401,210,272,0,3584
RAW_IMU,263403211,-168,-634,16632,-69,55,12,391,222,257,0,3600
RAW_IMU,263424210,-139,-633,16600,-75,43,7,394,220,269,0,3536
RAW_IMU,263445208,-130,-646,16592,-67,56,12,395,231,273,0,3600
RAW_IMU,263466209,-110,-715,16642,-62,51,13,399,215,272,0,3520
RAW_IMU,263487211,-120,-684,16640,-59,46,19,387,221,268,0,3520
RAW_IMU,263508209,-64,-579,16574,-60,58,18,404,214,268,0,3536
RAW_IMU,263529208,-88,-663,16565,-69,54,13,400,226,271,0,3616
RAW_IMU,263550210,-100,-597,16622,-80,44,21,403,209,268,0,3584
RAW_IMU,263571208,-209,-609,16612,-78,70,21,405,219,266,0,3520
RAW_IMU,263592210,-108,-658,16583,-70,41,3,396,227,272,0,3520
RAW_IMU,263613209,-89,-684,16557,-57,63,16,401,220,262,0,3552
RAW_IMU,263634209,-139,-580,16606,-87,58,33,399,222,272,0,3536
RAW_IMU,263655211,-148,-644,16670,-66,49,10,396,217,269,0,3520
RAW_IMU,263676209,-164,-644,16639,-47,66,13,395,219,263,0,3616
RAW_IMU,263697211,-31,-723,16689,-61,52,17,400,226,271,0,3600
RAW_IMU,263718211,-124,-646,16616,-73,56,22,401,213,264,0,3520
RAW_IMU,263739210,-115,-809,16612,-60,41,17,399,213,267,0,3584
RAW_IMU,263760208,-234,-658,16655,-67,71,-1,408,219,261,0,3600
RAW_IMU,263781210,-164,-676,16621,-59,52,17,397,219,268,0,3536
RAW_IMU,263802208,-100,-633,16599,-63,61,34,405,214,266,0,3552
RAW_IMU,263823211,-135,-626,16582,-69,59,7,401,208,277,0,3488
RAW_IMU,263844209,-133,-653,16626,-68,67,10,397,219,266,0,3552
RAW_IMU,263865211,-86,-647,16645,-61,61,32,397,211,268,0,3584
RAW_IMU,263886209,-216,-705,16643,-70,67,26,394,210,264,0,3600
RAW_IMU,263907211,-66,-567,16583,-67,53,31,390,219,271,0,3520
RAW_IMU,263928210,-155,-618,16571,-53,63,30,392,219,263,0,3488
RAW_IMU,263949208,-136,-684,16674,-60,57,24,404,217,262,0,3600
RAW_IMU,263970209,-127,-701,16544,-60,61,24,404,210,277,0,3552
RAW_IMU,263991211,-127,-644,16593,-61,58,6,400,214,261,0,3488
RAW_IMU,264012210,-114,-646,16627,-74,58,10,395,216,263,0,3584
RAW_IMU,264033209,-89,-627,16622,-64,62,26,399,210,274,0,3584
RAW_IMU,264054207,-150,-649,16559,-60,49,17,405,216,261,0,3520
RAW_IMU,264075209,-106,-633,16634,-54,65,13,395,219,263,0,3552
RAW_IMU,264096211,-117,-665,16611,-60,54,22,399,215,264,0,3552
RAW_IMU,264117211,-68,-707,16603,-63,65,21,396,215,274,0,3552
RAW_IMU,264138209,-161,-715,16627,-66,58,14,396,227,269,0,3536
RAW_IMU,264159211,-147,-653,16672,-59,46,24,391,225,267,0,3600
RAW_IMU,264180209,-109,-628,16563,-69,61,23,400,214,266,0,3584
RAW_IMU,264201211,-144,-612,16571,-69,48,16,403,228,261,0,3600
RAW_IMU,264222213,-142,-615,16585,-53,66,22,397,224,271,0,3520
RAW_IMU,264243211,-85,-601,16663,-70,51,21,405,216,273,0,3488
RAW_IMU,264264209,-176,-649,16647,-72,53,17,397,219,268,0,3616
RAW_IMU,264285211,-113,-636,16579,-58,59,17,399,210,269,0,3648
RAW_IMU,264306209,-67,-609,16560,-55,43,10,408,216,263,0,3600
RAW_IMU,264327210,-179,-638,16715,-47,67,15,403,224,273,0,3520
RAW_IMU,264348208,-153,-578,16658,-73,71,5,390,219,261,0,3584
RAW_IMU,264369210,-131,-686,16572,-61,52,7,391,210,260,0,3584
RAW_IMU,264390208,-109,-733,16616,-70,55,36,400,209,271,0,3584
RAW_IMU,264411210,-91,-653,16615,-71,62,10,400,209,268,0,3600
RAW_IMU,264432208,-162,-697,16623,-76,59,23,395,219,258,0,3552
RAW_IMU,264453210,-110,-661,16602,-77,64,15,400,211,266,0,3600
RAW_IMU,264474208,-64,-598,16643,-69,59,22,399,222,267,0,3584
RAW_IMU,264495210,-165,-663,16603,-62,56,14,400,216,266,0,3664
RAW_IMU,264516208,-71,-670,16635,-53,58,21,404,213,262,0,3600
RAW_IMU,264537208,-130,-616,16572,-52,52,35,396,220,272,0,3488
RAW_IMU,264558210,-131,-686,16640,-74,65,31,391,205,262,0,3600
RAW_IMU,264579208,-158,-626,16660,-67,57,35,396,225,264,0,3584
RAW_IMU,264600210,-76,-695,16603,-80,68,9,394,217,271,0,3600
RAW_IMU,264621209,-209,-625,16710,-55,68,22,403,221,268,0,3488
RAW_IMU,264642208,-68,-634,16623,-69,37,28,397,216,261,0,3600
RAW_IMU,264663210,-125,-654,16627,-56,74,23,397,209,271,0,3472
RAW_IMU,264684208,-66,-711,16623,-47,62,13,397,224,283,0,3552
RAW_IMU,264705210,-190,-654,16597,-66,55,16,394,215,274,0,3552
RAW_IMU,264726211,-102,-674,16629,-63,53,13,388,217,262,0,3472
RAW_IMU,264747208,-106,-640,16610,-54,63,6,403,221,261,0,3584
RAW_IMU,264768210,-136,-693,16568,-60,65,13,396,215,257,0,3584
RAW_IMU,264789208,-82,-658,16629,-65,53,10,392,211,263,0,3552
RAW_IMU,264810210,-130,-633,16625,-55,61,0,390,214,268,0,3536
RAW_IMU,264831209,-83,-640,16631,-52,48,28,403,221,266,0,3424
RAW_IMU,264852211,-169,-661,16605,-72,55,27,390,216,271,0,3584
RAW_IMU,264873209,-73,-714,16563,-57,62,22,403,214,268,0,3552
RAW_IMU,264894211,-120,-629,16556,-67,62,8,395,216,273,0,3552
RAW_IMU,264915209,-95,-632,16654,-69,56,31,391,222,269,0,3536
RAW_IMU,264936210,-170,-615,16666,-70,50,23,392,219,266,0,3520
RAW_IMU,264957208,-108,-611,16676,-69,55,7,391,213,267,0,3536
RAW_IMU,264978210,-222,-587,16599,-66,50,27,392,226,268,0,3552
RAW_IMU,264999208,-63,-659,16589,-72,61,17,401,225,269,0,3552
RAW_IMU,265020211,-210,-682,16552,-62,52,19,397,219,266,0,3536
RAW_IMU,265041210,-93,-650,16588,-68,52,19,400,214,271,0,3488
RAW_IMU,265062208,-82,-631,16640,-64,58,25,395,219,266,0,3520
RAW_IMU,265083210,-137,-629,16616,-75,49,8,396,215,264,0,3600
RAW_IMU,265104208,-113,-614,16642,-62,61,16,399,230,267,0,3552
RAW_IMU,265125374,-103,-609,16686,-56,62,2,392,219,261,0,3552
RAW_IMU,265146209,-106,-616,16633,-64,52,23,405,221,280,0,3600
RAW_IMU,265167211,-68,-679,16600,-70,56,15,403,221,261,0,3584
RAW_IMU,265188209,-146,-651,16635,-62,62,24,384,216,273,0,3552
RAW_IMU,265209211,-62,-658,16598,-58,62,18,397,214,271,0,3552
RAW_IMU,265230208,-158,-665,16580,-66,57,20,387,219,263,0,3520
RAW_IMU,265251207,-104,-674,16656,-58,58,21,395,221,278,0,3648
RAW_IMU,265272209,-82,-649,16608,-51,56,6,395,231,266,0,3616
RAW_IMU,265293211,-157,-622,16590,-56,65,16,388,217,269,0,3536
RAW_IMU,265314209,-92,-534,16665,-78,63,17,400,221,266,0,3584
RAW_IMU,265335208,-119,-620,16582,-51,59,15,395,219,263,0,3520
RAW_IMU,265356210,-126,-597,16576,-66,51,14,399,222,264,0,3536
RAW_IMU,265377208,-135,-636,16672,-55,63,23,412,225,267,0,3584
RAW_IMU,265398210,-110,-644,16615,-77,61,5,400,214,256,0,3584
RAW_IMU,265419208,-132,-650,16630,-58,51,22,401,220,269,0,3552
RAW_IMU,265440211,-124,-617,16617,-67,60,7,396,222,262,0,3584
RAW_IMU,265461209,-108,-615,16622,-59,55,26,397,219,266,0,3600
RAW_IMU,265482211,-143,-695,16576,-76,63,22,400,216,268,0,3552
RAW_IMU,265503209,-101,-646,16651,-70,54,15,400,219,271,0,3584
RAW_IMU,265524211,-42,-617,16607,-58,48,23,401,227,269,0,3584
RAW_IMU,265545210,-122,-670,16593,-67,58,11,400,214,273,0,3488
RAW_IMU,265566208,-84,-655,16630,-62,57,24,400,224,263,0,3552
RAW_IMU,265587209,-113,-618,16658,-66,53,-2,407,220,269,0,3616
RAW_IMU,265608211,-58,-580,16593,-50,61,16,396,225,269,0,3616
RAW_IMU,265629209,-151,-674,16673,-59,44,-5,394,210,267,0,3552
RAW_IMU,265650208,-171,-707,16607,-65,63,24,395,216,268,0,3488
RAW_IMU,265671210,-79,-564,16612,-49,51,15,394,220,267,0,3536
RAW_IMU,265692208,-88,-665,16575,-72,57,21,401,220,269,0,3616
RAW_IMU,265713210,-136,-696,16620,-60,58,8,391,215,260,0,3584
RAW_IMU,265734209,-182,-685,16607,-57,54,19,395,216,256,0,3520
RAW_IMU,265755209,-115,-647,16650,-61,57,22,392,211,261,0,3584
RAW_IMU,265776211,-43,-567,16629,-69,50,28,395,224,266,0,3552
RAW_IMU,265797209,-109,-639,16603,-76,54,20,399,220,264,0,3600
RAW_IMU,265818211,-110,-688,16571,-66,46,15,410,219,278,0,3616
RAW_IMU,265839211,-82,-661,16552,-61,63,9,405,214,266,0,3552
RAW_IMU,265860210,-210,-603,16644,-70,58,15,397,214,273,0,3600
RAW_IMU,265881208,-84,-644,16657,-64,49,22,396,225,269,0,3600
RAW_IMU,265902210,-123,-670,16650,-61,48,10,403,226,268,0,3600
RAW_IMU,265923208,-81,-660,16644,-70,59,25,400,214,263,0,3616
RAW_IMU,265944211,-118,-694,16636,-81,54,5,397,216,263,0,3600
RAW_IMU,265965209,-157,-733,16628,-59,64,16,397,207,271,0,3600
RAW_IMU,265986211,-176,-721,16565,-59,55,13,386,213,274,0,3536
RAW_IMU,266007208,-125,-664,16604,-75,32,20,394,210,267,0,3600
RAW_IMU,266028210,-134,-682,16615,-66,65,7,401,220,272,0,3552
RAW_IMU,266049209,-118,-666,16626,-54,46,25,395,228,266,0,3472
RAW_IMU,266070211,-133,-668,16625,-51,50,24,396,217,269,0,3552
RAW_IMU,266091209,-78,-661,16611,-67,65,11,404,213,272,0,3584
RAW_IMU,266112211,-136,-675,16642,-64,33,10,395,219,273,0,3600
RAW_IMU,266133209,-114,-590,16581,-69,48,3,397,219,275,0,3584
RAW_IMU,266154208,-45,-650,16647,-65,60,23,399,230,264,0,3520
RAW_IMU,266175210,-154,-659,16624,-54,63,-4,401,220,257,0,3600
RAW_IMU,266196208,-89,-680,16601,-45,56,9,394,213,269,0,3552
RAW_IMU,266217210,-122,-640,16640,-54,57,22,394,217,277,0,3584
RAW_IMU,266238211,-75,-728,16671,-63,47,19,384,221,258,0,3600
RAW_IMU,266259209,-84,-666,16656,-78,44,23,388,222,267,0,3600
RAW_IMU,266280211,-166,-685,16586,-61,49,24,401,220,262,0,3584
RAW_IMU,266301209,-120,-641,16691,-55,61,20,395,214,271,0,3600
RAW_IMU,266322211,-154,-606,16585,-58,51,25,399,208,274,0,3552
RAW_IMU,266343213,-169,-676,16605,-70,61,21,405,224,273,0,3552
RAW_IMU,266364211,-119,-603,16656,-58,53,19,407,210,264,0,3600
RAW_IMU,266385209,-90,-625,16627,-60,39,35,399,222,267,0,3600
RAW_IMU,266406211,-125,-601,16592,-54,52,28,392,219,271,0,3552
RAW_IMU,266427209,-112,-698,16591,-67,49,17,401,215,262,0,3600
RAW_IMU,266448210,-79,-638,16622,-47,48,14,400,216,263,0,3584
RAW_IMU,266469208,-124,-605,16702,-73,67,16,409,215,272,0,3552
RAW_IMU,266490210,-87,-562,16672,-63,46,34,395,207,271,0,3584
RAW_IMU,266511208,-156,-636,16611,-61,67,18,395,219,261,0,3536
RAW_IMU,266532210,-51,-670,16616,-71,54,22,395,219,268,0,3584
RAW_IMU,266553208,-156,-652,16633,-63,58,32,401,225,272,0,3472
RAW_IMU,266574210,-108,-670,16643,-63,58,26,397,211,266,0,3552
RAW_IMU,266595208,-132,-666,16663,-70,57,26,391,227,262,0,3600
RAW_IMU,266616210,-13,-649,16674,-69,44,14,391,213,267,0,3584
RAW_IMU,266637208,-150,-649,16634,-72,31,10,395,219,263,0,3552
RAW_IMU,266658208,-83,-591,16608,-67,60,7,404,220,274,0,3536
RAW_IMU,266679210,-103,-612,16665,-55,55,7,399,225,262,0,3600
RAW_IMU,266700208,-120,-647,16674,-58,51,21,403,209,266,0,3552
RAW_IMU,266721210,-178,-713,16671,-62,53,29,399,213,267,0,3584
RAW_IMU,266742209,-90,-673,16618,-66,53,14,395,214,266,0,3600
RAW_IMU,266763208,-67,-623,16641,-76,55,21,395,219,268,0,3520
RAW_IMU,266784210,-87,-692,16597,-65,53,21,399,213,272,0,3584
RAW_IMU,266805208,-144,-664,16617,-59,59,4,395,214,271,0,3488
RAW_IMU,266826210,-74,-670,16626,-51,56,15,384,221,266,0,3600
RAW_IMU,266847211,-50,-662,16643,-68,57,12,397,216,273,0,3440
RAW_IMU,266868208,-44,-660,16654,-78,43,21,401,220,274,0,3600
RAW_IMU,266889210,-151,-713,16614,-52,51,-2,390,214,268,0,3520
RAW_IMU,266910208,-52,-682,16649,-54,57,31,403,209,271,0,3536
RAW_IMU,266931210,-76,-599,16625,-72,61,16,403,219,266,0,3600
RAW_IMU,266952209,-153,-714,16674,-73,67,3,397,209,271,0,3408
RAW_IMU,266973211,-88,-620,16709,-67,52,18,391,222,267,0,3600
