mavpackettype,time_usec,fix_type,lat,lon,alt,eph,epv,vel,cog,satellites_visible,alt_ellipsoid,h_acc,v_acc,vel_acc,hdg_acc,yaw,index,frequency,time_boot_ms,q1,q2,q3,q4,rollspeed,pitchspeed,yawspeed,repr_offset_q,x,y,z,vx,vy,vz,type,autopilot,base_mode,custom_mode,system_status,mavlink_version
RAW_RPM,68490004,3,369603651,-1220329580,0,65535,65535,1,0,255,0,0,0,0,0,0,0,0.0011504855938255787,68454,0.9996600151062012,-0.0017156871035695076,0.01866394653916359,0.018126897513866425,-0.0010652969358488917,0.013316212221980095,-0.005326484329998493,"[0.0, 0.0, 0.0, 0.0]",14.989507675170898,8.37066650390625,0.0,-0.0003329129540361464,-0.0005379332578741014,0.0,10,0,192,0,3,3
RAW_RPM,68490004,3,369603651,-1220329580,0,65535,65535,1,0,255,0,0,0,0,0,0,1,0.0015339808305725455,68454,0.9996600151062012,-0.0017156871035695076,0.01866394653916359,0.018126897513866425,-0.0010652969358488917,0.013316212221980095,-0.005326484329998493,"[0.0, 0.0, 0.0, 0.0]",14.989507675170898,8.37066650390625,0.0,-0.0003329129540361464,-0.0005379332578741014,0.0,10,0,192,0,3,3
RAW_RPM,68490004,3,369603651,-1220329580,0,65535,65535,1,0,255,0,0,0,0,0,0,2,0.010095511563122272,68454,0.9996600151062012,-0.0017156871035695076,0.01866394653916359,0.018126897513866425,-0.0010652969358488917,0.013316212221980095,-0.005326484329998493,"[0.0, 0.0, 0.0, 0.0]",14.989507675170898,8.37066650390625,0.0,-0.0003329129540361464,-0.0005379332578741014,0.0,10,0,192,0,3,3
ATTITUDE_QUATERNION,68490004,3,369603651,-1220329580,0,65535,65535,1,0,255,0,0,0,0,0,0,2,0.010095511563122272,68505,0.9996728897094727,-0.0018748900620266795,0.018234524875879288,0.017838863655924797,-0.0015979454619809985,0.010386645793914795,-0.0021305938716977835,"[0.0, 0.0, 0.0, 0.0]",14.989507675170898,8.37066650390625,0.0,-0.0003329129540361464,-0.0005379332578741014,0.0,10,0,192,0,3,3
LOCAL_POSITION_NED,68490004,3,369603651,-1220329580,0,65535,65535,1,0,255,0,0,0,0,0,0,2,0.010095511563122272,68505,0.9996728897094727,-0.0018748900620266795,0.018234524875879288,0.017838863655924797,-0.0015979454619809985,0.010386645793914795,-0.0021305938716977835,"[0.0, 0.0, 0.0, 0.0]",14.98949146270752,8.370640754699707,0.0,-0.0003243779356125742,-0.0005241399048827589,0.0,10,0,192,0,3,3
RAW_RPM,68490004,3,369603651,-1220329580,0,65535,65535,1,0,255,0,0,0,0,0,0,0,0.0,68505,0.9996728897094727,-0.0018748900620266795,0.018234524875879288,0.017838863655924797,-0.0015979454619809985,0.010386645793914795,-0.0021305938716977835,"[0.0, 0.0, 0.0, 0.0]",14.98949146270752,8.370640754699707,0.0,-0.0003243779356125742,-0.0005241399048827589,0.0,10,0,192,0,3,3
RAW_RPM,68490004,3,369603651,-1220329580,0,65535,65535,1,0,255,0,0,0,0,0,0,1,-0.0003834952076431364,68505,0.9996728897094727,-0.0018748900620266795,0.018234524875879288,0.017838863655924797,-0.0015979454619809985,0.010386645793914795,-0.0021305938716977835,"[0.0, 0.0, 0.0, 0.0]",14.98949146270752,8.370640754699707,0.0,-0.0003243779356125742,-0.0005241399048827589,0.0,10,0,192,0,3,3
RAW_RPM,68490004,3,369603651,-1220329580,0,65535,65535,1,0,255,0,0,0,0,0,0,2,0.00983665231615305,68505,0.9996728897094727,-0.0018748900620266795,0.018234524875879288,0.017838863655924797,-0.0015979454619809985,0.010386645793914795,-0.0021305938716977835,"[0.0, 0.0, 0.0, 0.0]",14.98949146270752,8.370640754699707,0.0,-0.0003243779356125742,-0.0005241399048827589,0.0,10,0,192,0,3,3
ATTITUDE_QUATERNION,68490004,3,369603651,-1220329580,0,65535,65535,1,0,255,0,0,0,0,0,0,2,0.00983665231615305,68556,0.9996792674064636,-0.0019919038750231266,0.017986439168453217,0.01771695725619793,-0.006391781847923994,0.013316212221980095,-0.0066581061109900475,"[0.0, 0.0, 0.0, 0.0]",14.98949146270752,8.370640754699707,0.0,-0.0003243779356125742,-0.0005241399048827589,0.0,10,0,192,0,3,3
LOCAL_POSITION_NED,68490004,3,369603651,-1220329580,0,65535,65535,1,0,255,0,0,0,0,0,0,2,0.00983665231615305,68556,0.9996792674064636,-0.0019919038750231266,0.017986439168453217,0.01771695725619793,-0.006391781847923994,0.013316212221980095,-0.0066581061109900475,"[0.0, 0.0, 0.0, 0.0]",14.98947525024414,8.370612144470215,0.0,-0.000332914903992787,-0.0005379320355132222,0.0,10,0,192,0,3,3
GPS_RAW_INT,68591005,3,369603651,-1220329580,0,65535,65535,2,0,255,0,0,0,0,0,0,2,0.00983665231615305,68556,0.9996792674064636,-0.0019919038750231266,0.017986439168453217,0.01771695725619793,-0.006391781847923994,0.013316212221980095,-0.0066581061109900475,"[0.0, 0.0, 0.0, 0.0]",14.98947525024414,8.370612144470215,0.0,-0.000332914903992787,-0.0005379320355132222,0.0,10,0,192,0,3,3
RAW_RPM,68591005,3,369603651,-1220329580,0,65535,65535,2,0,255,0,0,0,0,0,0,0,0.0,68556,0.9996792674064636,-0.0019919038750231266,0.017986439168453217,0.01771695725619793,-0.006391781847923994,0.013316212221980095,-0.0066581061109900475,"[0.0, 0.0, 0.0, 0.0]",14.98947525024414,8.370612144470215,0.0,-0.000332914903992787,-0.0005379320355132222,0.0,10,0,192,0,3,3
RAW_RPM,68591005,3,369603651,-1220329580,0,65535,65535,2,0,255,0,0,0,0,0,0,1,-0.0003834952076431364,68556,0.9996792674064636,-0.0019919038750231266,0.017986439168453217,0.01771695725619793,-0.006391781847923994,0.013316212221980095,-0.0066581061109900475,"[0.0, 0.0, 0.0, 0.0]",14.98947525024414,8.370612144470215,0.0,-0.000332914903992787,-0.0005379320355132222,0.0,10,0,192,0,3,3
RAW_RPM,68591005,3,369603651,-1220329580,0,65535,65535,2,0,255,0,0,0,0,0,0,2,0.010095511563122272,68556,0.9996792674064636,-0.0019919038750231266,0.017986439168453217,0.01771695725619793,-0.006391781847923994,0.013316212221980095,-0.0066581061109900475,"[0.0, 0.0, 0.0, 0.0]",14.98947525024414,8.370612144470215,0.0,-0.000332914903992787,-0.0005379320355132222,0.0,10,0,192,0,3,3
ATTITUDE_QUATERNION,68591005,3,369603651,-1220329580,0,65535,65535,2,0,255,0,0,0,0,0,0,2,0.010095511563122272,68607,0.9996584057807922,-0.001596685964614153,0.018728284165263176,0.018160706385970116,0.00026632423396222293,0.009587672539055347,-0.0013316210824996233,"[0.0, 0.0, 0.0, 0.0]",14.98947525024414,8.370612144470215,0.0,-0.000332914903992787,-0.0005379320355132222,0.0,10,0,192,0,3,3
LOCAL_POSITION_NED,68591005,3,369603651,-1220329580,0,65535,65535,2,0,255,0,0,0,0,0,0,2,0.010095511563122272,68607,0.9996584057807922,-0.001596685964614153,0.018728284165263176,0.018160706385970116,0.00026632423396222293,0.009587672539055347,-0.0013316210824996233,"[0.0, 0.0, 0.0, 0.0]",14.989461898803711,8.370587348937988,0.0,-0.00032437974005006254,-0.0005241387989372015,0.0,10,0,192,0,3,3
RAW_RPM,68591005,3,369603651,-1220329580,0,65535,65535,2,0,255,0,0,0,0,0,0,0,-0.0003834952076431364,68607,0.9996584057807922,-0.001596685964614153,0.018728284165263176,0.018160706385970116,0.00026632423396222293,0.009587672539055347,-0.0013316210824996233,"[0.0, 0.0, 0.0, 0.0]",14.989461898803711,8.370587348937988,0.0,-0.00032437974005006254,-0.0005241387989372015,0.0,10,0,192,0,3,3
RAW_RPM,68591005,3,369603651,-1220329580,0,65535,65535,2,0,255,0,0,0,0,0,0,1,0.0,68607,0.9996584057807922,-0.001596685964614153,0.018728284165263176,0.018160706385970116,0.00026632423396222293,0.009587672539055347,-0.0013316210824996233,"[0.0, 0.0, 0.0, 0.0]",14.989461898803711,8.370587348937988,0.0,-0.00032437974005006254,-0.0005241387989372015,0.0,10,0,192,0,3,3
RAW_RPM,68591005,3,369603651,-1220329580,0,65535,65535,2,0,255,0,0,0,0,0,0,2,0.009577793069183826,68607,0.9996584057807922,-0.001596685964614153,0.018728284165263176,0.018160706385970116,0.00026632423396222293,0.009587672539055347,-0.0013316210824996233,"[0.0, 0.0, 0.0, 0.0]",14.989461898803711,8.370587348937988,0.0,-0.00032437974005006254,-0.0005241387989372015,0.0,10,0,192,0,3,3
ATTITUDE_QUATERNION,68591005,3,369603651,-1220329580,0,65535,65535,2,0,255,0,0,0,0,0,0,2,0.009577793069183826,68658,0.9996498823165894,-0.0011522396234795451,0.018993349745869637,0.01839003898203373,-0.0034622149541974068,0.011451941914856434,-0.0034622149541974068,"[0.0, 0.0, 0.0, 0.0]",14.989461898803711,8.370587348937988,0.0,-0.00032437974005006254,-0.0005241387989372015,0.0,10,0,192,0,3,3
LOCAL_POSITION_NED,68591005,3,369603651,-1220329580,0,65535,65535,2,0,255,0,0,0,0,0,0,2,0.009577793069183826,68658,0.9996498823165894,-0.0011522396234795451,0.018993349745869637,0.01839003898203373,-0.0034622149541974068,0.011451941914856434,-0.0034622149541974068,"[0.0, 0.0, 0.0, 0.0]",14.989450454711914,8.370566368103027,0.0,-0.0002279426553286612,-0.0003683128161355853,0.0,10,0,192,0,3,3
GPS_RAW_INT,68692004,3,369603651,-1220329580,0,65535,65535,2,0,255,0,0,0,0,0,0,2,0.009577793069183826,68658,0.9996498823165894,-0.0011522396234795451,0.018993349745869637,0.01839003898203373,-0.0034622149541974068,0.011451941914856434,-0.0034622149541974068,"[0.0, 0.0, 0.0, 0.0]",14.989450454711914,8.370566368103027,0.0,-0.0002279426553286612,-0.0003683128161355853,0.0,10,0,192,0,3,3
RAW_RPM,68692004,3,369603651,-1220329580,0,65535,65535,2,0,255,0,0,0,0,0,0,0,0.0,68658,0.9996498823165894,-0.0011522396234795451,0.018993349745869637,0.01839003898203373,-0.0034622149541974068,0.011451941914856434,-0.0034622149541974068,"[0.0, 0.0, 0.0, 0.0]",14.989450454711914,8.370566368103027,0.0,-0.0002279426553286612,-0.0003683128161355853,0.0,10,0,192,0,3,3
RAW_RPM,68692004,3,369603651,-1220329580,0,65535,65535,2,0,255,0,0,0,0,0,0,1,0.0,68658,0.9996498823165894,-0.0011522396234795451,0.018993349745869637,0.01839003898203373,-0.0034622149541974068,0.011451941914856434,-0.0034622149541974068,"[0.0, 0.0, 0.0, 0.0]",14.989450454711914,8.370566368103027,0.0,-0.0002279426553286612,-0.0003683128161355853,0.0,10,0,192,0,3,3
RAW_RPM,68692004,3,369603651,-1220329580,0,65535,65535,2,0,255,0,0,0,0,0,0,2,0.009577793069183826,68658,0.9996498823165894,-0.0011522396234795451,0.018993349745869637,0.01839003898203373,-0.0034622149541974068,0.011451941914856434,-0.0034622149541974068,"[0.0, 0.0, 0.0, 0.0]",14.989450454711914,8.370566368103027,0.0,-0.0002279426553286612,-0.0003683128161355853,0.0,10,0,192,0,3,3
ATTITUDE_QUATERNION,68692004,3,369603651,-1220329580,0,65535,65535,2,0,255,0,0,0,0,0,0,2,0.009577793069183826,68709,0.9996299743652344,0.00019657360098790377,0.019502578303217888,0.018965598195791245,-0.0015979454619809985,0.009587672539055347,-0.007457078900188208,"[0.0, 0.0, 0.0, 0.0]",14.989450454711914,8.370566368103027,0.0,-0.0002279426553286612,-0.0003683128161355853,0.0,10,0,192,0,3,3
LOCAL_POSITION_NED,68692004,3,369603651,-1220329580,0,65535,65535,2,0,255,0,0,0,0,0,0,2,0.009577793069183826,68709,0.9996299743652344,0.00019657360098790377,0.019502578303217888,0.018965598195791245,-0.0015979454619809985,0.009587672539055347,-0.007457078900188208,"[0.0, 0.0, 0.0, 0.0]",14.989439964294434,8.370545387268066,0.0,-0.00022794313554186374,-0.00036831252509728074,0.0,10,0,192,0,3,3
RAW_RPM,68692004,3,369603651,-1220329580,0,65535,65535,2,0,255,0,0,0,0,0,0,0,-0.0003834952076431364,68709,0.9996299743652344,0.00019657360098790377,0.019502578303217888,0.018965598195791245,-0.0015979454619809985,0.009587672539055347,-0.007457078900188208,"[0.0, 0.0, 0.0, 0.0]",14.989439964294434,8.370545387268066,0.0,-0.00022794313554186374,-0.00036831252509728074,0.0,10,0,192,0,3,3
RAW_RPM,68692004,3,369603651,-1220329580,0,65535,65535,2,0,255,0,0,0,0,0,0,1,0.0015339808305725455,68709,0.9996299743652344,0.00019657360098790377,0.019502578303217888,0.018965598195791245,-0.0015979454619809985,0.009587672539055347,-0.007457078900188208,"[0.0, 0.0, 0.0, 0.0]",14.989439964294434,8.370545387268066,0.0,-0.00022794313554186374,-0.00036831252509728074,0.0,10,0,192,0,3,3
RAW_RPM,68692004,3,369603651,-1220329580,0,65535,65535,2,0,255,0,0,0,0,0,0,2,0.00983665231615305,68709,0.9996299743652344,0.00019657360098790377,0.019502578303217888,0.018965598195791245,-0.0015979454619809985,0.009587672539055347,-0.007457078900188208,"[0.0, 0.0, 0.0, 0.0]",14.989439964294434,8.370545387268066,0.0,-0.00022794313554186374,-0.00036831252509728074,0.0,10,0,192,0,3,3
ATTITUDE_QUATERNION,68692004,3,369603651,-1220329580,0,65535,65535,2,0,255,0,0,0,0,0,0,2,0.00983665231615305,68760,0.9996755719184875,-0.0007679034606553614,0.017981702461838722,0.01802540384232998,-0.005859133321791887,0.012517238967120647,-0.005326484329998493,"[0.0, 0.0, 0.0, 0.0]",14.989439964294434,8.370545387268066,0.0,-0.00022794313554186374,-0.00036831252509728074,0.0,10,0,192,0,3,3
LOCAL_POSITION_NED,68692004,3,369603651,-1220329580,0,65535,65535,2,0,255,0,0,0,0,0,0,2,0.00983665231615305,68760,0.9996755719184875,-0.0007679034606553614,0.017981702461838722,0.01802540384232998,-0.005859133321791887,0.012517238967120647,-0.005326484329998493,"[0.0, 0.0, 0.0, 0.0]",14.98943042755127,8.370526313781738,0.0,-0.00022194524353835732,-0.00035862013464793563,0.0,10,0,192,0,3,3
GPS_RAW_INT,68793413,3,369603653,-1220329580,0,65535,65535,5,0,255,0,0,0,0,0,0,2,0.00983665231615305,68760,0.9996755719184875,-0.0007679034606553614,0.017981702461838722,0.01802540384232998,-0.005859133321791887,0.012517238967120647,-0.005326484329998493,"[0.0, 0.0, 0.0, 0.0]",14.98943042755127,8.370526313781738,0.0,-0.00022194524353835732,-0.00035862013464793563,0.0,10,0,192,0,3,3
RAW_RPM,68793413,3,369603653,-1220329580,0,65535,65535,5,0,255,0,0,0,0,0,0,0,-0.0007669904152862728,68760,0.9996755719184875,-0.0007679034606553614,0.017981702461838722,0.01802540384232998,-0.005859133321791887,0.012517238967120647,-0.005326484329998493,"[0.0, 0.0, 0.0, 0.0]",14.98943042755127,8.370526313781738,0.0,-0.00022194524353835732,-0.00035862013464793563,0.0,10,0,192,0,3,3
RAW_RPM,68793413,3,369603653,-1220329580,0,65535,65535,5,0,255,0,0,0,0,0,0,1,-0.0011504855938255787,68760,0.9996755719184875,-0.0007679034606553614,0.017981702461838722,0.01802540384232998,-0.005859133321791887,0.012517238967120647,-0.005326484329998493,"[0.0, 0.0, 0.0, 0.0]",14.98943042755127,8.370526313781738,0.0,-0.00022194524353835732,-0.00035862013464793563,0.0,10,0,192,0,3,3
RAW_RPM,68793413,3,369603653,-1220329580,0,65535,65535,5,0,255,0,0,0,0,0,0,2,0.010354370810091496,68760,0.9996755719184875,-0.0007679034606553614,0.017981702461838722,0.01802540384232998,-0.005859133321791887,0.012517238967120647,-0.005326484329998493,"[0.0, 0.0, 0.0, 0.0]",14.98943042755127,8.370526313781738,0.0,-0.00022194524353835732,-0.00035862013464793563,0.0,10,0,192,0,3,3
ATTITUDE_QUATERNION,68793413,3,369603653,-1220329580,0,65535,65535,5,0,255,0,0,0,0,0,0,2,0.010354370810091496,68811,0.9996604919433594,-0.00041427111136727035,0.01855473592877388,0.018289819359779358,-0.0026632421649992466,0.010652968659996986,-0.0069244299083948135,"[0.0, 0.0, 0.0, 0.0]",14.98943042755127,8.370526313781738,0.0,-0.00022194524353835732,-0.00035862013464793563,0.0,10,0,192,0,3,3
LOCAL_POSITION_NED,68793413,3,369603653,-1220329580,0,65535,65535,5,0,255,0,0,0,0,0,0,2,0.010354370810091496,68811,0.9996604919433594,-0.00041427111136727035,0.01855473592877388,0.018289819359779358,-0.0026632421649992466,0.010652968659996986,-0.0069244299083948135,"[0.0, 0.0, 0.0, 0.0]",14.989420890808105,8.37050724029541,0.0,-0.00021084876789245754,-0.00034068949753418565,0.0,10,0,192,0,3,3
RAW_RPM,68793413,3,369603653,-1220329580,0,65535,65535,5,0,255,0,0,0,0,0,0,0,0.0007669904152862728,68811,0.9996604919433594,-0.00041427111136727035,0.01855473592877388,0.018289819359779358,-0.0026632421649992466,0.010652968659996986,-0.0069244299083948135,"[0.0, 0.0, 0.0, 0.0]",14.989420890808105,8.37050724029541,0.0,-0.00021084876789245754,-0.00034068949753418565,0.0,10,0,192,0,3,3
RAW_RPM,68793413,3,369603653,-1220329580,0,65535,65535,5,0,255,0,0,0,0,0,0,1,-0.0015339808305725455,68811,0.9996604919433594,-0.00041427111136727035,0.01855473592877388,0.018289819359779358,-0.0026632421649992466,0.010652968659996986,-0.0069244299083948135,"[0.0, 0.0, 0.0, 0.0]",14.989420890808105,8.37050724029541,0.0,-0.00021084876789245754,-0.00034068949753418565,0.0,10,0,192,0,3,3
RAW_RPM,68793413,3,369603653,-1220329580,0,65535,65535,5,0,255,0,0,0,0,0,0,2,0.009577793069183826,68811,0.9996604919433594,-0.00041427111136727035,0.01855473592877388,0.018289819359779358,-0.0026632421649992466,0.010652968659996986,-0.0069244299083948135,"[0.0, 0.0, 0.0, 0.0]",14.989420890808105,8.37050724029541,0.0,-0.00021084876789245754,-0.00034068949753418565,0.0,10,0,192,0,3,3
ATTITUDE_QUATERNION,68793413,3,369603653,-1220329580,0,65535,65535,5,0,255,0,0,0,0,0,0,2,0.009577793069183826,68862,0.9996560215950012,-0.00017090162145905197,0.018667610362172127,0.018420079723000526,-0.003195890923961997,0.011451941914856434,-0.0026632421649992466,"[0.0, 0.0, 0.0, 0.0]",14.989420890808105,8.37050724029541,0.0,-0.00021084876789245754,-0.00034068949753418565,0.0,10,0,192,0,3,3
LOCAL_POSITION_NED,68793413,3,369603653,-1220329580,0,65535,65535,5,0,255,0,0,0,0,0,0,2,0.009577793069183826,68862,0.9996560215950012,-0.00017090162145905197,0.018667610362172127,0.018420079723000526,-0.003195890923961997,0.011451941914856434,-0.0026632421649992466,"[0.0, 0.0, 0.0, 0.0]",14.989411354064941,8.370489120483398,0.0,-0.0002279444452142343,-0.00036831171019002795,0.0,10,0,192,0,3,3
GPS_RAW_INT,68894004,3,369603653,-1220329580,0,65535,65535,5,0,255,0,0,0,0,0,0,2,0.009577793069183826,68862,0.9996560215950012,-0.00017090162145905197,0.018667610362172127,0.018420079723000526,-0.003195890923961997,0.011451941914856434,-0.0026632421649992466,"[0.0, 0.0, 0.0, 0.0]",14.989411354064941,8.370489120483398,0.0,-0.0002279444452142343,-0.00036831171019002795,0.0,10,0,192,0,3,3
RAW_RPM,68894004,3,369603653,-1220329580,0,65535,65535,5,0,255,0,0,0,0,0,0,0,0.0003834952076431364,68862,0.9996560215950012,-0.00017090162145905197,0.018667610362172127,0.018420079723000526,-0.003195890923961997,0.011451941914856434,-0.0026632421649992466,"[0.0, 0.0, 0.0, 0.0]",14.989411354064941,8.370489120483398,0.0,-0.0002279444452142343,-0.00036831171019002795,0.0,10,0,192,0,3,3
RAW_RPM,68894004,3,369603653,-1220329580,0,65535,65535,5,0,255,0,0,0,0,0,0,1,0.0,68862,0.9996560215950012,-0.00017090162145905197,0.018667610362172127,0.018420079723000526,-0.003195890923961997,0.011451941914856434,-0.0026632421649992466,"[0.0, 0.0, 0.0, 0.0]",14.989411354064941,8.370489120483398,0.0,-0.0002279444452142343,-0.00036831171019002795,0.0,10,0,192,0,3,3
RAW_RPM,68894004,3,369603653,-1220329580,0,65535,65535,5,0,255,0,0,0,0,0,0,2,0.010354370810091496,68862,0.9996560215950012,-0.00017090162145905197,0.018667610362172127,0.018420079723000526,-0.003195890923961997,0.011451941914856434,-0.0026632421649992466,"[0.0, 0.0, 0.0, 0.0]",14.989411354064941,8.370489120483398,0.0,-0.0002279444452142343,-0.00036831171019002795,0.0,10,0,192,0,3,3
ATTITUDE_QUATERNION,68894004,3,369603653,-1220329580,0,65535,65535,5,0,255,0,0,0,0,0,0,2,0.010354370810091496,68913,0.9996591806411743,0.00027254087035544217,0.01848495751619339,0.01843588799238205,-0.005060160532593727,0.009321347810328007,-0.003195890923961997,"[0.0, 0.0, 0.0, 0.0]",14.989411354064941,8.370489120483398,0.0,-0.0002279444452142343,-0.00036831171019002795,0.0,10,0,192,0,3,3
LOCAL_POSITION_NED,68894004,3,369603653,-1220329580,0,65535,65535,5,0,255,0,0,0,0,0,0,2,0.010354370810091496,68914,0.9996591806411743,0.00027254087035544217,0.01848495751619339,0.01843588799238205,-0.005060160532593727,0.009321347810328007,-0.003195890923961997,"[0.0, 0.0, 0.0, 0.0]",14.989399909973145,8.370466232299805,0.0,-0.00021084965555928648,-0.0003406889154575765,0.0,10,0,192,0,3,3
RAW_RPM,68894004,3,369603653,-1220329580,0,65535,65535,5,0,255,0,0,0,0,0,0,0,0.0,68914,0.9996591806411743,0.00027254087035544217,0.01848495751619339,0.01843588799238205,-0.005060160532593727,0.009321347810328007,-0.003195890923961997,"[0.0, 0.0, 0.0, 0.0]",14.989399909973145,8.370466232299805,0.0,-0.00021084965555928648,-0.0003406889154575765,0.0,10,0,192,0,3,3
RAW_RPM,68894004,3,369603653,-1220329580,0,65535,65535,5,0,255,0,0,0,0,0,0,1,-0.0003834952076431364,68914,0.9996591806411743,0.00027254087035544217,0.01848495751619339,0.01843588799238205,-0.005060160532593727,0.009321347810328007,-0.003195890923961997,"[0.0, 0.0, 0.0, 0.0]",14.989399909973145,8.370466232299805,0.0,-0.00021084965555928648,-0.0003406889154575765,0.0,10,0,192,0,3,3
RAW_RPM,68894004,3,369603653,-1220329580,0,65535,65535,5,0,255,0,0,0,0,0,0,2,0.010095511563122272,68914,0.9996591806411743,0.00027254087035544217,0.01848495751619339,0.01843588799238205,-0.005060160532593727,0.009321347810328007,-0.003195890923961997,"[0.0, 0.0, 0.0, 0.0]",14.989399909973145,8.370466232299805,0.0,-0.00021084965555928648,-0.0003406889154575765,0.0,10,0,192,0,3,3
ATTITUDE_QUATERNION,68894004,3,369603653,-1220329580,0,65535,65535,5,0,255,0,0,0,0,0,0,2,0.010095511563122272,68964,0.9996739625930786,0.0008328196126967669,0.017860447987914085,0.018232101574540138,-0.0034622149541974068,0.013582535088062286,-0.008788700215518475,"[0.0, 0.0, 0.0, 0.0]",14.989399909973145,8.370466232299805,0.0,-0.00021084965555928648,-0.0003406889154575765,0.0,10,0,192,0,3,3
LOCAL_POSITION_NED,68894004,3,369603653,-1220329580,0,65535,65535,5,0,255,0,0,0,0,0,0,2,0.010095511563122272,68964,0.9996739625930786,0.0008328196126967669,0.017860447987914085,0.018232101574540138,-0.0034622149541974068,0.013582535088062286,-0.008788700215518475,"[0.0, 0.0, 0.0, 0.0]",14.989391326904297,8.37044906616211,0.0,-0.00021625621593557298,-0.0003494239645078778,0.0,10,0,192,0,3,3
GPS_RAW_INT,68995005,3,369603653,-1220329578,0,65535,65535,5,0,255,0,0,0,0,0,0,2,0.010095511563122272,68964,0.9996739625930786,0.0008328196126967669,0.017860447987914085,0.018232101574540138,-0.0034622149541974068,0.013582535088062286,-0.008788700215518475,"[0.0, 0.0, 0.0, 0.0]",14.989391326904297,8.37044906616211,0.0,-0.00021625621593557298,-0.0003494239645078778,0.0,10,0,192,0,3,3
HEARTBEAT,68995005,3,369603653,-1220329578,0,65535,65535,5,0,255,0,0,0,0,0,0,2,0.010095511563122272,68964,0.9996739625930786,0.0008328196126967669,0.017860447987914085,0.018232101574540138,-0.0034622149541974068,0.013582535088062286,-0.008788700215518475,"[0.0, 0.0, 0.0, 0.0]",14.989391326904297,8.37044906616211,0.0,-0.00021625621593557298,-0.0003494239645078778,0.0,10,0,192,0,3,3
RAW_RPM,68995005,3,369603653,-1220329578,0,65535,65535,5,0,255,0,0,0,0,0,0,0,-0.0003834952076431364,68964,0.9996739625930786,0.0008328196126967669,0.017860447987914085,0.018232101574540138,-0.0034622149541974068,0.013582535088062286,-0.008788700215518475,"[0.0, 0.0, 0.0, 0.0]",14.989391326904297,8.37044906616211,0.0,-0.00021625621593557298,-0.0003494239645078778,0.0,10,0,192,0,3,3
RAW_RPM,68995005,3,369603653,-1220329578,0,65535,65535,5,0,255,0,0,0,0,0,0,1,0.0003834952076431364,68964,0.9996739625930786,0.0008328196126967669,0.017860447987914085,0.018232101574540138,-0.0034622149541974068,0.013582535088062286,-0.008788700215518475,"[0.0, 0.0, 0.0, 0.0]",14.989391326904297,8.37044906616211,0.0,-0.00021625621593557298,-0.0003494239645078778,0.0,10,0,192,0,3,3
RAW_RPM,68995005,3,369603653,-1220329578,0,65535,65535,5,0,255,0,0,0,0,0,0,2,0.00983665231615305,68964,0.9996739625930786,0.0008328196126967669,0.017860447987914085,0.018232101574540138,-0.0034622149541974068,0.013582535088062286,-0.008788700215518475,"[0.0, 0.0, 0.0, 0.0]",14.989391326904297,8.37044906616211,0.0,-0.00021625621593557298,-0.0003494239645078778,0.0,10,0,192,0,3,3
ATTITUDE_QUATERNION,68995005,3,369603653,-1220329578,0,65535,65535,5,0,255,0,0,0,0,0,0,2,0.00983665231615305,69015,0.9996593594551086,-0.0004148535372223705,0.018515728414058685,0.018391603603959084,-0.004793836269527674,0.011451941914856434,-0.003195890923961997,"[0.0, 0.0, 0.0, 0.0]",14.989391326904297,8.37044906616211,0.0,-0.00021625621593557298,-0.0003494239645078778,0.0,10,0,192,0,3,3
LOCAL_POSITION_NED,68995005,3,369603653,-1220329578,0,65535,65535,5,0,255,0,0,0,0,0,0,2,0.00983665231615305,69015,0.9996593594551086,-0.0004148535372223705,0.018515728414058685,0.018391603603959084,-0.004793836269527674,0.011451941914856434,-0.003195890923961997,"[0.0, 0.0, 0.0, 0.0]",14.989381790161133,8.370429992675781,0.0,-0.00022194742632564157,-0.0003586187958717346,0.0,10,0,192,0,3,3
RAW_RPM,68995005,3,369603653,-1220329578,0,65535,65535,5,0,255,0,0,0,0,0,0,0,0.0,69015,0.9996593594551086,-0.0004148535372223705,0.018515728414058685,0.018391603603959084,-0.004793836269527674,0.011451941914856434,-0.003195890923961997,"[0.0, 0.0, 0.0, 0.0]",14.989381790161133,8.370429992675781,0.0,-0.00022194742632564157,-0.0003586187958717346,0.0,10,0,192,0,3,3
RAW_RPM,68995005,3,369603653,-1220329578,0,65535,65535,5,0,255,0,0,0,0,0,0,1,-0.0007669904152862728,69015,0.9996593594551086,-0.0004148535372223705,0.018515728414058685,0.018391603603959084,-0.004793836269527674,0.011451941914856434,-0.003195890923961997,"[0.0, 0.0, 0.0, 0.0]",14.989381790161133,8.370429992675781,0.0,-0.00022194742632564157,-0.0003586187958717346,0.0,10,0,192,0,3,3
RAW_RPM,68995005,3,369603653,-1220329578,0,65535,65535,5,0,255,0,0,0,0,0,0,2,0.010095511563122272,69015,0.9996593594551086,-0.0004148535372223705,0.018515728414058685,0.018391603603959084,-0.004793836269527674,0.011451941914856434,-0.003195890923961997,"[0.0, 0.0, 0.0, 0.0]",14.989381790161133,8.370429992675781,0.0,-0.00022194742632564157,-0.0003586187958717346,0.0,10,0,192,0,3,3
ATTITUDE_QUATERNION,68995005,3,369603653,-1220329578,0,65535,65535,5,0,255,0,0,0,0,0,0,2,0.010095511563122272,69066,0.9996299147605896,-0.0011098399991169572,0.019537081941962242,0.018897945061326027,-0.005592809058725834,0.010386645793914795,-0.001864269725047052,"[0.0, 0.0, 0.0, 0.0]",14.989381790161133,8.370429992675781,0.0,-0.00022194742632564157,-0.0003586187958717346,0.0,10,0,192,0,3,3
LOCAL_POSITION_NED,68995005,3,369603653,-1220329578,0,65535,65535,5,0,255,0,0,0,0,0,0,2,0.010095511563122272,69066,0.9996299147605896,-0.0011098399991169572,0.019537081941962242,0.018897945061326027,-0.005592809058725834,0.010386645793914795,-0.001864269725047052,"[0.0, 0.0, 0.0, 0.0]",14.989372253417969,8.370410919189453,0.0,-0.00021625705994665623,-0.0003494234406389296,0.0,10,0,192,0,3,3
GPS_RAW_INT,69096006,3,369603653,-1220329578,0,65535,65535,5,0,255,0,0,0,0,0,0,2,0.010095511563122272,69066,0.9996299147605896,-0.0011098399991169572,0.019537081941962242,0.018897945061326027,-0.005592809058725834,0.010386645793914795,-0.001864269725047052,"[0.0, 0.0, 0.0, 0.0]",14.989372253417969,8.370410919189453,0.0,-0.00021625705994665623,-0.0003494234406389296,0.0,10,0,192,0,3,3
RAW_RPM,69096006,3,369603653,-1220329578,0,65535,65535,5,0,255,0,0,0,0,0,0,0,0.0015339808305725455,69066,0.9996299147605896,-0.0011098399991169572,0.019537081941962242,0.018897945061326027,-0.005592809058725834,0.010386645793914795,-0.001864269725047052,"[0.0, 0.0, 0.0, 0.0]",14.989372253417969,8.370410919189453,0.0,-0.00021625705994665623,-0.0003494234406389296,0.0,10,0,192,0,3,3
RAW_RPM,69096006,3,369603653,-1220329578,0,65535,65535,5,0,255,0,0,0,0,0,0,1,0.0011504855938255787,69066,0.9996299147605896,-0.0011098399991169572,0.019537081941962242,0.018897945061326027,-0.005592809058725834,0.010386645793914795,-0.001864269725047052,"[0.0, 0.0, 0.0, 0.0]",14.989372253417969,8.370410919189453,0.0,-0.00021625705994665623,-0.0003494234406389296,0.0,10,0,192,0,3,3
RAW_RPM,69096006,3,369603653,-1220329578,0,65535,65535,5,0,255,0,0,0,0,0,0,2,0.009577793069183826,69066,0.9996299147605896,-0.0011098399991169572,0.019537081941962242,0.018897945061326027,-0.005592809058725834,0.010386645793914795,-0.001864269725047052,"[0.0, 0.0, 0.0, 0.0]",14.989372253417969,8.370410919189453,0.0,-0.00021625705994665623,-0.0003494234406389296,0.0,10,0,192,0,3,3
ATTITUDE_QUATERNION,69096006,3,369603653,-1220329578,0,65535,65535,5,0,255,0,0,0,0,0,0,2,0.009577793069183826,69117,0.9996185302734375,-0.00047121456009335816,0.019763942807912827,0.01928664930164814,-0.004261187743395567,0.008522375486791134,-0.004261187743395567,"[0.0, 0.0, 0.0, 0.0]",14.989372253417969,8.370410919189453,0.0,-0.00021625705994665623,-0.0003494234406389296,0.0,10,0,192,0,3,3
LOCAL_POSITION_NED,69096006,3,369603653,-1220329578,0,65535,65535,5,0,255,0,0,0,0,0,0,2,0.009577793069183826,69117,0.9996185302734375,-0.00047121456009335816,0.019763942807912827,0.01928664930164814,-0.004261187743395567,0.008522375486791134,-0.004261187743395567,"[0.0, 0.0, 0.0, 0.0]",14.989363670349121,8.370393753051758,0.0,-0.00022794662800151855,-0.0003683103423099965,0.0,10,0,192,0,3,3
RAW_RPM,69096006,3,369603653,-1220329578,0,65535,65535,5,0,255,0,0,0,0,0,0,0,-0.0003834952076431364,69117,0.9996185302734375,-0.00047121456009335816,0.019763942807912827,0.01928664930164814,-0.004261187743395567,0.008522375486791134,-0.004261187743395567,"[0.0, 0.0, 0.0, 0.0]",14.989363670349121,8.370393753051758,0.0,-0.00022794662800151855,-0.0003683103423099965,0.0,10,0,192,0,3,3
RAW_RPM,69096006,3,369603653,-1220329578,0,65535,65535,5,0,255,0,0,0,0,0,0,1,-0.0019174760673195124,69117,0.9996185302734375,-0.00047121456009335816,0.019763942807912827,0.01928664930164814,-0.004261187743395567,0.008522375486791134,-0.004261187743395567,"[0.0, 0.0, 0.0, 0.0]",14.989363670349121,8.370393753051758,0.0,-0.00022794662800151855,-0.0003683103423099965,0.0,10,0,192,0,3,3
RAW_RPM,69096006,3,369603653,-1220329578,0,65535,65535,5,0,255,0,0,0,0,0,0,2,0.009577793069183826,69117,0.9996185302734375,-0.00047121456009335816,0.019763942807912827,0.01928664930164814,-0.004261187743395567,0.008522375486791134,-0.004261187743395567,"[0.0, 0.0, 0.0, 0.0]",14.989363670349121,8.370393753051758,0.0,-0.00022794662800151855,-0.0003683103423099965,0.0,10,0,192,0,3,3
ATTITUDE_QUATERNION,69096006,3,369603653,-1220329578,0,65535,65535,5,0,255,0,0,0,0,0,0,2,0.009577793069183826,69168,0.9996169209480286,-0.0006061264430172741,0.019710542634129524,0.019422568380832672,-0.005592809058725834,0.010120321065187454,-0.0034622149541974068,"[0.0, 0.0, 0.0, 0.0]",14.989363670349121,8.370393753051758,0.0,-0.00022794662800151855,-0.0003683103423099965,0.0,10,0,192,0,3,3
LOCAL_POSITION_NED,69096006,3,369603653,-1220329578,0,65535,65535,5,0,255,0,0,0,0,0,0,2,0.009577793069183826,69168,0.9996169209480286,-0.0006061264430172741,0.019710542634129524,0.019422568380832672,-0.005592809058725834,0.010120321065187454,-0.0034622149541974068,"[0.0, 0.0, 0.0, 0.0]",14.98935604095459,8.370378494262695,0.0,-0.00011397351045161486,-0.00018415505473967642,0.0,10,0,192,0,3,3
GPS_RAW_INT,69197005,3,369603655,-1220329576,0,65535,65535,3,0,255,0,0,0,0,0,0,2,0.009577793069183826,69168,0.9996169209480286,-0.0006061264430172741,0.019710542634129524,0.019422568380832672,-0.005592809058725834,0.010120321065187454,-0.0034622149541974068,"[0.0, 0.0, 0.0, 0.0]",14.98935604095459,8.370378494262695,0.0,-0.00011397351045161486,-0.00018415505473967642,0.0,10,0,192,0,3,3
RAW_RPM,69197005,3,369603655,-1220329576,0,65535,65535,3,0,255,0,0,0,0,0,0,0,-0.0007669904152862728,69168,0.9996169209480286,-0.0006061264430172741,0.019710542634129524,0.019422568380832672,-0.005592809058725834,0.010120321065187454,-0.0034622149541974068,"[0.0, 0.0, 0.0, 0.0]",14.98935604095459,8.370378494262695,0.0,-0.00011397351045161486,-0.00018415505473967642,0.0,10,0,192,0,3,3
RAW_RPM,69197005,3,369603655,-1220329576,0,65535,65535,3,0,255,0,0,0,0,0,0,1,-0.0003834952076431364,69168,0.9996169209480286,-0.0006061264430172741,0.019710542634129524,0.019422568380832672,-0.005592809058725834,0.010120321065187454,-0.0034622149541974068,"[0.0, 0.0, 0.0, 0.0]",14.98935604095459,8.370378494262695,0.0,-0.00011397351045161486,-0.00018415505473967642,0.0,10,0,192,0,3,3
RAW_RPM,69197005,3,369603655,-1220329576,0,65535,65535,3,0,255,0,0,0,0,0,0,2,0.009577793069183826,69168,0.9996169209480286,-0.0006061264430172741,0.019710542634129524,0.019422568380832672,-0.005592809058725834,0.010120321065187454,-0.0034622149541974068,"[0.0, 0.0, 0.0, 0.0]",14.98935604095459,8.370378494262695,0.0,-0.00011397351045161486,-0.00018415505473967642,0.0,10,0,192,0,3,3
ATTITUDE_QUATERNION,69197005,3,369603655,-1220329576,0,65535,65535,3,0,255,0,0,0,0,0,0,2,0.009577793069183826,69219,0.9996059536933899,-0.0006923787295818329,0.02000780589878559,0.01967714913189411,-0.001864269725047052,0.015979453921318054,-0.008788700215518475,"[0.0, 0.0, 0.0, 0.0]",14.98935604095459,8.370378494262695,0.0,-0.00011397351045161486,-0.00018415505473967642,0.0,10,0,192,0,3,3
LOCAL_POSITION_NED,69197005,3,369603655,-1220329576,0,65535,65535,3,0,255,0,0,0,0,0,0,2,0.009577793069183826,69219,0.9996059536933899,-0.0006923787295818329,0.02000780589878559,0.01967714913189411,-0.001864269725047052,0.015979453921318054,-0.008788700215518475,"[0.0, 0.0, 0.0, 0.0]",14.989347457885742,8.370361328125,0.0,-0.00011397370690247044,-0.00018415492377243936,0.0,10,0,192,0,3,3
RAW_RPM,69197005,3,369603655,-1220329576,0,65535,65535,3,0,255,0,0,0,0,0,0,0,-0.0003834952076431364,69219,0.9996059536933899,-0.0006923787295818329,0.02000780589878559,0.01967714913189411,-0.001864269725047052,0.015979453921318054,-0.008788700215518475,"[0.0, 0.0, 0.0, 0.0]",14.989347457885742,8.370361328125,0.0,-0.00011397370690247044,-0.00018415492377243936,0.0,10,0,192,0,3,3
RAW_RPM,69197005,3,369603655,-1220329576,0,65535,65535,3,0,255,0,0,0,0,0,0,1,0.0003834952076431364,69219,0.9996059536933899,-0.0006923787295818329,0.02000780589878559,0.01967714913189411,-0.001864269725047052,0.015979453921318054,-0.008788700215518475,"[0.0, 0.0, 0.0, 0.0]",14.989347457885742,8.370361328125,0.0,-0.00011397370690247044,-0.00018415492377243936,0.0,10,0,192,0,3,3
RAW_RPM,69197005,3,369603655,-1220329576,0,65535,65535,3,0,255,0,0,0,0,0,0,2,0.00983665231615305,69219,0.9996059536933899,-0.0006923787295818329,0.02000780589878559,0.01967714913189411,-0.001864269725047052,0.015979453921318054,-0.008788700215518475,"[0.0, 0.0, 0.0, 0.0]",14.989347457885742,8.370361328125,0.0,-0.00011397370690247044,-0.00018415492377243936,0.0,10,0,192,0,3,3
ATTITUDE_QUATERNION,69197005,3,369603655,-1220329576,0,65535,65535,3,0,255,0,0,0,0,0,0,2,0.00983665231615305,69270,0.9995957612991333,-0.001152553828433156,0.0203373022377491,0.01983313076198101,-0.004261187743395567,0.008522375486791134,-0.005060160532593727,"[0.0, 0.0, 0.0, 0.0]",14.989347457885742,8.370361328125,0.0,-0.00011397370690247044,-0.00018415492377243936,0.0,10,0,192,0,3,3
LOCAL_POSITION_NED,69197005,3,369603655,-1220329576,0,65535,65535,3,0,255,0,0,0,0,0,0,2,0.00983665231615305,69270,0.9995957612991333,-0.001152553828433156,0.0203373022377491,0.01983313076198101,-0.004261187743395567,0.008522375486791134,-0.005060160532593727,"[0.0, 0.0, 0.0, 0.0]",14.989339828491211,8.370346069335938,0.0,-0.00022194931807462126,-0.00035861763171851635,0.0,10,0,192,0,3,3
GPS_RAW_INT,69298002,3,369603655,-1220329576,0,65535,65535,3,0,255,0,0,0,0,0,0,2,0.00983665231615305,69270,0.9995957612991333,-0.001152553828433156,0.0203373022377491,0.01983313076198101,-0.004261187743395567,0.008522375486791134,-0.005060160532593727,"[0.0, 0.0, 0.0, 0.0]",14.989339828491211,8.370346069335938,0.0,-0.00022194931807462126,-0.00035861763171851635,0.0,10,0,192,0,3,3
RAW_RPM,69298002,3,369603655,-1220329576,0,65535,65535,3,0,255,0,0,0,0,0,0,0,-0.0003834952076431364,69270,0.9995957612991333,-0.001152553828433156,0.0203373022377491,0.01983313076198101,-0.004261187743395567,0.008522375486791134,-0.005060160532593727,"[0.0, 0.0, 0.0, 0.0]",14.989339828491211,8.370346069335938,0.0,-0.00022194931807462126,-0.00035861763171851635,0.0,10,0,192,0,3,3
RAW_RPM,69298002,3,369603655,-1220329576,0,65535,65535,3,0,255,0,0,0,0,0,0,1,0.0003834952076431364,69270,0.9995957612991333,-0.001152553828433156,0.0203373022377491,0.01983313076198101,-0.004261187743395567,0.008522375486791134,-0.005060160532593727,"[0.0, 0.0, 0.0, 0.0]",14.989339828491211,8.370346069335938,0.0,-0.00022194931807462126,-0.00035861763171851635,0.0,10,0,192,0,3,3
RAW_RPM,69298002,3,369603655,-1220329576,0,65535,65535,3,0,255,0,0,0,0,0,0,2,0.009577793069183826,69270,0.9995957612991333,-0.001152553828433156,0.0203373022377491,0.01983313076198101,-0.004261187743395567,0.008522375486791134,-0.005060160532593727,"[0.0, 0.0, 0.0, 0.0]",14.989339828491211,8.370346069335938,0.0,-0.00022194931807462126,-0.00035861763171851635,0.0,10,0,192,0,3,3
ATTITUDE_QUATERNION,69298002,3,369603655,-1220329576,0,65535,65535,3,0,255,0,0,0,0,0,0,2,0.009577793069183826,69321,0.9995923042297363,-0.0012425835011526942,0.020336678251624107,0.020005717873573303,-0.006125457119196653,0.006125457119196653,-0.0066581061109900475,"[0.0, 0.0, 0.0, 0.0]",14.989339828491211,8.370346069335938,0.0,-0.00022194931807462126,-0.00035861763171851635,0.0,10,0,192,0,3,3
LOCAL_POSITION_NED,69298002,3,369603655,-1220329576,0,65535,65535,3,0,255,0,0,0,0,0,0,2,0.009577793069183826,69321,0.9995923042297363,-0.0012425835011526942,0.020336678251624107,0.020005717873573303,-0.006125457119196653,0.006125457119196653,-0.0066581061109900475,"[0.0, 0.0, 0.0, 0.0]",14.989331245422363,8.370328903198242,0.0,-0.0002279481414007023,-0.00036830941098742187,0.0,10,0,192,0,3,3
RAW_RPM,69298002,3,369603655,-1220329576,0,65535,65535,3,0,255,0,0,0,0,0,0,0,0.0003834952076431364,69321,0.9995923042297363,-0.0012425835011526942,0.020336678251624107,0.020005717873573303,-0.006125457119196653,0.006125457119196653,-0.0066581061109900475,"[0.0, 0.0, 0.0, 0.0]",14.989331245422363,8.370328903198242,0.0,-0.0002279481414007023,-0.00036830941098742187,0.0,10,0,192,0,3,3
RAW_RPM,69298002,3,369603655,-1220329576,0,65535,65535,3,0,255,0,0,0,0,0,0,1,-0.0019174760673195124,69321,0.9995923042297363,-0.0012425835011526942,0.020336678251624107,0.020005717873573303,-0.006125457119196653,0.006125457119196653,-0.0066581061109900475,"[0.0, 0.0, 0.0, 0.0]",14.989331245422363,8.370328903198242,0.0,-0.0002279481414007023,-0.00036830941098742187,0.0,10,0,192,0,3,3
RAW_RPM,69298002,3,369603655,-1220329576,0,65535,65535,3,0,255,0,0,0,0,0,0,2,0.010095511563122272,69321,0.9995923042297363,-0.0012425835011526942,0.020336678251624107,0.020005717873573303,-0.006125457119196653,0.006125457119196653,-0.0066581061109900475,"[0.0, 0.0, 0.0, 0.0]",14.989331245422363,8.370328903198242,0.0,-0.0002279481414007023,-0.00036830941098742187,0.0,10,0,192,0,3,3
ATTITUDE_QUATERNION,69298002,3,369603655,-1220329576,0,65535,65535,3,0,255,0,0,0,0,0,0,2,0.010095511563122272,69372,0.9995999336242676,-0.00014309263497125357,0.019911209121346474,0.02008732222020626,-0.0029295666608959436,0.011451941914856434,-0.0029295666608959436,"[0.0, 0.0, 0.0, 0.0]",14.989331245422363,8.370328903198242,0.0,-0.0002279481414007023,-0.00036830941098742187,0.0,10,0,192,0,3,3
LOCAL_POSITION_NED,69298002,3,369603655,-1220329576,0,65535,65535,3,0,255,0,0,0,0,0,0,2,0.010095511563122272,69372,0.9995999336242676,-0.00014309263497125357,0.019911209121346474,0.02008732222020626,-0.0029295666608959436,0.011451941914856434,-0.0029295666608959436,"[0.0, 0.0, 0.0, 0.0]",14.989323616027832,8.37031364440918,0.0,-0.0001081295995390974,-0.00017471106548327953,0.0,10,0,192,0,3,3
GPS_RAW_INT,69399006,3,369603656,-1220329576,0,65535,65535,1,0,255,0,0,0,0,0,0,2,0.010095511563122272,69372,0.9995999336242676,-0.00014309263497125357,0.019911209121346474,0.02008732222020626,-0.0029295666608959436,0.011451941914856434,-0.0029295666608959436,"[0.0, 0.0, 0.0, 0.0]",14.989323616027832,8.37031364440918,0.0,-0.0001081295995390974,-0.00017471106548327953,0.0,10,0,192,0,3,3
RAW_RPM,69399006,3,369603656,-1220329576,0,65535,65535,1,0,255,0,0,0,0,0,0,0,0.0007669904152862728,69372,0.9995999336242676,-0.00014309263497125357,0.019911209121346474,0.02008732222020626,-0.0029295666608959436,0.011451941914856434,-0.0029295666608959436,"[0.0, 0.0, 0.0, 0.0]",14.989323616027832,8.37031364440918,0.0,-0.0001081295995390974,-0.00017471106548327953,0.0,10,0,192,0,3,3
RAW_RPM,69399006,3,369603656,-1220329576,0,65535,65535,1,0,255,0,0,0,0,0,0,1,-0.0003834952076431364,69372,0.9995999336242676,-0.00014309263497125357,0.019911209121346474,0.02008732222020626,-0.0029295666608959436,0.011451941914856434,-0.0029295666608959436,"[0.0, 0.0, 0.0, 0.0]",14.989323616027832,8.37031364440918,0.0,-0.0001081295995390974,-0.00017471106548327953,0.0,10,0,192,0,3,3
RAW_RPM,69399006,3,369603656,-1220329576,0,65535,65535,1,0,255,0,0,0,0,0,0,2,0.010095511563122272,69372,0.9995999336242676,-0.00014309263497125357,0.019911209121346474,0.02008732222020626,-0.0029295666608959436,0.011451941914856434,-0.0029295666608959436,"[0.0, 0.0, 0.0, 0.0]",14.989323616027832,8.37031364440918,0.0,-0.0001081295995390974,-0.00017471106548327953,0.0,10,0,192,0,3,3
ATTITUDE_QUATERNION,69399006,3,369603656,-1220329576,0,65535,65535,1,0,255,0,0,0,0,0,0,2,0.010095511563122272,69423,0.9995806217193604,-0.0016214472707360983,0.02052665501832962,0.020364398136734962,0.0005326484679244459,0.010120321065187454,-0.0039948634803295135,"[0.0, 0.0, 0.0, 0.0]",14.989323616027832,8.37031364440918,0.0,-0.0001081295995390974,-0.00017471106548327953,0.0,10,0,192,0,3,3
LOCAL_POSITION_NED,69399006,3,369603656,-1220329576,0,65535,65535,1,0,255,0,0,0,0,0,0,2,0.010095511563122272,69424,0.9995806217193604,-0.0016214472707360983,0.02052665501832962,0.020364398136734962,0.0005326484679244459,0.010120321065187454,-0.0039948634803295135,"[0.0, 0.0, 0.0, 0.0]",14.9893159866333,8.370298385620117,0.0,-0.00021625951922032982,-0.00034942192723974586,0.0,10,0,192,0,3,3
RAW_RPM,69399006,3,369603656,-1220329576,0,65535,65535,1,0,255,0,0,0,0,0,0,0,0.0,69424,0.9995806217193604,-0.0016214472707360983,0.02052665501832962,0.020364398136734962,0.0005326484679244459,0.010120321065187454,-0.0039948634803295135,"[0.0, 0.0, 0.0, 0.0]",14.9893159866333,8.370298385620117,0.0,-0.00021625951922032982,-0.00034942192723974586,0.0,10,0,192,0,3,3
RAW_RPM,69399006,3,369603656,-1220329576,0,65535,65535,1,0,255,0,0,0,0,0,0,1,-0.0007669904152862728,69424,0.9995806217193604,-0.0016214472707360983,0.02052665501832962,0.020364398136734962,0.0005326484679244459,0.010120321065187454,-0.0039948634803295135,"[0.0, 0.0, 0.0, 0.0]",14.9893159866333,8.370298385620117,0.0,-0.00021625951922032982,-0.00034942192723974586,0.0,10,0,192,0,3,3
RAW_RPM,69399006,3,369603656,-1220329576,0,65535,65535,1,0,255,0,0,0,0,0,0,2,0.010095511563122272,69424,0.9995806217193604,-0.0016214472707360983,0.02052665501832962,0.020364398136734962,0.0005326484679244459,0.010120321065187454,-0.0039948634803295135,"[0.0, 0.0, 0.0, 0.0]",14.9893159866333,8.370298385620117,0.0,-0.00021625951922032982,-0.00034942192723974586,0.0,10,0,192,0,3,3
ATTITUDE_QUATERNION,69399006,3,369603656,-1220329576,0,65535,65535,1,0,255,0,0,0,0,0,0,2,0.010095511563122272,69474,0.9996142387390137,-0.0011752515565603971,0.01934633031487465,0.019895343109965324,-0.008256050758063793,0.011451941914856434,-0.005060160532593727,"[0.0, 0.0, 0.0, 0.0]",14.9893159866333,8.370298385620117,0.0,-0.00021625951922032982,-0.00034942192723974586,0.0,10,0,192,0,3,3
LOCAL_POSITION_NED,69399006,3,369603656,-1220329576,0,65535,65535,1,0,255,0,0,0,0,0,0,2,0.010095511563122272,69474,0.9996142387390137,-0.0011752515565603971,0.01934633031487465,0.019895343109965324,-0.008256050758063793,0.011451941914856434,-0.005060160532593727,"[0.0, 0.0, 0.0, 0.0]",14.989310264587402,8.37028694152832,0.0,-0.00010812989057740197,-0.00017471089086029679,0.0,10,0,192,0,3,3
GPS_RAW_INT,69500004,3,369603656,-1220329576,0,65535,65535,1,0,255,0,0,0,0,0,0,2,0.010095511563122272,69474,0.9996142387390137,-0.0011752515565603971,0.01934633031487465,0.019895343109965324,-0.008256050758063793,0.011451941914856434,-0.005060160532593727,"[0.0, 0.0, 0.0, 0.0]",14.989310264587402,8.37028694152832,0.0,-0.00010812989057740197,-0.00017471089086029679,0.0,10,0,192,0,3,3
RAW_RPM,69500004,3,369603656,-1220329576,0,65535,65535,1,0,255,0,0,0,0,0,0,0,0.0,69474,0.9996142387390137,-0.0011752515565603971,0.01934633031487465,0.019895343109965324,-0.008256050758063793,0.011451941914856434,-0.005060160532593727,"[0.0, 0.0, 0.0, 0.0]",14.989310264587402,8.37028694152832,0.0,-0.00010812989057740197,-0.00017471089086029679,0.0,10,0,192,0,3,3
RAW_RPM,69500004,3,369603656,-1220329576,0,65535,65535,1,0,255,0,0,0,0,0,0,1,0.0011504855938255787,69474,0.9996142387390137,-0.0011752515565603971,0.01934633031487465,0.019895343109965324,-0.008256050758063793,0.011451941914856434,-0.005060160532593727,"[0.0, 0.0, 0.0, 0.0]",14.989310264587402,8.37028694152832,0.0,-0.00010812989057740197,-0.00017471089086029679,0.0,10,0,192,0,3,3
RAW_RPM,69500004,3,369603656,-1220329576,0,65535,65535,1,0,255,0,0,0,0,0,0,2,0.00983665231615305,69474,0.9996142387390137,-0.0011752515565603971,0.01934633031487465,0.019895343109965324,-0.008256050758063793,0.011451941914856434,-0.005060160532593727,"[0.0, 0.0, 0.0, 0.0]",14.989310264587402,8.37028694152832,0.0,-0.00010812989057740197,-0.00017471089086029679,0.0,10,0,192,0,3,3
ATTITUDE_QUATERNION,69500004,3,369603656,-1220329576,0,65535,65535,1,0,255,0,0,0,0,0,0,2,0.00983665231615305,69525,0.9996195435523987,0.00028981230570934713,0.019037043675780296,0.019958069548010826,-0.005060160532593727,0.011718266643583775,-0.005326484329998493,"[0.0, 0.0, 0.0, 0.0]",14.989310264587402,8.37028694152832,0.0,-0.00010812989057740197,-0.00017471089086029679,0.0,10,0,192,0,3,3
LOCAL_POSITION_NED,69500004,3,369603656,-1220329576,0,65535,65535,1,0,255,0,0,0,0,0,0,2,0.00983665231615305,69525,0.9996195435523987,0.00028981230570934713,0.019037043675780296,0.019958069548010826,-0.005060160532593727,0.011718266643583775,-0.005326484329998493,"[0.0, 0.0, 0.0, 0.0]",14.989304542541504,8.370275497436523,0.0,-0.00011097545211669058,-0.00017930830654222518,0.0,10,0,192,0,3,3
RAW_RPM,69500004,3,369603656,-1220329576,0,65535,65535,1,0,255,0,0,0,0,0,0,0,-0.0003834952076431364,69525,0.9996195435523987,0.00028981230570934713,0.019037043675780296,0.019958069548010826,-0.005060160532593727,0.011718266643583775,-0.005326484329998493,"[0.0, 0.0, 0.0, 0.0]",14.989304542541504,8.370275497436523,0.0,-0.00011097545211669058,-0.00017930830654222518,0.0,10,0,192,0,3,3
RAW_RPM,69500004,3,369603656,-1220329576,0,65535,65535,1,0,255,0,0,0,0,0,0,1,0.0003834952076431364,69525,0.9996195435523987,0.00028981230570934713,0.019037043675780296,0.019958069548010826,-0.005060160532593727,0.011718266643583775,-0.005326484329998493,"[0.0, 0.0, 0.0, 0.0]",14.989304542541504,8.370275497436523,0.0,-0.00011097545211669058,-0.00017930830654222518,0.0,10,0,192,0,3,3
RAW_RPM,69500004,3,369603656,-1220329576,0,65535,65535,1,0,255,0,0,0,0,0,0,2,0.009577793069183826,69525,0.9996195435523987,0.00028981230570934713,0.019037043675780296,0.019958069548010826,-0.005060160532593727,0.011718266643583775,-0.005326484329998493,"[0.0, 0.0, 0.0, 0.0]",14.989304542541504,8.370275497436523,0.0,-0.00011097545211669058,-0.00017930830654222518,0.0,10,0,192,0,3,3
ATTITUDE_QUATERNION,69500004,3,369603656,-1220329576,0,65535,65535,1,0,255,0,0,0,0,0,0,2,0.009577793069183826,69576,0.9996175765991211,0.0010979087091982365,0.018988365307450294,0.020074617117643356,-0.001864269725047052,0.009587672539055347,-0.005592809058725834,"[0.0, 0.0, 0.0, 0.0]",14.989304542541504,8.370275497436523,0.0,-0.00011097545211669058,-0.00017930830654222518,0.0,10,0,192,0,3,3
LOCAL_POSITION_NED,69500004,3,369603656,-1220329576,0,65535,65535,1,0,255,0,0,0,0,0,0,2,0.009577793069183826,69576,0.9996175765991211,0.0010979087091982365,0.018988365307450294,0.020074617117643356,-0.001864269725047052,0.009587672539055347,-0.005592809058725834,"[0.0, 0.0, 0.0, 0.0]",14.989298820495605,8.370264053344727,0.0,-0.00011397482739994302,-0.00018415423983242363,0.0,10,0,192,0,3,3
GPS_RAW_INT,69601004,3,369603658,-1220329575,0,65535,65535,5,0,255,0,0,0,0,0,0,2,0.009577793069183826,69576,0.9996175765991211,0.0010979087091982365,0.018988365307450294,0.020074617117643356,-0.001864269725047052,0.009587672539055347,-0.005592809058725834,"[0.0, 0.0, 0.0, 0.0]",14.989298820495605,8.370264053344727,0.0,-0.00011397482739994302,-0.00018415423983242363,0.0,10,0,192,0,3,3
RAW_RPM,69601004,3,369603658,-1220329575,0,65535,65535,5,0,255,0,0,0,0,0,0,0,0.0003834952076431364,69576,0.9996175765991211,0.0010979087091982365,0.018988365307450294,0.020074617117643356,-0.001864269725047052,0.009587672539055347,-0.005592809058725834,"[0.0, 0.0, 0.0, 0.0]",14.989298820495605,8.370264053344727,0.0,-0.00011397482739994302,-0.00018415423983242363,0.0,10,0,192,0,3,3
RAW_RPM,69601004,3,369603658,-1220329575,0,65535,65535,5,0,255,0,0,0,0,0,0,1,-0.0007669904152862728,69576,0.9996175765991211,0.0010979087091982365,0.018988365307450294,0.020074617117643356,-0.001864269725047052,0.009587672539055347,-0.005592809058725834,"[0.0, 0.0, 0.0, 0.0]",14.989298820495605,8.370264053344727,0.0,-0.00011397482739994302,-0.00018415423983242363,0.0,10,0,192,0,3,3
RAW_RPM,69601004,3,369603658,-1220329575,0,65535,65535,5,0,255,0,0,0,0,0,0,2,0.00983665231615305,69576,0.9996175765991211,0.0010979087091982365,0.018988365307450294,0.020074617117643356,-0.001864269725047052,0.009587672539055347,-0.005592809058725834,"[0.0, 0.0, 0.0, 0.0]",14.989298820495605,8.370264053344727,0.0,-0.00011397482739994302,-0.00018415423983242363,0.0,10,0,192,0,3,3
ATTITUDE_QUATERNION,69601004,3,369603658,-1220329575,0,65535,65535,5,0,255,0,0,0,0,0,0,2,0.00983665231615305,69627,0.9996156692504883,0.0009186965180560946,0.018966754898428917,0.020197497680783272,-0.003728539450094104,0.010120321065187454,-0.005060160532593727,"[0.0, 0.0, 0.0, 0.0]",14.989298820495605,8.370264053344727,0.0,-0.00011397482739994302,-0.00018415423983242363,0.0,10,0,192,0,3,3
LOCAL_POSITION_NED,69601004,3,369603658,-1220329575,0,65535,65535,5,0,255,0,0,0,0,0,0,2,0.00983665231615305,69627,0.9996156692504883,0.0009186965180560946,0.018966754898428917,0.020197497680783272,-0.003728539450094104,0.010120321065187454,-0.005060160532593727,"[0.0, 0.0, 0.0, 0.0]",14.989294052124023,8.370254516601562,0.0,-0.00011097569222329184,-0.0001793081610230729,0.0,10,0,192,0,3,3
RAW_RPM,69601004,3,369603658,-1220329575,0,65535,65535,5,0,255,0,0,0,0,0,0,0,-0.0015339808305725455,69627,0.9996156692504883,0.0009186965180560946,0.018966754898428917,0.020197497680783272,-0.003728539450094104,0.010120321065187454,-0.005060160532593727,"[0.0, 0.0, 0.0, 0.0]",14.989294052124023,8.370254516601562,0.0,-0.00011097569222329184,-0.0001793081610230729,0.0,10,0,192,0,3,3
RAW_RPM,69601004,3,369603658,-1220329575,0,65535,65535,5,0,255,0,0,0,0,0,0,1,0.0011504855938255787,69627,0.9996156692504883,0.0009186965180560946,0.018966754898428917,0.020197497680783272,-0.003728539450094104,0.010120321065187454,-0.005060160532593727,"[0.0, 0.0, 0.0, 0.0]",14.989294052124023,8.370254516601562,0.0,-0.00011097569222329184,-0.0001793081610230729,0.0,10,0,192,0,3,3
RAW_RPM,69601004,3,369603658,-1220329575,0,65535,65535,5,0,255,0,0,0,0,0,0,2,0.009318933822214603,69627,0.9996156692504883,0.0009186965180560946,0.018966754898428917,0.020197497680783272,-0.003728539450094104,0.010120321065187454,-0.005060160532593727,"[0.0, 0.0, 0.0, 0.0]",14.989294052124023,8.370254516601562,0.0,-0.00011097569222329184,-0.0001793081610230729,0.0,10,0,192,0,3,3
ATTITUDE_QUATERNION,69601004,3,369603658,-1220329575,0,65535,65535,5,0,255,0,0,0,0,0,0,2,0.009318933822214603,69678,0.9996353983879089,0.0002649360685609281,0.01832660287618637,0.019830984994769096,-0.0026632421649992466,0.010919293388724327,-0.002396918134763837,"[0.0, 0.0, 0.0, 0.0]",14.989294052124023,8.370254516601562,0.0,-0.00011097569222329184,-0.0001793081610230729,0.0,10,0,192,0,3,3
LOCAL_POSITION_NED,69601004,3,369603658,-1220329575,0,65535,65535,5,0,255,0,0,0,0,0,0,2,0.009318933822214603,69678,0.9996353983879089,0.0002649360685609281,0.01832660287618637,0.019830984994769096,-0.0026632421649992466,0.010919293388724327,-0.002396918134763837,"[0.0, 0.0, 0.0, 0.0]",14.989289283752441,8.370244979858398,0.0,-0.00011714093125192448,-0.0001892693544505164,0.0,10,0,192,0,3,3
GPS_RAW_INT,69702002,3,369603661,-1220329573,0,65535,65535,4,0,255,0,0,0,0,0,0,2,0.009318933822214603,69678,0.9996353983879089,0.0002649360685609281,0.01832660287618637,0.019830984994769096,-0.0026632421649992466,0.010919293388724327,-0.002396918134763837,"[0.0, 0.0, 0.0, 0.0]",14.989289283752441,8.370244979858398,0.0,-0.00011714093125192448,-0.0001892693544505164,0.0,10,0,192,0,3,3
RAW_RPM,69702002,3,369603661,-1220329573,0,65535,65535,4,0,255,0,0,0,0,0,0,0,-0.0007669904152862728,69678,0.9996353983879089,0.0002649360685609281,0.01832660287618637,0.019830984994769096,-0.0026632421649992466,0.010919293388724327,-0.002396918134763837,"[0.0, 0.0, 0.0, 0.0]",14.989289283752441,8.370244979858398,0.0,-0.00011714093125192448,-0.0001892693544505164,0.0,10,0,192,0,3,3
RAW_RPM,69702002,3,369603661,-1220329573,0,65535,65535,4,0,255,0,0,0,0,0,0,1,-0.0003834952076431364,69678,0.9996353983879089,0.0002649360685609281,0.01832660287618637,0.019830984994769096,-0.0026632421649992466,0.010919293388724327,-0.002396918134763837,"[0.0, 0.0, 0.0, 0.0]",14.989289283752441,8.370244979858398,0.0,-0.00011714093125192448,-0.0001892693544505164,0.0,10,0,192,0,3,3
RAW_RPM,69702002,3,369603661,-1220329573,0,65535,65535,4,0,255,0,0,0,0,0,0,2,0.010354370810091496,69678,0.9996353983879089,0.0002649360685609281,0.01832660287618637,0.019830984994769096,-0.0026632421649992466,0.010919293388724327,-0.002396918134763837,"[0.0, 0.0, 0.0, 0.0]",14.989289283752441,8.370244979858398,0.0,-0.00011714093125192448,-0.0001892693544505164,0.0,10,0,192,0,3,3
ATTITUDE_QUATERNION,69702002,3,369603661,-1220329573,0,65535,65535,4,0,255,0,0,0,0,0,0,2,0.010354370810091496,69729,0.9996160268783569,-0.0008514485089108348,0.019091829657554626,0.02006600797176361,0.0005326484679244459,0.014647833071649075,-0.00452751200646162,"[0.0, 0.0, 0.0, 0.0]",14.989289283752441,8.370244979858398,0.0,-0.00011714093125192448,-0.0001892693544505164,0.0,10,0,192,0,3,3
LOCAL_POSITION_NED,69702002,3,369603661,-1220329573,0,65535,65535,4,0,255,0,0,0,0,0,0,2,0.010354370810091496,69729,0.9996160268783569,-0.0008514485089108348,0.019091829657554626,0.02006600797176361,0.0005326484679244459,0.014647833071649075,-0.00452751200646162,"[0.0, 0.0, 0.0, 0.0]",14.989283561706543,8.370233535766602,0.0,-0.00010542731615714729,-0.00017034292977768928,0.0,10,0,192,0,3,3
RAW_RPM,69702002,3,369603661,-1220329573,0,65535,65535,4,0,255,0,0,0,0,0,0,0,0.0003834952076431364,69729,0.9996160268783569,-0.0008514485089108348,0.019091829657554626,0.02006600797176361,0.0005326484679244459,0.014647833071649075,-0.00452751200646162,"[0.0, 0.0, 0.0, 0.0]",14.989283561706543,8.370233535766602,0.0,-0.00010542731615714729,-0.00017034292977768928,0.0,10,0,192,0,3,3
RAW_RPM,69702002,3,369603661,-1220329573,0,65535,65535,4,0,255,0,0,0,0,0,0,1,0.0007669904152862728,69729,0.9996160268783569,-0.0008514485089108348,0.019091829657554626,0.02006600797176361,0.0005326484679244459,0.014647833071649075,-0.00452751200646162,"[0.0, 0.0, 0.0, 0.0]",14.989283561706543,8.370233535766602,0.0,-0.00010542731615714729,-0.00017034292977768928,0.0,10,0,192,0,3,3
RAW_RPM,69702002,3,369603661,-1220329573,0,65535,65535,4,0,255,0,0,0,0,0,0,2,0.010095511563122272,69729,0.9996160268783569,-0.0008514485089108348,0.019091829657554626,0.02006600797176361,0.0005326484679244459,0.014647833071649075,-0.00452751200646162,"[0.0, 0.0, 0.0, 0.0]",14.989283561706543,8.370233535766602,0.0,-0.00010542731615714729,-0.00017034292977768928,0.0,10,0,192,0,3,3
ATTITUDE_QUATERNION,69702002,3,369603661,-1220329573,0,65535,65535,4,0,255,0,0,0,0,0,0,2,0.010095511563122272,69780,0.999610424041748,-0.0012683882378041744,0.019276458770036697,0.02014625072479248,-0.006391781847923994,0.012517238967120647,-0.0034622149541974068,"[0.0, 0.0, 0.0, 0.0]",14.989283561706543,8.370233535766602,0.0,-0.00010542731615714729,-0.00017034292977768928,0.0,10,0,192,0,3,3
LOCAL_POSITION_NED,69702002,3,369603661,-1220329573,0,65535,65535,4,0,255,0,0,0,0,0,0,2,0.010095511563122272,69780,0.999610424041748,-0.0012683882378041744,0.019276458770036697,0.02014625072479248,-0.006391781847923994,0.012517238967120647,-0.0034622149541974068,"[0.0, 0.0, 0.0, 0.0]",14.989274024963379,8.370214462280273,0.0,-0.0002162613527616486,-0.00034942079219035804,0.0,10,0,192,0,3,3
GPS_RAW_INT,69803415,3,369603661,-1220329573,0,65535,65535,4,0,255,0,0,0,0,0,0,2,0.010095511563122272,69780,0.999610424041748,-0.0012683882378041744,0.019276458770036697,0.02014625072479248,-0.006391781847923994,0.012517238967120647,-0.0034622149541974068,"[0.0, 0.0, 0.0, 0.0]",14.989274024963379,8.370214462280273,0.0,-0.0002162613527616486,-0.00034942079219035804,0.0,10,0,192,0,3,3
RAW_RPM,69803415,3,369603661,-1220329573,0,65535,65535,4,0,255,0,0,0,0,0,0,0,-0.0003834952076431364,69780,0.999610424041748,-0.0012683882378041744,0.019276458770036697,0.02014625072479248,-0.006391781847923994,0.012517238967120647,-0.0034622149541974068,"[0.0, 0.0, 0.0, 0.0]",14.989274024963379,8.370214462280273,0.0,-0.0002162613527616486,-0.00034942079219035804,0.0,10,0,192,0,3,3
RAW_RPM,69803415,3,369603661,-1220329573,0,65535,65535,4,0,255,0,0,0,0,0,0,1,0.0019174760673195124,69780,0.999610424041748,-0.0012683882378041744,0.019276458770036697,0.02014625072479248,-0.006391781847923994,0.012517238967120647,-0.0034622149541974068,"[0.0, 0.0, 0.0, 0.0]",14.989274024963379,8.370214462280273,0.0,-0.0002162613527616486,-0.00034942079219035804,0.0,10,0,192,0,3,3
RAW_RPM,69803415,3,369603661,-1220329573,0,65535,65535,4,0,255,0,0,0,0,0,0,2,0.009577793069183826,69780,0.999610424041748,-0.0012683882378041744,0.019276458770036697,0.02014625072479248,-0.006391781847923994,0.012517238967120647,-0.0034622149541974068,"[0.0, 0.0, 0.0, 0.0]",14.989274024963379,8.370214462280273,0.0,-0.0002162613527616486,-0.00034942079219035804,0.0,10,0,192,0,3,3
ATTITUDE_QUATERNION,69803415,3,369603661,-1220329573,0,65535,65535,4,0,255,0,0,0,0,0,0,2,0.009577793069183826,69831,0.9996294379234314,-0.0004092025919817388,0.0185560155659914,0.019916445016860962,-0.005592809058725834,0.008522375486791134,-0.006125457119196653,"[0.0, 0.0, 0.0, 0.0]",14.989274024963379,8.370214462280273,0.0,-0.0002162613527616486,-0.00034942079219035804,0.0,10,0,192,0,3,3
LOCAL_POSITION_NED,69803415,3,369603661,-1220329573,0,65535,65535,4,0,255,0,0,0,0,0,0,2,0.009577793069183826,69831,0.9996294379234314,-0.0004092025919817388,0.0185560155659914,0.019916445016860962,-0.005592809058725834,0.008522375486791134,-0.006125457119196653,"[0.0, 0.0, 0.0, 0.0]",14.989267349243164,8.370201110839844,0.0,-0.0002279510663356632,-0.0003683075774461031,0.0,10,0,192,0,3,3
RAW_RPM,69803415,3,369603661,-1220329573,0,65535,65535,4,0,255,0,0,0,0,0,0,0,0.0003834952076431364,69831,0.9996294379234314,-0.0004092025919817388,0.0185560155659914,0.019916445016860962,-0.005592809058725834,0.008522375486791134,-0.006125457119196653,"[0.0, 0.0, 0.0, 0.0]",14.989267349243164,8.370201110839844,0.0,-0.0002279510663356632,-0.0003683075774461031,0.0,10,0,192,0,3,3
RAW_RPM,69803415,3,369603661,-1220329573,0,65535,65535,4,0,255,0,0,0,0,0,0,1,0.0007669904152862728,69831,0.9996294379234314,-0.0004092025919817388,0.0185560155659914,0.019916445016860962,-0.005592809058725834,0.008522375486791134,-0.006125457119196653,"[0.0, 0.0, 0.0, 0.0]",14.989267349243164,8.370201110839844,0.0,-0.0002279510663356632,-0.0003683075774461031,0.0,10,0,192,0,3,3
RAW_RPM,69803415,3,369603661,-1220329573,0,65535,65535,4,0,255,0,0,0,0,0,0,2,0.010095511563122272,69831,0.9996294379234314,-0.0004092025919817388,0.0185560155659914,0.019916445016860962,-0.005592809058725834,0.008522375486791134,-0.006125457119196653,"[0.0, 0.0, 0.0, 0.0]",14.989267349243164,8.370201110839844,0.0,-0.0002279510663356632,-0.0003683075774461031,0.0,10,0,192,0,3,3
ATTITUDE_QUATERNION,69803415,3,369603661,-1220329573,0,65535,65535,4,0,255,0,0,0,0,0,0,2,0.010095511563122272,69882,0.9996214509010315,-0.0012233834713697433,0.018855255097150803,0.02000224031507969,-0.001864269725047052,0.012250914238393307,-0.00452751200646162,"[0.0, 0.0, 0.0, 0.0]",14.989267349243164,8.370201110839844,0.0,-0.0002279510663356632,-0.0003683075774461031,0.0,10,0,192,0,3,3
LOCAL_POSITION_NED,69803415,3,369603661,-1220329573,0,65535,65535,4,0,255,0,0,0,0,0,0,2,0.010095511563122272,69882,0.9996214509010315,-0.0012233834713697433,0.018855255097150803,0.02000224031507969,-0.001864269725047052,0.012250914238393307,-0.00452751200646162,"[0.0, 0.0, 0.0, 0.0]",14.989259719848633,8.370185852050781,0.0,-0.0002162619639420882,-0.0003494204138405621,0.0,10,0,192,0,3,3
