mavpackettype,index,frequency,time_boot_ms,q1,q2,q3,q4,rollspeed,pitchspeed,yawspeed,repr_offset_q,x,y,z,vx,vy,vz,time_usec,fix_type,lat,lon,alt,eph,epv,vel,cog,satellites_visible,alt_ellipsoid,h_acc,v_acc,vel_acc,hdg_acc,yaw,type,autopilot,base_mode,custom_mode,system_status,mavlink_version
RAW_RPM,1,0.0003834952076431364,69989,0.9887762069702148,-0.05009225010871887,0.018381593748927116,-0.1395515650510788,-0.005592809058725834,0.010120321065187454,-0.0015979454619809985,"[0.0, 0.0, 0.0, 0.0]",-0.12767182290554047,0.0005664153723046184,0.0,-0.0004688394255936146,4.151467237534234e-06,0.0,70010003,3,369603820,-1220329421,0,65535,65535,6,0,255,0,0,0,0,0,0,10,0,192,0,3,3
RAW_RPM,2,0.01242524478584528,69989,0.9887762069702148,-0.05009225010871887,0.018381593748927116,-0.1395515650510788,-0.005592809058725834,0.010120321065187454,-0.0015979454619809985,"[0.0, 0.0, 0.0, 0.0]",-0.12767182290554047,0.0005664153723046184,0.0,-0.0004688394255936146,4.151467237534234e-06,0.0,70010003,3,369603820,-1220329421,0,65535,65535,6,0,255,0,0,0,0,0,0,10,0,192,0,3,3
ATTITUDE_QUATERNION,2,0.01242524478584528,70040,0.9887780547142029,-0.050008103251457214,0.018422935158014297,-0.1395624876022339,-0.0029295666608959436,0.010120321065187454,-0.006391781847923994,"[0.0, 0.0, 0.0, 0.0]",-0.12767182290554047,0.0005664153723046184,0.0,-0.0004688394255936146,4.151467237534234e-06,0.0,70010003,3,369603820,-1220329421,0,65535,65535,6,0,255,0,0,0,0,0,0,10,0,192,0,3,3
LOCAL_POSITION_NED,2,0.01242524478584528,70040,0.9887780547142029,-0.050008103251457214,0.018422935158014297,-0.1395624876022339,-0.0029295666608959436,0.010120321065187454,-0.006391781847923994,"[0.0, 0.0, 0.0, 0.0]",-0.1276937872171402,0.0005666098440997303,0.0,-0.00041733859688974917,3.6960684610676253e-06,0.0,70010003,3,369603820,-1220329421,0,65535,65535,6,0,255,0,0,0,0,0,0,10,0,192,0,3,3
RAW_RPM,0,-0.0011504855938255787,70040,0.9887780547142029,-0.050008103251457214,0.018422935158014297,-0.1395624876022339,-0.0029295666608959436,0.010120321065187454,-0.006391781847923994,"[0.0, 0.0, 0.0, 0.0]",-0.1276937872171402,0.0005666098440997303,0.0,-0.00041733859688974917,3.6960684610676253e-06,0.0,70010003,3,369603820,-1220329421,0,65535,65535,6,0,255,0,0,0,0,0,0,10,0,192,0,3,3
RAW_RPM,1,0.0,70040,0.9887780547142029,-0.050008103251457214,0.018422935158014297,-0.1395624876022339,-0.0029295666608959436,0.010120321065187454,-0.006391781847923994,"[0.0, 0.0, 0.0, 0.0]",-0.1276937872171402,0.0005666098440997303,0.0,-0.00041733859688974917,3.6960684610676253e-06,0.0,70010003,3,369603820,-1220329421,0,65535,65535,6,0,255,0,0,0,0,0,0,10,0,192,0,3,3
RAW_RPM,2,0.01164866704493761,70040,0.9887780547142029,-0.050008103251457214,0.018422935158014297,-0.1395624876022339,-0.0029295666608959436,0.010120321065187454,-0.006391781847923994,"[0.0, 0.0, 0.0, 0.0]",-0.1276937872171402,0.0005666098440997303,0.0,-0.00041733859688974917,3.6960684610676253e-06,0.0,70010003,3,369603820,-1220329421,0,65535,65535,6,0,255,0,0,0,0,0,0,10,0,192,0,3,3
ATTITUDE_QUATERNION,2,0.01164866704493761,70091,0.9887940883636475,-0.049992963671684265,0.01891539804637432,-0.1393890529870987,0.0005326484679244459,0.0069244299083948135,-0.0039948634803295135,"[0.0, 0.0, 0.0, 0.0]",-0.1276937872171402,0.0005666098440997303,0.0,-0.00041733859688974917,3.6960684610676253e-06,0.0,70010003,3,369603820,-1220329421,0,65535,65535,6,0,255,0,0,0,0,0,0,10,0,192,0,3,3
LOCAL_POSITION_NED,2,0.01164866704493761,70091,0.9887940883636475,-0.049992963671684265,0.01891539804637432,-0.1393890529870987,0.0005326484679244459,0.0069244299083948135,-0.0039948634803295135,"[0.0, 0.0, 0.0, 0.0]",-0.12771223485469818,0.0005667732912115753,0.0,-0.00025596687919460237,2.267259333166294e-06,0.0,70010003,3,369603820,-1220329421,0,65535,65535,6,0,255,0,0,0,0,0,0,10,0,192,0,3,3
GPS_RAW_INT,2,0.01164866704493761,70091,0.9887940883636475,-0.049992963671684265,0.01891539804637432,-0.1393890529870987,0.0005326484679244459,0.0069244299083948135,-0.0039948634803295135,"[0.0, 0.0, 0.0, 0.0]",-0.12771223485469818,0.0005667732912115753,0.0,-0.00025596687919460237,2.267259333166294e-06,0.0,70111006,3,369603820,-1220329421,0,65535,65535,1,0,255,0,0,0,0,0,0,10,0,192,0,3,3
RAW_RPM,0,0.0011504855938255787,70091,0.9887940883636475,-0.049992963671684265,0.01891539804637432,-0.1393890529870987,0.0005326484679244459,0.0069244299083948135,-0.0039948634803295135,"[0.0, 0.0, 0.0, 0.0]",-0.12771223485469818,0.0005667732912115753,0.0,-0.00025596687919460237,2.267259333166294e-06,0.0,70111006,3,369603820,-1220329421,0,65535,65535,1,0,255,0,0,0,0,0,0,10,0,192,0,3,3
RAW_RPM,1,0.0,70091,0.9887940883636475,-0.049992963671684265,0.01891539804637432,-0.1393890529870987,0.0005326484679244459,0.0069244299083948135,-0.0039948634803295135,"[0.0, 0.0, 0.0, 0.0]",-0.12771223485469818,0.0005667732912115753,0.0,-0.00025596687919460237,2.267259333166294e-06,0.0,70111006,3,369603820,-1220329421,0,65535,65535,1,0,255,0,0,0,0,0,0,10,0,192,0,3,3
RAW_RPM,2,0.011907526291906834,70091,0.9887940883636475,-0.049992963671684265,0.01891539804637432,-0.1393890529870987,0.0005326484679244459,0.0069244299083948135,-0.0039948634803295135,"[0.0, 0.0, 0.0, 0.0]",-0.12771223485469818,0.0005667732912115753,0.0,-0.00025596687919460237,2.267259333166294e-06,0.0,70111006,3,369603820,-1220329421,0,65535,65535,1,0,255,0,0,0,0,0,0,10,0,192,0,3,3
ATTITUDE_QUATERNION,2,0.011907526291906834,70142,0.9888225197792053,-0.05004457011818886,0.019229451194405556,-0.13912498950958252,-0.004261187743395567,0.010120321065187454,-0.007457078900188208,"[0.0, 0.0, 0.0, 0.0]",-0.12771223485469818,0.0005667732912115753,0.0,-0.00025596687919460237,2.267259333166294e-06,0.0,70111006,3,369603820,-1220329421,0,65535,65535,1,0,255,0,0,0,0,0,0,10,0,192,0,3,3
LOCAL_POSITION_NED,2,0.011907526291906834,70142,0.9888225197792053,-0.05004457011818886,0.019229451194405556,-0.13912498950958252,-0.004261187743395567,0.010120321065187454,-0.007457078900188208,"[0.0, 0.0, 0.0, 0.0]",-0.12772995233535767,0.000566930219065398,0.0,-0.0003565515507943928,3.1586282602802385e-06,0.0,70111006,3,369603820,-1220329421,0,65535,65535,1,0,255,0,0,0,0,0,0,10,0,192,0,3,3
RAW_RPM,0,-0.0003834952076431364,70142,0.9888225197792053,-0.05004457011818886,0.019229451194405556,-0.13912498950958252,-0.004261187743395567,0.010120321065187454,-0.007457078900188208,"[0.0, 0.0, 0.0, 0.0]",-0.12772995233535767,0.000566930219065398,0.0,-0.0003565515507943928,3.1586282602802385e-06,0.0,70111006,3,369603820,-1220329421,0,65535,65535,1,0,255,0,0,0,0,0,0,10,0,192,0,3,3
RAW_RPM,1,0.0011504855938255787,70142,0.9888225197792053,-0.05004457011818886,0.019229451194405556,-0.13912498950958252,-0.004261187743395567,0.010120321065187454,-0.007457078900188208,"[0.0, 0.0, 0.0, 0.0]",-0.12772995233535767,0.000566930219065398,0.0,-0.0003565515507943928,3.1586282602802385e-06,0.0,70111006,3,369603820,-1220329421,0,65535,65535,1,0,255,0,0,0,0,0,0,10,0,192,0,3,3
RAW_RPM,2,0.012166385538876057,70142,0.9888225197792053,-0.05004457011818886,0.019229451194405556,-0.13912498950958252,-0.004261187743395567,0.010120321065187454,-0.007457078900188208,"[0.0, 0.0, 0.0, 0.0]",-0.12772995233535767,0.000566930219065398,0.0,-0.0003565515507943928,3.1586282602802385e-06,0.0,70111006,3,369603820,-1220329421,0,65535,65535,1,0,255,0,0,0,0,0,0,10,0,192,0,3,3
ATTITUDE_QUATERNION,2,0.012166385538876057,70193,0.9887460470199585,-0.050632525235414505,0.018774310126900673,-0.13951712846755981,-0.0005326484679244459,0.007989726960659027,-0.008788700215518475,"[0.0, 0.0, 0.0, 0.0]",-0.12772995233535767,0.000566930219065398,0.0,-0.0003565515507943928,3.1586282602802385e-06,0.0,70111006,3,369603820,-1220329421,0,65535,65535,1,0,255,0,0,0,0,0,0,10,0,192,0,3,3
LOCAL_POSITION_NED,2,0.012166385538876057,70193,0.9887460470199585,-0.050632525235414505,0.018774310126900673,-0.13951712846755981,-0.0005326484679244459,0.007989726960659027,-0.008788700215518475,"[0.0, 0.0, 0.0, 0.0]",-0.12774649262428284,0.0005670767859555781,0.0,-0.00033431447809562087,2.9620146051456686e-06,0.0,70111006,3,369603820,-1220329421,0,65535,65535,1,0,255,0,0,0,0,0,0,10,0,192,0,3,3
GPS_RAW_INT,2,0.012166385538876057,70193,0.9887460470199585,-0.050632525235414505,0.018774310126900673,-0.13951712846755981,-0.0005326484679244459,0.007989726960659027,-0.008788700215518475,"[0.0, 0.0, 0.0, 0.0]",-0.12774649262428284,0.0005670767859555781,0.0,-0.00033431447809562087,2.9620146051456686e-06,0.0,70212005,3,369603820,-1220329421,0,65535,65535,1,0,255,0,0,0,0,0,0,10,0,192,0,3,3
RAW_RPM,0,-0.0007669904152862728,70193,0.9887460470199585,-0.050632525235414505,0.018774310126900673,-0.13951712846755981,-0.0005326484679244459,0.007989726960659027,-0.008788700215518475,"[0.0, 0.0, 0.0, 0.0]",-0.12774649262428284,0.0005670767859555781,0.0,-0.00033431447809562087,2.9620146051456686e-06,0.0,70212005,3,369603820,-1220329421,0,65535,65535,1,0,255,0,0,0,0,0,0,10,0,192,0,3,3
RAW_RPM,1,0.0,70193,0.9887460470199585,-0.050632525235414505,0.018774310126900673,-0.13951712846755981,-0.0005326484679244459,0.007989726960659027,-0.008788700215518475,"[0.0, 0.0, 0.0, 0.0]",-0.12774649262428284,0.0005670767859555781,0.0,-0.00033431447809562087,2.9620146051456686e-06,0.0,70212005,3,369603820,-1220329421,0,65535,65535,1,0,255,0,0,0,0,0,0,10,0,192,0,3,3
RAW_RPM,2,0.011907526291906834,70193,0.9887460470199585,-0.050632525235414505,0.018774310126900673,-0.13951712846755981,-0.0005326484679244459,0.007989726960659027,-0.008788700215518475,"[0.0, 0.0, 0.0, 0.0]",-0.12774649262428284,0.0005670767859555781,0.0,-0.00033431447809562087,2.9620146051456686e-06,0.0,70212005,3,369603820,-1220329421,0,65535,65535,1,0,255,0,0,0,0,0,0,10,0,192,0,3,3
ATTITUDE_QUATERNION,2,0.011907526291906834,70244,0.9887524843215942,-0.05054130405187607,0.0188062135130167,-0.13950099050998688,0.0026632421649992466,0.010386645793914795,-0.004261187743395567,"[0.0, 0.0, 0.0, 0.0]",-0.12774649262428284,0.0005670767859555781,0.0,-0.00033431447809562087,2.9620146051456686e-06,0.0,70212005,3,369603820,-1220329421,0,65535,65535,1,0,255,0,0,0,0,0,0,10,0,192,0,3,3
LOCAL_POSITION_NED,2,0.011907526291906834,70244,0.9887524843215942,-0.05054130405187607,0.0188062135130167,-0.13950099050998688,0.0026632421649992466,0.010386645793914795,-0.004261187743395567,"[0.0, 0.0, 0.0, 0.0]",-0.12776198983192444,0.0005672139232046902,0.0,-0.0003170859126839787,2.809711077134125e-06,0.0,70212005,3,369603820,-1220329421,0,65535,65535,1,0,255,0,0,0,0,0,0,10,0,192,0,3,3
RAW_RPM,0,0.0,70244,0.9887524843215942,-0.05054130405187607,0.0188062135130167,-0.13950099050998688,0.0026632421649992466,0.010386645793914795,-0.004261187743395567,"[0.0, 0.0, 0.0, 0.0]",-0.12776198983192444,0.0005672139232046902,0.0,-0.0003170859126839787,2.809711077134125e-06,0.0,70212005,3,369603820,-1220329421,0,65535,65535,1,0,255,0,0,0,0,0,0,10,0,192,0,3,3
RAW_RPM,1,0.0019174760673195124,70244,0.9887524843215942,-0.05054130405187607,0.0188062135130167,-0.13950099050998688,0.0026632421649992466,0.010386645793914795,-0.004261187743395567,"[0.0, 0.0, 0.0, 0.0]",-0.12776198983192444,0.0005672139232046902,0.0,-0.0003170859126839787,2.809711077134125e-06,0.0,70212005,3,369603820,-1220329421,0,65535,65535,1,0,255,0,0,0,0,0,0,10,0,192,0,3,3
RAW_RPM,2,0.01164866704493761,70244,0.9887524843215942,-0.05054130405187607,0.0188062135130167,-0.13950099050998688,0.0026632421649992466,0.010386645793914795,-0.004261187743395567,"[0.0, 0.0, 0.0, 0.0]",-0.12776198983192444,0.0005672139232046902,0.0,-0.0003170859126839787,2.809711077134125e-06,0.0,70212005,3,369603820,-1220329421,0,65535,65535,1,0,255,0,0,0,0,0,0,10,0,192,0,3,3
ATTITUDE_QUATERNION,2,0.01164866704493761,70295,0.9888216853141785,-0.050333172082901,0.019613424316048622,-0.13897337019443512,0.0013316210824996233,0.015180480666458607,-0.003728539450094104,"[0.0, 0.0, 0.0, 0.0]",-0.12776198983192444,0.0005672139232046902,0.0,-0.0003170859126839787,2.809711077134125e-06,0.0,70212005,3,369603820,-1220329421,0,65535,65535,1,0,255,0,0,0,0,0,0,10,0,192,0,3,3
LOCAL_POSITION_NED,2,0.01164866704493761,70295,0.9888216853141785,-0.050333172082901,0.019613424316048622,-0.13897337019443512,0.0013316210824996233,0.015180480666458607,-0.003728539450094104,"[0.0, 0.0, 0.0, 0.0]",-0.12777388095855713,0.0005673193372786045,0.0,-0.00018919289868790656,1.6766080079833046e-06,0.0,70212005,3,369603820,-1220329421,0,65535,65535,1,0,255,0,0,0,0,0,0,10,0,192,0,3,3
GPS_RAW_INT,2,0.01164866704493761,70295,0.9888216853141785,-0.050333172082901,0.019613424316048622,-0.13897337019443512,0.0013316210824996233,0.015180480666458607,-0.003728539450094104,"[0.0, 0.0, 0.0, 0.0]",-0.12777388095855713,0.0005673193372786045,0.0,-0.00018919289868790656,1.6766080079833046e-06,0.0,70313002,3,369603820,-1220329421,0,65535,65535,2,0,255,0,0,0,0,0,0,10,0,192,0,3,3
RAW_RPM,0,0.0,70295,0.9888216853141785,-0.050333172082901,0.019613424316048622,-0.13897337019443512,0.0013316210824996233,0.015180480666458607,-0.003728539450094104,"[0.0, 0.0, 0.0, 0.0]",-0.12777388095855713,0.0005673193372786045,0.0,-0.00018919289868790656,1.6766080079833046e-06,0.0,70313002,3,369603820,-1220329421,0,65535,65535,2,0,255,0,0,0,0,0,0,10,0,192,0,3,3
RAW_RPM,1,0.0,70295,0.9888216853141785,-0.050333172082901,0.019613424316048622,-0.13897337019443512,0.0013316210824996233,0.015180480666458607,-0.003728539450094104,"[0.0, 0.0, 0.0, 0.0]",-0.12777388095855713,0.0005673193372786045,0.0,-0.00018919289868790656,1.6766080079833046e-06,0.0,70313002,3,369603820,-1220329421,0,65535,65535,2,0,255,0,0,0,0,0,0,10,0,192,0,3,3
RAW_RPM,2,0.012166385538876057,70295,0.9888216853141785,-0.050333172082901,0.019613424316048622,-0.13897337019443512,0.0013316210824996233,0.015180480666458607,-0.003728539450094104,"[0.0, 0.0, 0.0, 0.0]",-0.12777388095855713,0.0005673193372786045,0.0,-0.00018919289868790656,1.6766080079833046e-06,0.0,70313002,3,369603820,-1220329421,0,65535,65535,2,0,255,0,0,0,0,0,0,10,0,192,0,3,3
ATTITUDE_QUATERNION,2,0.012166385538876057,70346,0.9889098405838013,-0.04916955158114433,0.019849253818392754,-0.1387288123369217,-0.0039948634803295135,0.010919293388724327,-0.004261187743395567,"[0.0, 0.0, 0.0, 0.0]",-0.12777388095855713,0.0005673193372786045,0.0,-0.00018919289868790656,1.6766080079833046e-06,0.0,70313002,3,369603820,-1220329421,0,65535,65535,2,0,255,0,0,0,0,0,0,10,0,192,0,3,3
LOCAL_POSITION_NED,2,0.012166385538876057,70346,0.9889098405838013,-0.04916955158114433,0.019849253818392754,-0.1387288123369217,-0.0039948634803295135,0.010919293388724327,-0.004261187743395567,"[0.0, 0.0, 0.0, 0.0]",-0.12778452038764954,0.0005674137501046062,0.0,-0.00032765482319518924,2.903867425629869e-06,0.0,70313002,3,369603820,-1220329421,0,65535,65535,2,0,255,0,0,0,0,0,0,10,0,192,0,3,3
RAW_RPM,0,-0.0007669904152862728,70346,0.9889098405838013,-0.04916955158114433,0.019849253818392754,-0.1387288123369217,-0.0039948634803295135,0.010919293388724327,-0.004261187743395567,"[0.0, 0.0, 0.0, 0.0]",-0.12778452038764954,0.0005674137501046062,0.0,-0.00032765482319518924,2.903867425629869e-06,0.0,70313002,3,369603820,-1220329421,0,65535,65535,2,0,255,0,0,0,0,0,0,10,0,192,0,3,3
RAW_RPM,1,-0.0007669904152862728,70346,0.9889098405838013,-0.04916955158114433,0.019849253818392754,-0.1387288123369217,-0.0039948634803295135,0.010919293388724327,-0.004261187743395567,"[0.0, 0.0, 0.0, 0.0]",-0.12778452038764954,0.0005674137501046062,0.0,-0.00032765482319518924,2.903867425629869e-06,0.0,70313002,3,369603820,-1220329421,0,65535,65535,2,0,255,0,0,0,0,0,0,10,0,192,0,3,3
RAW_RPM,2,0.01164866704493761,70346,0.9889098405838013,-0.04916955158114433,0.019849253818392754,-0.1387288123369217,-0.0039948634803295135,0.010919293388724327,-0.004261187743395567,"[0.0, 0.0, 0.0, 0.0]",-0.12778452038764954,0.0005674137501046062,0.0,-0.00032765482319518924,2.903867425629869e-06,0.0,70313002,3,369603820,-1220329421,0,65535,65535,2,0,255,0,0,0,0,0,0,10,0,192,0,3,3
ATTITUDE_QUATERNION,2,0.01164866704493761,70397,0.9889503121376038,-0.049857914447784424,0.020754573866724968,-0.13806118071079254,-0.0021305938716977835,0.009587672539055347,-0.003728539450094104,"[0.0, 0.0, 0.0, 0.0]",-0.12778452038764954,0.0005674137501046062,0.0,-0.00032765482319518924,2.903867425629869e-06,0.0,70313002,3,369603820,-1220329421,0,65535,65535,2,0,255,0,0,0,0,0,0,10,0,192,0,3,3
LOCAL_POSITION_NED,2,0.01164866704493761,70397,0.9889503121376038,-0.049857914447784424,0.020754573866724968,-0.13806118071079254,-0.0021305938716977835,0.009587672539055347,-0.003728539450094104,"[0.0, 0.0, 0.0, 0.0]",-0.12780024111270905,0.0005675529246218503,0.0,-0.00024483786546625197,2.1701666810258757e-06,0.0,70313002,3,369603820,-1220329421,0,65535,65535,2,0,255,0,0,0,0,0,0,10,0,192,0,3,3
GPS_RAW_INT,2,0.01164866704493761,70397,0.9889503121376038,-0.049857914447784424,0.020754573866724968,-0.13806118071079254,-0.0021305938716977835,0.009587672539055347,-0.003728539450094104,"[0.0, 0.0, 0.0, 0.0]",-0.12780024111270905,0.0005675529246218503,0.0,-0.00024483786546625197,2.1701666810258757e-06,0.0,70414005,3,369603820,-1220329421,0,65535,65535,2,0,255,0,0,0,0,0,0,10,0,192,0,3,3
RAW_RPM,0,-0.0011504855938255787,70397,0.9889503121376038,-0.049857914447784424,0.020754573866724968,-0.13806118071079254,-0.0021305938716977835,0.009587672539055347,-0.003728539450094104,"[0.0, 0.0, 0.0, 0.0]",-0.12780024111270905,0.0005675529246218503,0.0,-0.00024483786546625197,2.1701666810258757e-06,0.0,70414005,3,369603820,-1220329421,0,65535,65535,2,0,255,0,0,0,0,0,0,10,0,192,0,3,3
RAW_RPM,1,0.0015339808305725455,70397,0.9889503121376038,-0.049857914447784424,0.020754573866724968,-0.13806118071079254,-0.0021305938716977835,0.009587672539055347,-0.003728539450094104,"[0.0, 0.0, 0.0, 0.0]",-0.12780024111270905,0.0005675529246218503,0.0,-0.00024483786546625197,2.1701666810258757e-06,0.0,70414005,3,369603820,-1220329421,0,65535,65535,2,0,255,0,0,0,0,0,0,10,0,192,0,3,3
RAW_RPM,2,0.01164866704493761,70397,0.9889503121376038,-0.049857914447784424,0.020754573866724968,-0.13806118071079254,-0.0021305938716977835,0.009587672539055347,-0.003728539450094104,"[0.0, 0.0, 0.0, 0.0]",-0.12780024111270905,0.0005675529246218503,0.0,-0.00024483786546625197,2.1701666810258757e-06,0.0,70414005,3,369603820,-1220329421,0,65535,65535,2,0,255,0,0,0,0,0,0,10,0,192,0,3,3
ATTITUDE_QUATERNION,2,0.01164866704493761,70448,0.9888832569122314,-0.05063290894031525,0.020145071670413017,-0.13834895193576813,-0.005592809058725834,0.011451941914856434,-0.004261187743395567,"[0.0, 0.0, 0.0, 0.0]",-0.12780024111270905,0.0005675529246218503,0.0,-0.00024483786546625197,2.1701666810258757e-06,0.0,70414005,3,369603820,-1220329421,0,65535,65535,2,0,255,0,0,0,0,0,0,10,0,192,0,3,3
LOCAL_POSITION_NED,2,0.01164866704493761,70448,0.9888832569122314,-0.05063290894031525,0.020145071670413017,-0.13834895193576813,-0.005592809058725834,0.011451941914856434,-0.004261187743395567,"[0.0, 0.0, 0.0, 0.0]",-0.12781588733196259,0.000567691691685468,0.0,-0.0003561277990229428,3.1569754810334416e-06,0.0,70414005,3,369603820,-1220329421,0,65535,65535,2,0,255,0,0,0,0,0,0,10,0,192,0,3,3
RAW_RPM,0,0.0,70448,0.9888832569122314,-0.05063290894031525,0.020145071670413017,-0.13834895193576813,-0.005592809058725834,0.011451941914856434,-0.004261187743395567,"[0.0, 0.0, 0.0, 0.0]",-0.12781588733196259,0.000567691691685468,0.0,-0.0003561277990229428,3.1569754810334416e-06,0.0,70414005,3,369603820,-1220329421,0,65535,65535,2,0,255,0,0,0,0,0,0,10,0,192,0,3,3
RAW_RPM,1,-0.0011504855938255787,70448,0.9888832569122314,-0.05063290894031525,0.020145071670413017,-0.13834895193576813,-0.005592809058725834,0.011451941914856434,-0.004261187743395567,"[0.0, 0.0, 0.0, 0.0]",-0.12781588733196259,0.000567691691685468,0.0,-0.0003561277990229428,3.1569754810334416e-06,0.0,70414005,3,369603820,-1220329421,0,65535,65535,2,0,255,0,0,0,0,0,0,10,0,192,0,3,3
RAW_RPM,2,0.012166385538876057,70448,0.9888832569122314,-0.05063290894031525,0.020145071670413017,-0.13834895193576813,-0.005592809058725834,0.011451941914856434,-0.004261187743395567,"[0.0, 0.0, 0.0, 0.0]",-0.12781588733196259,0.000567691691685468,0.0,-0.0003561277990229428,3.1569754810334416e-06,0.0,70414005,3,369603820,-1220329421,0,65535,65535,2,0,255,0,0,0,0,0,0,10,0,192,0,3,3
ATTITUDE_QUATERNION,2,0.012166385538876057,70499,0.9888995289802551,-0.05050168186426163,0.02016487531363964,-0.13827745616436005,-0.00026632423396222293,0.013848859816789627,-0.005060160532593727,"[0.0, 0.0, 0.0, 0.0]",-0.12781588733196259,0.000567691691685468,0.0,-0.0003561277990229428,3.1569754810334416e-06,0.0,70414005,3,369603820,-1220329421,0,65535,65535,2,0,255,0,0,0,0,0,0,10,0,192,0,3,3
LOCAL_POSITION_NED,2,0.012166385538876057,70500,0.9888995289802551,-0.05050168186426163,0.02016487531363964,-0.13827745616436005,-0.00026632423396222293,0.013848859816789627,-0.005060160532593727,"[0.0, 0.0, 0.0, 0.0]",-0.12783341109752655,0.0005678468733094633,0.0,-0.0003929193480871618,3.4835927635867847e-06,0.0,70414005,3,369603820,-1220329421,0,65535,65535,2,0,255,0,0,0,0,0,0,10,0,192,0,3,3
GPS_RAW_INT,2,0.012166385538876057,70500,0.9888995289802551,-0.05050168186426163,0.02016487531363964,-0.13827745616436005,-0.00026632423396222293,0.013848859816789627,-0.005060160532593727,"[0.0, 0.0, 0.0, 0.0]",-0.12783341109752655,0.0005678468733094633,0.0,-0.0003929193480871618,3.4835927635867847e-06,0.0,70515003,3,369603818,-1220329421,0,65535,65535,3,0,255,0,0,0,0,0,0,10,0,192,0,3,3
RAW_RPM,0,-0.0003834952076431364,70500,0.9888995289802551,-0.05050168186426163,0.02016487531363964,-0.13827745616436005,-0.00026632423396222293,0.013848859816789627,-0.005060160532593727,"[0.0, 0.0, 0.0, 0.0]",-0.12783341109752655,0.0005678468733094633,0.0,-0.0003929193480871618,3.4835927635867847e-06,0.0,70515003,3,369603818,-1220329421,0,65535,65535,3,0,255,0,0,0,0,0,0,10,0,192,0,3,3
RAW_RPM,1,0.0007669904152862728,70500,0.9888995289802551,-0.05050168186426163,0.02016487531363964,-0.13827745616436005,-0.00026632423396222293,0.013848859816789627,-0.005060160532593727,"[0.0, 0.0, 0.0, 0.0]",-0.12783341109752655,0.0005678468733094633,0.0,-0.0003929193480871618,3.4835927635867847e-06,0.0,70515003,3,369603818,-1220329421,0,65535,65535,3,0,255,0,0,0,0,0,0,10,0,192,0,3,3
RAW_RPM,2,0.01164866704493761,70500,0.9888995289802551,-0.05050168186426163,0.02016487531363964,-0.13827745616436005,-0.00026632423396222293,0.013848859816789627,-0.005060160532593727,"[0.0, 0.0, 0.0, 0.0]",-0.12783341109752655,0.0005678468733094633,0.0,-0.0003929193480871618,3.4835927635867847e-06,0.0,70515003,3,369603818,-1220329421,0,65535,65535,3,0,255,0,0,0,0,0,0,10,0,192,0,3,3
ATTITUDE_QUATERNION,2,0.01164866704493761,70550,0.9889768362045288,-0.05039617419242859,0.020928727462887764,-0.13764823973178864,-0.00452751200646162,0.011984591372311115,-0.0015979454619809985,"[0.0, 0.0, 0.0, 0.0]",-0.12783341109752655,0.0005678468733094633,0.0,-0.0003929193480871618,3.4835927635867847e-06,0.0,70515003,3,369603818,-1220329421,0,65535,65535,3,0,255,0,0,0,0,0,0,10,0,192,0,3,3
LOCAL_POSITION_NED,2,0.01164866704493761,70550,0.9889768362045288,-0.05039617419242859,0.020928727462887764,-0.13764823973178864,-0.00452751200646162,0.011984591372311115,-0.0015979454619809985,"[0.0, 0.0, 0.0, 0.0]",-0.1278480887413025,0.0005679769674316049,0.0,-0.0002504023432265967,2.2203155367606087e-06,0.0,70515003,3,369603818,-1220329421,0,65535,65535,3,0,255,0,0,0,0,0,0,10,0,192,0,3,3
RAW_RPM,0,-0.0007669904152862728,70550,0.9889768362045288,-0.05039617419242859,0.020928727462887764,-0.13764823973178864,-0.00452751200646162,0.011984591372311115,-0.0015979454619809985,"[0.0, 0.0, 0.0, 0.0]",-0.1278480887413025,0.0005679769674316049,0.0,-0.0002504023432265967,2.2203155367606087e-06,0.0,70515003,3,369603818,-1220329421,0,65535,65535,3,0,255,0,0,0,0,0,0,10,0,192,0,3,3
RAW_RPM,1,-0.0011504855938255787,70550,0.9889768362045288,-0.05039617419242859,0.020928727462887764,-0.13764823973178864,-0.00452751200646162,0.011984591372311115,-0.0015979454619809985,"[0.0, 0.0, 0.0, 0.0]",-0.1278480887413025,0.0005679769674316049,0.0,-0.0002504023432265967,2.2203155367606087e-06,0.0,70515003,3,369603818,-1220329421,0,65535,65535,3,0,255,0,0,0,0,0,0,10,0,192,0,3,3
RAW_RPM,2,0.012166385538876057,70550,0.9889768362045288,-0.05039617419242859,0.020928727462887764,-0.13764823973178864,-0.00452751200646162,0.011984591372311115,-0.0015979454619809985,"[0.0, 0.0, 0.0, 0.0]",-0.1278480887413025,0.0005679769674316049,0.0,-0.0002504023432265967,2.2203155367606087e-06,0.0,70515003,3,369603818,-1220329421,0,65535,65535,3,0,255,0,0,0,0,0,0,10,0,192,0,3,3
ATTITUDE_QUATERNION,2,0.012166385538876057,70601,0.9889689683914185,-0.050382327288389206,0.020353909581899643,-0.13779626786708832,-0.0029295666608959436,0.008256050758063793,-0.0010652969358488917,"[0.0, 0.0, 0.0, 0.0]",-0.1278480887413025,0.0005679769674316049,0.0,-0.0002504023432265967,2.2203155367606087e-06,0.0,70515003,3,369603818,-1220329421,0,65535,65535,3,0,255,0,0,0,0,0,0,10,0,192,0,3,3
LOCAL_POSITION_NED,2,0.012166385538876057,70601,0.9889689683914185,-0.050382327288389206,0.020353909581899643,-0.13779626786708832,-0.0029295666608959436,0.008256050758063793,-0.0010652969358488917,"[0.0, 0.0, 0.0, 0.0]",-0.12786167860031128,0.0005680973990820348,0.0,-0.00024374319764319807,2.1614980596496025e-06,0.0,70515003,3,369603818,-1220329421,0,65535,65535,3,0,255,0,0,0,0,0,0,10,0,192,0,3,3
GPS_RAW_INT,2,0.012166385538876057,70601,0.9889689683914185,-0.050382327288389206,0.020353909581899643,-0.13779626786708832,-0.0029295666608959436,0.008256050758063793,-0.0010652969358488917,"[0.0, 0.0, 0.0, 0.0]",-0.12786167860031128,0.0005680973990820348,0.0,-0.00024374319764319807,2.1614980596496025e-06,0.0,70616007,3,369603818,-1220329421,0,65535,65535,3,0,255,0,0,0,0,0,0,10,0,192,0,3,3
RAW_RPM,0,0.0,70601,0.9889689683914185,-0.050382327288389206,0.020353909581899643,-0.13779626786708832,-0.0029295666608959436,0.008256050758063793,-0.0010652969358488917,"[0.0, 0.0, 0.0, 0.0]",-0.12786167860031128,0.0005680973990820348,0.0,-0.00024374319764319807,2.1614980596496025e-06,0.0,70616007,3,369603818,-1220329421,0,65535,65535,3,0,255,0,0,0,0,0,0,10,0,192,0,3,3
RAW_RPM,1,0.0007669904152862728,70601,0.9889689683914185,-0.050382327288389206,0.020353909581899643,-0.13779626786708832,-0.0029295666608959436,0.008256050758063793,-0.0010652969358488917,"[0.0, 0.0, 0.0, 0.0]",-0.12786167860031128,0.0005680973990820348,0.0,-0.00024374319764319807,2.1614980596496025e-06,0.0,70616007,3,369603818,-1220329421,0,65535,65535,3,0,255,0,0,0,0,0,0,10,0,192,0,3,3
RAW_RPM,2,0.011907526291906834,70601,0.9889689683914185,-0.050382327288389206,0.020353909581899643,-0.13779626786708832,-0.0029295666608959436,0.008256050758063793,-0.0010652969358488917,"[0.0, 0.0, 0.0, 0.0]",-0.12786167860031128,0.0005680973990820348,0.0,-0.00024374319764319807,2.1614980596496025e-06,0.0,70616007,3,369603818,-1220329421,0,65535,65535,3,0,255,0,0,0,0,0,0,10,0,192,0,3,3
ATTITUDE_QUATERNION,2,0.011907526291906834,70652,0.9889938831329346,-0.050628021359443665,0.020639685913920403,-0.1374843269586563,-0.006125457119196653,0.008256050758063793,-0.0066581061109900475,"[0.0, 0.0, 0.0, 0.0]",-0.12786167860031128,0.0005680973990820348,0.0,-0.00024374319764319807,2.1614980596496025e-06,0.0,70616007,3,369603818,-1220329421,0,65535,65535,3,0,255,0,0,0,0,0,0,10,0,192,0,3,3
LOCAL_POSITION_NED,2,0.011907526291906834,70652,0.9889938831329346,-0.050628021359443665,0.020639685913920403,-0.1374843269586563,-0.006125457119196653,0.008256050758063793,-0.0066581061109900475,"[0.0, 0.0, 0.0, 0.0]",-0.12788064777851105,0.0005682655610144138,0.0,-0.0004667830653488636,4.1399789552087896e-06,0.0,70616007,3,369603818,-1220329421,0,65535,65535,3,0,255,0,0,0,0,0,0,10,0,192,0,3,3
RAW_RPM,0,0.0007669904152862728,70652,0.9889938831329346,-0.050628021359443665,0.020639685913920403,-0.1374843269586563,-0.006125457119196653,0.008256050758063793,-0.0066581061109900475,"[0.0, 0.0, 0.0, 0.0]",-0.12788064777851105,0.0005682655610144138,0.0,-0.0004667830653488636,4.1399789552087896e-06,0.0,70616007,3,369603818,-1220329421,0,65535,65535,3,0,255,0,0,0,0,0,0,10,0,192,0,3,3
RAW_RPM,1,-0.0007669904152862728,70652,0.9889938831329346,-0.050628021359443665,0.020639685913920403,-0.1374843269586563,-0.006125457119196653,0.008256050758063793,-0.0066581061109900475,"[0.0, 0.0, 0.0, 0.0]",-0.12788064777851105,0.0005682655610144138,0.0,-0.0004667830653488636,4.1399789552087896e-06,0.0,70616007,3,369603818,-1220329421,0,65535,65535,3,0,255,0,0,0,0,0,0,10,0,192,0,3,3
RAW_RPM,2,0.01164866704493761,70652,0.9889938831329346,-0.050628021359443665,0.020639685913920403,-0.1374843269586563,-0.006125457119196653,0.008256050758063793,-0.0066581061109900475,"[0.0, 0.0, 0.0, 0.0]",-0.12788064777851105,0.0005682655610144138,0.0,-0.0004667830653488636,4.1399789552087896e-06,0.0,70616007,3,369603818,-1220329421,0,65535,65535,3,0,255,0,0,0,0,0,0,10,0,192,0,3,3
ATTITUDE_QUATERNION,2,0.01164866704493761,70703,0.9890695810317993,-0.050339940935373306,0.021179165691137314,-0.13696223497390747,-0.0013316210824996233,0.009853996336460114,-0.0039948634803295135,"[0.0, 0.0, 0.0, 0.0]",-0.12788064777851105,0.0005682655610144138,0.0,-0.0004667830653488636,4.1399789552087896e-06,0.0,70616007,3,369603818,-1220329421,0,65535,65535,3,0,255,0,0,0,0,0,0,10,0,192,0,3,3
LOCAL_POSITION_NED,2,0.01164866704493761,70703,0.9890695810317993,-0.050339940935373306,0.021179165691137314,-0.13696223497390747,-0.0013316210824996233,0.009853996336460114,-0.0039948634803295135,"[0.0, 0.0, 0.0, 0.0]",-0.12789909541606903,0.0005684291245415807,0.0,-0.0003700390225276351,3.2824111713125603e-06,0.0,70616007,3,369603818,-1220329421,0,65535,65535,3,0,255,0,0,0,0,0,0,10,0,192,0,3,3
GPS_RAW_INT,2,0.01164866704493761,70703,0.9890695810317993,-0.050339940935373306,0.021179165691137314,-0.13696223497390747,-0.0013316210824996233,0.009853996336460114,-0.0039948634803295135,"[0.0, 0.0, 0.0, 0.0]",-0.12789909541606903,0.0005684291245415807,0.0,-0.0003700390225276351,3.2824111713125603e-06,0.0,70717004,3,369603818,-1220329421,0,65535,65535,3,0,255,0,0,0,0,0,0,10,0,192,0,3,3
RAW_RPM,0,0.0,70703,0.9890695810317993,-0.050339940935373306,0.021179165691137314,-0.13696223497390747,-0.0013316210824996233,0.009853996336460114,-0.0039948634803295135,"[0.0, 0.0, 0.0, 0.0]",-0.12789909541606903,0.0005684291245415807,0.0,-0.0003700390225276351,3.2824111713125603e-06,0.0,70717004,3,369603818,-1220329421,0,65535,65535,3,0,255,0,0,0,0,0,0,10,0,192,0,3,3
RAW_RPM,1,0.0,70703,0.9890695810317993,-0.050339940935373306,0.021179165691137314,-0.13696223497390747,-0.0013316210824996233,0.009853996336460114,-0.0039948634803295135,"[0.0, 0.0, 0.0, 0.0]",-0.12789909541606903,0.0005684291245415807,0.0,-0.0003700390225276351,3.2824111713125603e-06,0.0,70717004,3,369603818,-1220329421,0,65535,65535,3,0,255,0,0,0,0,0,0,10,0,192,0,3,3
RAW_RPM,2,0.011130948550999165,70703,0.9890695810317993,-0.050339940935373306,0.021179165691137314,-0.13696223497390747,-0.0013316210824996233,0.009853996336460114,-0.0039948634803295135,"[0.0, 0.0, 0.0, 0.0]",-0.12789909541606903,0.0005684291245415807,0.0,-0.0003700390225276351,3.2824111713125603e-06,0.0,70717004,3,369603818,-1220329421,0,65535,65535,3,0,255,0,0,0,0,0,0,10,0,192,0,3,3
ATTITUDE_QUATERNION,2,0.011130948550999165,70754,0.9891106486320496,-0.04986995458602905,0.021038832142949104,-0.1368599534034729,-0.0029295666608959436,0.013316212221980095,-0.00452751200646162,"[0.0, 0.0, 0.0, 0.0]",-0.12789909541606903,0.0005684291245415807,0.0,-0.0003700390225276351,3.2824111713125603e-06,0.0,70717004,3,369603818,-1220329421,0,65535,65535,3,0,255,0,0,0,0,0,0,10,0,192,0,3,3
LOCAL_POSITION_NED,2,0.011130948550999165,70754,0.9891106486320496,-0.04986995458602905,0.021038832142949104,-0.1368599534034729,-0.0029295666608959436,0.013316212221980095,-0.00452751200646162,"[0.0, 0.0, 0.0, 0.0]",-0.12791559100151062,0.000568575575016439,0.0,-0.0003479420847725123,3.086798642470967e-06,0.0,70717004,3,369603818,-1220329421,0,65535,65535,3,0,255,0,0,0,0,0,0,10,0,192,0,3,3
RAW_RPM,0,0.0003834952076431364,70754,0.9891106486320496,-0.04986995458602905,0.021038832142949104,-0.1368599534034729,-0.0029295666608959436,0.013316212221980095,-0.00452751200646162,"[0.0, 0.0, 0.0, 0.0]",-0.12791559100151062,0.000568575575016439,0.0,-0.0003479420847725123,3.086798642470967e-06,0.0,70717004,3,369603818,-1220329421,0,65535,65535,3,0,255,0,0,0,0,0,0,10,0,192,0,3,3
RAW_RPM,1,0.0,70754,0.9891106486320496,-0.04986995458602905,0.021038832142949104,-0.1368599534034729,-0.0029295666608959436,0.013316212221980095,-0.00452751200646162,"[0.0, 0.0, 0.0, 0.0]",-0.12791559100151062,0.000568575575016439,0.0,-0.0003479420847725123,3.086798642470967e-06,0.0,70717004,3,369603818,-1220329421,0,65535,65535,3,0,255,0,0,0,0,0,0,10,0,192,0,3,3
RAW_RPM,2,0.012166385538876057,70754,0.9891106486320496,-0.04986995458602905,0.021038832142949104,-0.1368599534034729,-0.0029295666608959436,0.013316212221980095,-0.00452751200646162,"[0.0, 0.0, 0.0, 0.0]",-0.12791559100151062,0.000568575575016439,0.0,-0.0003479420847725123,3.086798642470967e-06,0.0,70717004,3,369603818,-1220329421,0,65535,65535,3,0,255,0,0,0,0,0,0,10,0,192,0,3,3
ATTITUDE_QUATERNION,2,0.012166385538876057,70805,0.989011824131012,-0.050332628190517426,0.019659627228975296,-0.13760726153850555,-0.0026632421649992466,0.009587672539055347,-0.00452751200646162,"[0.0, 0.0, 0.0, 0.0]",-0.12791559100151062,0.000568575575016439,0.0,-0.0003479420847725123,3.086798642470967e-06,0.0,70717004,3,369603818,-1220329421,0,65535,65535,3,0,255,0,0,0,0,0,0,10,0,192,0,3,3
LOCAL_POSITION_NED,2,0.012166385538876057,70805,0.989011824131012,-0.050332628190517426,0.019659627228975296,-0.13760726153850555,-0.0026632421649992466,0.009587672539055347,-0.00452751200646162,"[0.0, 0.0, 0.0, 0.0]",-0.127931147813797,0.0005687136435881257,0.0,-0.00033031863858923316,2.9308016564755235e-06,0.0,70717004,3,369603818,-1220329421,0,65535,65535,3,0,255,0,0,0,0,0,0,10,0,192,0,3,3
GPS_RAW_INT,2,0.012166385538876057,70805,0.989011824131012,-0.050332628190517426,0.019659627228975296,-0.13760726153850555,-0.0026632421649992466,0.009587672539055347,-0.00452751200646162,"[0.0, 0.0, 0.0, 0.0]",-0.127931147813797,0.0005687136435881257,0.0,-0.00033031863858923316,2.9308016564755235e-06,0.0,70818004,3,369603820,-1220329420,0,65535,65535,6,0,255,0,0,0,0,0,0,10,0,192,0,3,3
RAW_RPM,0,-0.0011504855938255787,70805,0.989011824131012,-0.050332628190517426,0.019659627228975296,-0.13760726153850555,-0.0026632421649992466,0.009587672539055347,-0.00452751200646162,"[0.0, 0.0, 0.0, 0.0]",-0.127931147813797,0.0005687136435881257,0.0,-0.00033031863858923316,2.9308016564755235e-06,0.0,70818004,3,369603820,-1220329420,0,65535,65535,6,0,255,0,0,0,0,0,0,10,0,192,0,3,3
RAW_RPM,1,-0.0007669904152862728,70805,0.989011824131012,-0.050332628190517426,0.019659627228975296,-0.13760726153850555,-0.0026632421649992466,0.009587672539055347,-0.00452751200646162,"[0.0, 0.0, 0.0, 0.0]",-0.127931147813797,0.0005687136435881257,0.0,-0.00033031863858923316,2.9308016564755235e-06,0.0,70818004,3,369603820,-1220329420,0,65535,65535,6,0,255,0,0,0,0,0,0,10,0,192,0,3,3
RAW_RPM,2,0.011907526291906834,70805,0.989011824131012,-0.050332628190517426,0.019659627228975296,-0.13760726153850555,-0.0026632421649992466,0.009587672539055347,-0.00452751200646162,"[0.0, 0.0, 0.0, 0.0]",-0.127931147813797,0.0005687136435881257,0.0,-0.00033031863858923316,2.9308016564755235e-06,0.0,70818004,3,369603820,-1220329420,0,65535,65535,6,0,255,0,0,0,0,0,0,10,0,192,0,3,3
ATTITUDE_QUATERNION,2,0.011907526291906834,70856,0.9889935851097107,-0.049451395869255066,0.018474912270903587,-0.13822129368782043,-0.003195890923961997,0.012517238967120647,-0.004261187743395567,"[0.0, 0.0, 0.0, 0.0]",-0.127931147813797,0.0005687136435881257,0.0,-0.00033031863858923316,2.9308016564755235e-06,0.0,70818004,3,369603820,-1220329420,0,65535,65535,6,0,255,0,0,0,0,0,0,10,0,192,0,3,3
LOCAL_POSITION_NED,2,0.011907526291906834,70856,0.9889935851097107,-0.049451395869255066,0.018474912270903587,-0.13822129368782043,-0.003195890923961997,0.012517238967120647,-0.004261187743395567,"[0.0, 0.0, 0.0, 0.0]",-0.12794539332389832,0.000568839896004647,0.0,-0.0002558460982982069,2.2702852220390923e-06,0.0,70818004,3,369603820,-1220329420,0,65535,65535,6,0,255,0,0,0,0,0,0,10,0,192,0,3,3
RAW_RPM,0,0.0003834952076431364,70856,0.9889935851097107,-0.049451395869255066,0.018474912270903587,-0.13822129368782043,-0.003195890923961997,0.012517238967120647,-0.004261187743395567,"[0.0, 0.0, 0.0, 0.0]",-0.12794539332389832,0.000568839896004647,0.0,-0.0002558460982982069,2.2702852220390923e-06,0.0,70818004,3,369603820,-1220329420,0,65535,65535,6,0,255,0,0,0,0,0,0,10,0,192,0,3,3
RAW_RPM,1,0.0003834952076431364,70856,0.9889935851097107,-0.049451395869255066,0.018474912270903587,-0.13822129368782043,-0.003195890923961997,0.012517238967120647,-0.004261187743395567,"[0.0, 0.0, 0.0, 0.0]",-0.12794539332389832,0.000568839896004647,0.0,-0.0002558460982982069,2.2702852220390923e-06,0.0,70818004,3,369603820,-1220329420,0,65535,65535,6,0,255,0,0,0,0,0,0,10,0,192,0,3,3
RAW_RPM,2,0.011907526291906834,70856,0.9889935851097107,-0.049451395869255066,0.018474912270903587,-0.13822129368782043,-0.003195890923961997,0.012517238967120647,-0.004261187743395567,"[0.0, 0.0, 0.0, 0.0]",-0.12794539332389832,0.000568839896004647,0.0,-0.0002558460982982069,2.2702852220390923e-06,0.0,70818004,3,369603820,-1220329420,0,65535,65535,6,0,255,0,0,0,0,0,0,10,0,192,0,3,3
ATTITUDE_QUATERNION,2,0.011907526291906834,70907,0.9889875650405884,-0.049916140735149384,0.01880001090466976,-0.13805265724658966,-0.005060160532593727,0.007190754171460867,-0.0066581061109900475,"[0.0, 0.0, 0.0, 0.0]",-0.12794539332389832,0.000568839896004647,0.0,-0.0002558460982982069,2.2702852220390923e-06,0.0,70818004,3,369603820,-1220329420,0,65535,65535,6,0,255,0,0,0,0,0,0,10,0,192,0,3,3
LOCAL_POSITION_NED,2,0.011907526291906834,70907,0.9889875650405884,-0.049916140735149384,0.01880001090466976,-0.13805265724658966,-0.005060160532593727,0.007190754171460867,-0.0066581061109900475,"[0.0, 0.0, 0.0, 0.0]",-0.12796251475811005,0.0005689917597919703,0.0,-0.0003592732537072152,3.1884760574030224e-06,0.0,70818004,3,369603820,-1220329420,0,65535,65535,6,0,255,0,0,0,0,0,0,10,0,192,0,3,3
GPS_RAW_INT,2,0.011907526291906834,70907,0.9889875650405884,-0.049916140735149384,0.01880001090466976,-0.13805265724658966,-0.005060160532593727,0.007190754171460867,-0.0066581061109900475,"[0.0, 0.0, 0.0, 0.0]",-0.12796251475811005,0.0005689917597919703,0.0,-0.0003592732537072152,3.1884760574030224e-06,0.0,70919388,3,369603820,-1220329420,0,65535,65535,6,0,255,0,0,0,0,0,0,10,0,192,0,3,3
RAW_RPM,0,-0.0011504855938255787,70907,0.9889875650405884,-0.049916140735149384,0.01880001090466976,-0.13805265724658966,-0.005060160532593727,0.007190754171460867,-0.0066581061109900475,"[0.0, 0.0, 0.0, 0.0]",-0.12796251475811005,0.0005689917597919703,0.0,-0.0003592732537072152,3.1884760574030224e-06,0.0,70919388,3,369603820,-1220329420,0,65535,65535,6,0,255,0,0,0,0,0,0,10,0,192,0,3,3
RAW_RPM,1,-0.0015339808305725455,70907,0.9889875650405884,-0.049916140735149384,0.01880001090466976,-0.13805265724658966,-0.005060160532593727,0.007190754171460867,-0.0066581061109900475,"[0.0, 0.0, 0.0, 0.0]",-0.12796251475811005,0.0005689917597919703,0.0,-0.0003592732537072152,3.1884760574030224e-06,0.0,70919388,3,369603820,-1220329420,0,65535,65535,6,0,255,0,0,0,0,0,0,10,0,192,0,3,3
RAW_RPM,2,0.011907526291906834,70907,0.9889875650405884,-0.049916140735149384,0.01880001090466976,-0.13805265724658966,-0.005060160532593727,0.007190754171460867,-0.0066581061109900475,"[0.0, 0.0, 0.0, 0.0]",-0.12796251475811005,0.0005689917597919703,0.0,-0.0003592732537072152,3.1884760574030224e-06,0.0,70919388,3,369603820,-1220329420,0,65535,65535,6,0,255,0,0,0,0,0,0,10,0,192,0,3,3
ATTITUDE_QUATERNION,2,0.011907526291906834,70958,0.9889996647834778,-0.049858611077070236,0.01884017325937748,-0.13798120617866516,-0.006391781847923994,0.012517238967120647,-0.003195890923961997,"[0.0, 0.0, 0.0, 0.0]",-0.12796251475811005,0.0005689917597919703,0.0,-0.0003592732537072152,3.1884760574030224e-06,0.0,70919388,3,369603820,-1220329420,0,65535,65535,6,0,255,0,0,0,0,0,0,10,0,192,0,3,3
LOCAL_POSITION_NED,2,0.011907526291906834,70958,0.9889996647834778,-0.049858611077070236,0.01884017325937748,-0.13798120617866516,-0.006391781847923994,0.012517238967120647,-0.003195890923961997,"[0.0, 0.0, 0.0, 0.0]",-0.12797965109348297,0.0005691437399946153,0.0,-0.00020413253514561802,1.8118852267434704e-06,0.0,70919388,3,369603820,-1220329420,0,65535,65535,6,0,255,0,0,0,0,0,0,10,0,192,0,3,3
RAW_RPM,0,0.0003834952076431364,70958,0.9889996647834778,-0.049858611077070236,0.01884017325937748,-0.13798120617866516,-0.006391781847923994,0.012517238967120647,-0.003195890923961997,"[0.0, 0.0, 0.0, 0.0]",-0.12797965109348297,0.0005691437399946153,0.0,-0.00020413253514561802,1.8118852267434704e-06,0.0,70919388,3,369603820,-1220329420,0,65535,65535,6,0,255,0,0,0,0,0,0,10,0,192,0,3,3
RAW_RPM,1,-0.0007669904152862728,70958,0.9889996647834778,-0.049858611077070236,0.01884017325937748,-0.13798120617866516,-0.006391781847923994,0.012517238967120647,-0.003195890923961997,"[0.0, 0.0, 0.0, 0.0]",-0.12797965109348297,0.0005691437399946153,0.0,-0.00020413253514561802,1.8118852267434704e-06,0.0,70919388,3,369603820,-1220329420,0,65535,65535,6,0,255,0,0,0,0,0,0,10,0,192,0,3,3
RAW_RPM,2,0.012166385538876057,70958,0.9889996647834778,-0.049858611077070236,0.01884017325937748,-0.13798120617866516,-0.006391781847923994,0.012517238967120647,-0.003195890923961997,"[0.0, 0.0, 0.0, 0.0]",-0.12797965109348297,0.0005691437399946153,0.0,-0.00020413253514561802,1.8118852267434704e-06,0.0,70919388,3,369603820,-1220329420,0,65535,65535,6,0,255,0,0,0,0,0,0,10,0,192,0,3,3
ATTITUDE_QUATERNION,2,0.012166385538876057,71009,0.98902827501297,-0.04881354421377182,0.018474044278264046,-0.13819895684719086,-0.003728539450094104,0.012250914238393307,-0.007989726960659027,"[0.0, 0.0, 0.0, 0.0]",-0.12797965109348297,0.0005691437399946153,0.0,-0.00020413253514561802,1.8118852267434704e-06,0.0,70919388,3,369603820,-1220329420,0,65535,65535,6,0,255,0,0,0,0,0,0,10,0,192,0,3,3
LOCAL_POSITION_NED,2,0.012166385538876057,71010,0.98902827501297,-0.04881354421377182,0.018474044278264046,-0.13819895684719086,-0.003728539450094104,0.012250914238393307,-0.007989726960659027,"[0.0, 0.0, 0.0, 0.0]",-0.12800085544586182,0.0005693317507393658,0.0,-0.00035162951098755,3.121567033304018e-06,0.0,70919388,3,369603820,-1220329420,0,65535,65535,6,0,255,0,0,0,0,0,0,10,0,192,0,3,3
HEARTBEAT,2,0.012166385538876057,71010,0.98902827501297,-0.04881354421377182,0.018474044278264046,-0.13819895684719086,-0.003728539450094104,0.012250914238393307,-0.007989726960659027,"[0.0, 0.0, 0.0, 0.0]",-0.12800085544586182,0.0005693317507393658,0.0,-0.00035162951098755,3.121567033304018e-06,0.0,70919388,3,369603820,-1220329420,0,65535,65535,6,0,255,0,0,0,0,0,0,10,0,192,0,3,3
GPS_RAW_INT,2,0.012166385538876057,71010,0.98902827501297,-0.04881354421377182,0.018474044278264046,-0.13819895684719086,-0.003728539450094104,0.012250914238393307,-0.007989726960659027,"[0.0, 0.0, 0.0, 0.0]",-0.12800085544586182,0.0005693317507393658,0.0,-0.00035162951098755,3.121567033304018e-06,0.0,71020004,3,369603820,-1220329420,0,65535,65535,6,0,255,0,0,0,0,0,0,10,0,192,0,3,3
RAW_RPM,0,-0.0003834952076431364,71010,0.98902827501297,-0.04881354421377182,0.018474044278264046,-0.13819895684719086,-0.003728539450094104,0.012250914238393307,-0.007989726960659027,"[0.0, 0.0, 0.0, 0.0]",-0.12800085544586182,0.0005693317507393658,0.0,-0.00035162951098755,3.121567033304018e-06,0.0,71020004,3,369603820,-1220329420,0,65535,65535,6,0,255,0,0,0,0,0,0,10,0,192,0,3,3
RAW_RPM,1,-0.0003834952076431364,71010,0.98902827501297,-0.04881354421377182,0.018474044278264046,-0.13819895684719086,-0.003728539450094104,0.012250914238393307,-0.007989726960659027,"[0.0, 0.0, 0.0, 0.0]",-0.12800085544586182,0.0005693317507393658,0.0,-0.00035162951098755,3.121567033304018e-06,0.0,71020004,3,369603820,-1220329420,0,65535,65535,6,0,255,0,0,0,0,0,0,10,0,192,0,3,3
RAW_RPM,2,0.01242524478584528,71010,0.98902827501297,-0.04881354421377182,0.018474044278264046,-0.13819895684719086,-0.003728539450094104,0.012250914238393307,-0.007989726960659027,"[0.0, 0.0, 0.0, 0.0]",-0.12800085544586182,0.0005693317507393658,0.0,-0.00035162951098755,3.121567033304018e-06,0.0,71020004,3,369603820,-1220329420,0,65535,65535,6,0,255,0,0,0,0,0,0,10,0,192,0,3,3
ATTITUDE_QUATERNION,2,0.01242524478584528,71060,0.9890028834342957,-0.04811762645840645,0.017813721671700478,-0.13871069252490997,-0.0013316210824996233,0.010386645793914795,-0.005060160532593727,"[0.0, 0.0, 0.0, 0.0]",-0.12800085544586182,0.0005693317507393658,0.0,-0.00035162951098755,3.121567033304018e-06,0.0,71020004,3,369603820,-1220329420,0,65535,65535,6,0,255,0,0,0,0,0,0,10,0,192,0,3,3
LOCAL_POSITION_NED,2,0.01242524478584528,71060,0.9890028834342957,-0.04811762645840645,0.017813721671700478,-0.13871069252490997,-0.0013316210824996233,0.010386645793914795,-0.005060160532593727,"[0.0, 0.0, 0.0, 0.0]",-0.12801653146743774,0.0005694709252566099,0.0,-0.00033387079020030797,2.9642824301845394e-06,0.0,71020004,3,369603820,-1220329420,0,65535,65535,6,0,255,0,0,0,0,0,0,10,0,192,0,3,3
RAW_RPM,0,0.0007669904152862728,71060,0.9890028834342957,-0.04811762645840645,0.017813721671700478,-0.13871069252490997,-0.0013316210824996233,0.010386645793914795,-0.005060160532593727,"[0.0, 0.0, 0.0, 0.0]",-0.12801653146743774,0.0005694709252566099,0.0,-0.00033387079020030797,2.9642824301845394e-06,0.0,71020004,3,369603820,-1220329420,0,65535,65535,6,0,255,0,0,0,0,0,0,10,0,192,0,3,3
RAW_RPM,1,-0.0003834952076431364,71060,0.9890028834342957,-0.04811762645840645,0.017813721671700478,-0.13871069252490997,-0.0013316210824996233,0.010386645793914795,-0.005060160532593727,"[0.0, 0.0, 0.0, 0.0]",-0.12801653146743774,0.0005694709252566099,0.0,-0.00033387079020030797,2.9642824301845394e-06,0.0,71020004,3,369603820,-1220329420,0,65535,65535,6,0,255,0,0,0,0,0,0,10,0,192,0,3,3
RAW_RPM,2,0.013201823458075523,71060,0.9890028834342957,-0.04811762645840645,0.017813721671700478,-0.13871069252490997,-0.0013316210824996233,0.010386645793914795,-0.005060160532593727,"[0.0, 0.0, 0.0, 0.0]",-0.12801653146743774,0.0005694709252566099,0.0,-0.00033387079020030797,2.9642824301845394e-06,0.0,71020004,3,369603820,-1220329420,0,65535,65535,6,0,255,0,0,0,0,0,0,10,0,192,0,3,3
ATTITUDE_QUATERNION,2,0.013201823458075523,71111,0.9889348745346069,-0.04904154688119888,0.01773194968700409,-0.1388828307390213,-0.005326484329998493,0.013316212221980095,-0.006125457119196653,"[0.0, 0.0, 0.0, 0.0]",-0.12801653146743774,0.0005694709252566099,0.0,-0.00033387079020030797,2.9642824301845394e-06,0.0,71020004,3,369603820,-1220329420,0,65535,65535,6,0,255,0,0,0,0,0,0,10,0,192,0,3,3
LOCAL_POSITION_NED,2,0.013201823458075523,71111,0.9889348745346069,-0.04904154688119888,0.01773194968700409,-0.1388828307390213,-0.005326484329998493,0.013316212221980095,-0.006125457119196653,"[0.0, 0.0, 0.0, 0.0]",-0.1280318647623062,0.0005696070729754865,0.0,-0.0002528588520362973,2.2452925350080477e-06,0.0,71020004,3,369603820,-1220329420,0,65535,65535,6,0,255,0,0,0,0,0,0,10,0,192,0,3,3
GPS_RAW_INT,2,0.013201823458075523,71111,0.9889348745346069,-0.04904154688119888,0.01773194968700409,-0.1388828307390213,-0.005326484329998493,0.013316212221980095,-0.006125457119196653,"[0.0, 0.0, 0.0, 0.0]",-0.1280318647623062,0.0005696070729754865,0.0,-0.0002528588520362973,2.2452925350080477e-06,0.0,71121002,3,369603820,-1220329420,0,65535,65535,6,0,255,0,0,0,0,0,0,10,0,192,0,3,3
RAW_RPM,0,0.0,71111,0.9889348745346069,-0.04904154688119888,0.01773194968700409,-0.1388828307390213,-0.005326484329998493,0.013316212221980095,-0.006125457119196653,"[0.0, 0.0, 0.0, 0.0]",-0.1280318647623062,0.0005696070729754865,0.0,-0.0002528588520362973,2.2452925350080477e-06,0.0,71121002,3,369603820,-1220329420,0,65535,65535,6,0,255,0,0,0,0,0,0,10,0,192,0,3,3
RAW_RPM,1,-0.0007669904152862728,71111,0.9889348745346069,-0.04904154688119888,0.01773194968700409,-0.1388828307390213,-0.005326484329998493,0.013316212221980095,-0.006125457119196653,"[0.0, 0.0, 0.0, 0.0]",-0.1280318647623062,0.0005696070729754865,0.0,-0.0002528588520362973,2.2452925350080477e-06,0.0,71121002,3,369603820,-1220329420,0,65535,65535,6,0,255,0,0,0,0,0,0,10,0,192,0,3,3
RAW_RPM,2,0.013201823458075523,71111,0.9889348745346069,-0.04904154688119888,0.01773194968700409,-0.1388828307390213,-0.005326484329998493,0.013316212221980095,-0.006125457119196653,"[0.0, 0.0, 0.0, 0.0]",-0.1280318647623062,0.0005696070729754865,0.0,-0.0002528588520362973,2.2452925350080477e-06,0.0,71121002,3,369603820,-1220329420,0,65535,65535,6,0,255,0,0,0,0,0,0,10,0,192,0,3,3
ATTITUDE_QUATERNION,2,0.013201823458075523,71162,0.9889979362487793,-0.04879462346434593,0.018757548183202744,-0.13838467001914978,-0.00026632423396222293,0.013316212221980095,-0.006125457119196653,"[0.0, 0.0, 0.0, 0.0]",-0.1280318647623062,0.0005696070729754865,0.0,-0.0002528588520362973,2.2452925350080477e-06,0.0,71121002,3,369603820,-1220329420,0,65535,65535,6,0,255,0,0,0,0,0,0,10,0,192,0,3,3
LOCAL_POSITION_NED,2,0.013201823458075523,71162,0.9889979362487793,-0.04879462346434593,0.018757548183202744,-0.13838467001914978,-0.00026632423396222293,0.013316212221980095,-0.006125457119196653,"[0.0, 0.0, 0.0, 0.0]",-0.12804552912712097,0.0005697283195331693,0.0,-0.00024549401132389903,2.1801329239679035e-06,0.0,71121002,3,369603820,-1220329420,0,65535,65535,6,0,255,0,0,0,0,0,0,10,0,192,0,3,3
RAW_RPM,0,0.0003834952076431364,71162,0.9889979362487793,-0.04879462346434593,0.018757548183202744,-0.13838467001914978,-0.00026632423396222293,0.013316212221980095,-0.006125457119196653,"[0.0, 0.0, 0.0, 0.0]",-0.12804552912712097,0.0005697283195331693,0.0,-0.00024549401132389903,2.1801329239679035e-06,0.0,71121002,3,369603820,-1220329420,0,65535,65535,6,0,255,0,0,0,0,0,0,10,0,192,0,3,3
RAW_RPM,1,0.0015339808305725455,71162,0.9889979362487793,-0.04879462346434593,0.018757548183202744,-0.13838467001914978,-0.00026632423396222293,0.013316212221980095,-0.006125457119196653,"[0.0, 0.0, 0.0, 0.0]",-0.12804552912712097,0.0005697283195331693,0.0,-0.00024549401132389903,2.1801329239679035e-06,0.0,71121002,3,369603820,-1220329420,0,65535,65535,6,0,255,0,0,0,0,0,0,10,0,192,0,3,3
RAW_RPM,2,0.01242524478584528,71162,0.9889979362487793,-0.04879462346434593,0.018757548183202744,-0.13838467001914978,-0.00026632423396222293,0.013316212221980095,-0.006125457119196653,"[0.0, 0.0, 0.0, 0.0]",-0.12804552912712097,0.0005697283195331693,0.0,-0.00024549401132389903,2.1801329239679035e-06,0.0,71121002,3,369603820,-1220329420,0,65535,65535,6,0,255,0,0,0,0,0,0,10,0,192,0,3,3
ATTITUDE_QUATERNION,2,0.01242524478584528,71213,0.9890113472938538,-0.04825548082590103,0.018469402566552162,-0.13851650059223175,-0.00452751200646162,0.011984591372311115,-0.008522375486791134,"[0.0, 0.0, 0.0, 0.0]",-0.12804552912712097,0.0005697283195331693,0.0,-0.00024549401132389903,2.1801329239679035e-06,0.0,71121002,3,369603820,-1220329420,0,65535,65535,6,0,255,0,0,0,0,0,0,10,0,192,0,3,3
LOCAL_POSITION_NED,2,0.01242524478584528,71213,0.9890113472938538,-0.04825548082590103,0.018469402566552162,-0.13851650059223175,-0.00452751200646162,0.011984591372311115,-0.008522375486791134,"[0.0, 0.0, 0.0, 0.0]",-0.12806251645088196,0.0005698791355825961,0.0,-0.00047863510553725064,4.25109283241909e-06,0.0,71121002,3,369603820,-1220329420,0,65535,65535,6,0,255,0,0,0,0,0,0,10,0,192,0,3,3
GPS_RAW_INT,2,0.01242524478584528,71213,0.9890113472938538,-0.04825548082590103,0.018469402566552162,-0.13851650059223175,-0.00452751200646162,0.011984591372311115,-0.008522375486791134,"[0.0, 0.0, 0.0, 0.0]",-0.12806251645088196,0.0005698791355825961,0.0,-0.00047863510553725064,4.25109283241909e-06,0.0,71222004,3,369603820,-1220329420,0,65535,65535,6,0,255,0,0,0,0,0,0,10,0,192,0,3,3
RAW_RPM,0,-0.0003834952076431364,71213,0.9890113472938538,-0.04825548082590103,0.018469402566552162,-0.13851650059223175,-0.00452751200646162,0.011984591372311115,-0.008522375486791134,"[0.0, 0.0, 0.0, 0.0]",-0.12806251645088196,0.0005698791355825961,0.0,-0.00047863510553725064,4.25109283241909e-06,0.0,71222004,3,369603820,-1220329420,0,65535,65535,6,0,255,0,0,0,0,0,0,10,0,192,0,3,3
RAW_RPM,1,0.0003834952076431364,71213,0.9890113472938538,-0.04825548082590103,0.018469402566552162,-0.13851650059223175,-0.00452751200646162,0.011984591372311115,-0.008522375486791134,"[0.0, 0.0, 0.0, 0.0]",-0.12806251645088196,0.0005698791355825961,0.0,-0.00047863510553725064,4.25109283241909e-06,0.0,71222004,3,369603820,-1220329420,0,65535,65535,6,0,255,0,0,0,0,0,0,10,0,192,0,3,3
RAW_RPM,2,0.012166385538876057,71213,0.9890113472938538,-0.04825548082590103,0.018469402566552162,-0.13851650059223175,-0.00452751200646162,0.011984591372311115,-0.008522375486791134,"[0.0, 0.0, 0.0, 0.0]",-0.12806251645088196,0.0005698791355825961,0.0,-0.00047863510553725064,4.25109283241909e-06,0.0,71222004,3,369603820,-1220329420,0,65535,65535,6,0,255,0,0,0,0,0,0,10,0,192,0,3,3
ATTITUDE_QUATERNION,2,0.012166385538876057,71264,0.9889901280403137,-0.04849936068058014,0.018498960882425308,-0.13857907056808472,-0.0013316210824996233,0.011185618117451668,-0.007989726960659027,"[0.0, 0.0, 0.0, 0.0]",-0.12806251645088196,0.0005698791355825961,0.0,-0.00047863510553725064,4.25109283241909e-06,0.0,71222004,3,369603820,-1220329420,0,65535,65535,6,0,255,0,0,0,0,0,0,10,0,192,0,3,3
LOCAL_POSITION_NED,2,0.012166385538876057,71264,0.9889901280403137,-0.04849936068058014,0.018498960882425308,-0.13857907056808472,-0.0013316210824996233,0.011185618117451668,-0.007989726960659027,"[0.0, 0.0, 0.0, 0.0]",-0.1280820667743683,0.0005700528272427619,0.0,-0.00037560422788374126,3.3365317904099356e-06,0.0,71222004,3,369603820,-1220329420,0,65535,65535,6,0,255,0,0,0,0,0,0,10,0,192,0,3,3
RAW_RPM,0,-0.0011504855938255787,71264,0.9889901280403137,-0.04849936068058014,0.018498960882425308,-0.13857907056808472,-0.0013316210824996233,0.011185618117451668,-0.007989726960659027,"[0.0, 0.0, 0.0, 0.0]",-0.1280820667743683,0.0005700528272427619,0.0,-0.00037560422788374126,3.3365317904099356e-06,0.0,71222004,3,369603820,-1220329420,0,65535,65535,6,0,255,0,0,0,0,0,0,10,0,192,0,3,3
RAW_RPM,1,0.0011504855938255787,71264,0.9889901280403137,-0.04849936068058014,0.018498960882425308,-0.13857907056808472,-0.0013316210824996233,0.011185618117451668,-0.007989726960659027,"[0.0, 0.0, 0.0, 0.0]",-0.1280820667743683,0.0005700528272427619,0.0,-0.00037560422788374126,3.3365317904099356e-06,0.0,71222004,3,369603820,-1220329420,0,65535,65535,6,0,255,0,0,0,0,0,0,10,0,192,0,3,3
RAW_RPM,2,0.011907526291906834,71264,0.9889901280403137,-0.04849936068058014,0.018498960882425308,-0.13857907056808472,-0.0013316210824996233,0.011185618117451668,-0.007989726960659027,"[0.0, 0.0, 0.0, 0.0]",-0.1280820667743683,0.0005700528272427619,0.0,-0.00037560422788374126,3.3365317904099356e-06,0.0,71222004,3,369603820,-1220329420,0,65535,65535,6,0,255,0,0,0,0,0,0,10,0,192,0,3,3
ATTITUDE_QUATERNION,2,0.011907526291906834,71315,0.9890015721321106,-0.04887137934565544,0.019162392243742943,-0.1382758915424347,-0.005592809058725834,0.015180480666458607,-0.004793836269527674,"[0.0, 0.0, 0.0, 0.0]",-0.1280820667743683,0.0005700528272427619,0.0,-0.00037560422788374126,3.3365317904099356e-06,0.0,71222004,3,369603820,-1220329420,0,65535,65535,6,0,255,0,0,0,0,0,0,10,0,192,0,3,3
LOCAL_POSITION_NED,2,0.011907526291906834,71315,0.9890015721321106,-0.04887137934565544,0.019162392243742943,-0.1382758915424347,-0.005592809058725834,0.015180480666458607,-0.004793836269527674,"[0.0, 0.0, 0.0, 0.0]",-0.12810227274894714,0.000570232339669019,0.0,-0.0003987388336099684,3.5425809983280487e-06,0.0,71222004,3,369603820,-1220329420,0,65535,65535,6,0,255,0,0,0,0,0,0,10,0,192,0,3,3
GPS_RAW_INT,2,0.011907526291906834,71315,0.9890015721321106,-0.04887137934565544,0.019162392243742943,-0.1382758915424347,-0.005592809058725834,0.015180480666458607,-0.004793836269527674,"[0.0, 0.0, 0.0, 0.0]",-0.12810227274894714,0.000570232339669019,0.0,-0.0003987388336099684,3.5425809983280487e-06,0.0,71323006,3,369603818,-1220329420,0,65535,65535,5,0,255,0,0,0,0,0,0,10,0,192,0,3,3
RAW_RPM,0,0.0011504855938255787,71315,0.9890015721321106,-0.04887137934565544,0.019162392243742943,-0.1382758915424347,-0.005592809058725834,0.015180480666458607,-0.004793836269527674,"[0.0, 0.0, 0.0, 0.0]",-0.12810227274894714,0.000570232339669019,0.0,-0.0003987388336099684,3.5425809983280487e-06,0.0,71323006,3,369603818,-1220329420,0,65535,65535,5,0,255,0,0,0,0,0,0,10,0,192,0,3,3
RAW_RPM,1,-0.0015339808305725455,71315,0.9890015721321106,-0.04887137934565544,0.019162392243742943,-0.1382758915424347,-0.005592809058725834,0.015180480666458607,-0.004793836269527674,"[0.0, 0.0, 0.0, 0.0]",-0.12810227274894714,0.000570232339669019,0.0,-0.0003987388336099684,3.5425809983280487e-06,0.0,71323006,3,369603818,-1220329420,0,65535,65535,5,0,255,0,0,0,0,0,0,10,0,192,0,3,3
RAW_RPM,2,0.011907526291906834,71315,0.9890015721321106,-0.04887137934565544,0.019162392243742943,-0.1382758915424347,-0.005592809058725834,0.015180480666458607,-0.004793836269527674,"[0.0, 0.0, 0.0, 0.0]",-0.12810227274894714,0.000570232339669019,0.0,-0.0003987388336099684,3.5425809983280487e-06,0.0,71323006,3,369603818,-1220329420,0,65535,65535,5,0,255,0,0,0,0,0,0,10,0,192,0,3,3
ATTITUDE_QUATERNION,2,0.011907526291906834,71366,0.9890108704566956,-0.049394797533750534,0.019755849614739418,-0.13794028759002686,0.0005326484679244459,0.008256050758063793,-0.009587672539055347,"[0.0, 0.0, 0.0, 0.0]",-0.12810227274894714,0.000570232339669019,0.0,-0.0003987388336099684,3.5425809983280487e-06,0.0,71323006,3,369603818,-1220329420,0,65535,65535,5,0,255,0,0,0,0,0,0,10,0,192,0,3,3
LOCAL_POSITION_NED,2,0.011907526291906834,71366,0.9890108704566956,-0.049394797533750534,0.019755849614739418,-0.13794028759002686,0.0005326484679244459,0.008256050758063793,-0.009587672539055347,"[0.0, 0.0, 0.0, 0.0]",-0.12811827659606934,0.0005703745409846306,0.0,-0.00031436406425200403,2.79331584351894e-06,0.0,71323006,3,369603818,-1220329420,0,65535,65535,5,0,255,0,0,0,0,0,0,10,0,192,0,3,3
RAW_RPM,0,-0.0011504855938255787,71366,0.9890108704566956,-0.049394797533750534,0.019755849614739418,-0.13794028759002686,0.0005326484679244459,0.008256050758063793,-0.009587672539055347,"[0.0, 0.0, 0.0, 0.0]",-0.12811827659606934,0.0005703745409846306,0.0,-0.00031436406425200403,2.79331584351894e-06,0.0,71323006,3,369603818,-1220329420,0,65535,65535,5,0,255,0,0,0,0,0,0,10,0,192,0,3,3
RAW_RPM,1,-0.0007669904152862728,71366,0.9890108704566956,-0.049394797533750534,0.019755849614739418,-0.13794028759002686,0.0005326484679244459,0.008256050758063793,-0.009587672539055347,"[0.0, 0.0, 0.0, 0.0]",-0.12811827659606934,0.0005703745409846306,0.0,-0.00031436406425200403,2.79331584351894e-06,0.0,71323006,3,369603818,-1220329420,0,65535,65535,5,0,255,0,0,0,0,0,0,10,0,192,0,3,3
RAW_RPM,2,0.01242524478584528,71366,0.9890108704566956,-0.049394797533750534,0.019755849614739418,-0.13794028759002686,0.0005326484679244459,0.008256050758063793,-0.009587672539055347,"[0.0, 0.0, 0.0, 0.0]",-0.12811827659606934,0.0005703745409846306,0.0,-0.00031436406425200403,2.79331584351894e-06,0.0,71323006,3,369603818,-1220329420,0,65535,65535,5,0,255,0,0,0,0,0,0,10,0,192,0,3,3
ATTITUDE_QUATERNION,2,0.01242524478584528,71417,0.9890060424804688,-0.05015629529953003,0.02012450434267521,-0.1376459300518036,-0.005326484329998493,0.009321347810328007,-0.004261187743395567,"[0.0, 0.0, 0.0, 0.0]",-0.12811827659606934,0.0005703745409846306,0.0,-0.00031436406425200403,2.79331584351894e-06,0.0,71323006,3,369603818,-1220329420,0,65535,65535,5,0,255,0,0,0,0,0,0,10,0,192,0,3,3
LOCAL_POSITION_NED,2,0.01242524478584528,71417,0.9890060424804688,-0.05015629529953003,0.02012450434267521,-0.1376459300518036,-0.005326484329998493,0.009321347810328007,-0.004261187743395567,"[0.0, 0.0, 0.0, 0.0]",-0.12813574075698853,0.0005705297808162868,0.0,-0.00035212934017181396,3.12930910695286e-06,0.0,71323006,3,369603818,-1220329420,0,65535,65535,5,0,255,0,0,0,0,0,0,10,0,192,0,3,3
