mavpackettype,time_usec,xacc,yacc,zacc,xgyro,ygyro,zgyro,xmag,ymag,zmag,id,temperature,time_boot_ms,port,chan1_scaled,chan2_scaled,chan3_scaled,chan4_scaled,chan5_scaled,chan6_scaled,chan7_scaled,chan8_scaled,rssi,fix_type,lat,lon,alt,eph,epv,vel,cog,satellites_visible,alt_ellipsoid,h_acc,v_acc,vel_acc,hdg_acc,yaw,type,autopilot,base_mode,custom_mode,system_status,mavlink_version
RC_CHANNELS_SCALED,28311015,-342,-263,16659,-31,59,-25,-33,-43,-311,0,3024,28311,1,4,1,2,1723,-1,-1,-1,-1,255,3,369603878,-1220329480,0,65535,65535,2,0,255,0,0,0,0,0,0,10,0,192,0,3,3
GPS_RAW_INT,28329009,-342,-263,16659,-31,59,-25,-33,-43,-311,0,3024,28311,1,4,1,2,1723,-1,-1,-1,-1,255,3,369603878,-1220329480,0,65535,65535,2,0,255,0,0,0,0,0,0,10,0,192,0,3,3
RAW_IMU,28331014,-347,-247,16692,-35,63,-14,-44,-43,-314,0,3088,28311,1,4,1,2,1723,-1,-1,-1,-1,255,3,369603878,-1220329480,0,65535,65535,2,0,255,0,0,0,0,0,0,10,0,192,0,3,3
RC_CHANNELS_SCALED,28331014,-347,-247,16692,-35,63,-14,-44,-43,-314,0,3088,28331,1,1,-1,3,1723,-1,-1,-1,-1,255,3,369603878,-1220329480,0,65535,65535,2,0,255,0,0,0,0,0,0,10,0,192,0,3,3
RAW_IMU,28351013,-358,-207,16702,-39,59,-30,-32,-27,-315,0,3168,28331,1,1,-1,3,1723,-1,-1,-1,-1,255,3,369603878,-1220329480,0,65535,65535,2,0,255,0,0,0,0,0,0,10,0,192,0,3,3
RC_CHANNELS_SCALED,28351013,-358,-207,16702,-39,59,-30,-32,-27,-315,0,3168,28351,1,-1,1,0,1721,-1,-1,-1,-1,255,3,369603878,-1220329480,0,65535,65535,2,0,255,0,0,0,0,0,0,10,0,192,0,3,3
RAW_IMU,28371014,-291,-253,16742,-23,48,-14,-37,-30,-322,0,3136,28351,1,-1,1,0,1721,-1,-1,-1,-1,255,3,369603878,-1220329480,0,65535,65535,2,0,255,0,0,0,0,0,0,10,0,192,0,3,3
RC_CHANNELS_SCALED,28371014,-291,-253,16742,-23,48,-14,-37,-30,-322,0,3136,28371,1,0,2,1,1722,-1,-1,-1,-1,255,3,369603878,-1220329480,0,65535,65535,2,0,255,0,0,0,0,0,0,10,0,192,0,3,3
RAW_IMU,28391012,-271,-286,16678,-29,67,-24,-31,-43,-314,0,3072,28371,1,0,2,1,1722,-1,-1,-1,-1,255,3,369603878,-1220329480,0,65535,65535,2,0,255,0,0,0,0,0,0,10,0,192,0,3,3
RC_CHANNELS_SCALED,28391012,-271,-286,16678,-29,67,-24,-31,-43,-314,0,3072,28391,1,4,1,2,1722,-1,-1,-1,-1,255,3,369603878,-1220329480,0,65535,65535,2,0,255,0,0,0,0,0,0,10,0,192,0,3,3
RAW_IMU,28411012,-340,-226,16658,-36,60,-22,-37,-32,-312,0,3136,28391,1,4,1,2,1722,-1,-1,-1,-1,255,3,369603878,-1220329480,0,65535,65535,2,0,255,0,0,0,0,0,0,10,0,192,0,3,3
RC_CHANNELS_SCALED,28411012,-340,-226,16658,-36,60,-22,-37,-32,-312,0,3136,28411,1,0,5,-1,1720,-1,-1,-1,-1,255,3,369603878,-1220329480,0,65535,65535,2,0,255,0,0,0,0,0,0,10,0,192,0,3,3
GPS_RAW_INT,28430007,-340,-226,16658,-36,60,-22,-37,-32,-312,0,3136,28411,1,0,5,-1,1720,-1,-1,-1,-1,255,3,369603878,-1220329480,0,65535,65535,2,0,255,0,0,0,0,0,0,10,0,192,0,3,3
RAW_IMU,28431016,-282,-273,16657,-42,52,-26,-28,-33,-314,0,3136,28411,1,0,5,-1,1720,-1,-1,-1,-1,255,3,369603878,-1220329480,0,65535,65535,2,0,255,0,0,0,0,0,0,10,0,192,0,3,3
RC_CHANNELS_SCALED,28431016,-282,-273,16657,-42,52,-26,-28,-33,-314,0,3136,28431,1,0,-1,1,1722,-1,-1,-1,-1,255,3,369603878,-1220329480,0,65535,65535,2,0,255,0,0,0,0,0,0,10,0,192,0,3,3
RAW_IMU,28451013,-273,-312,16638,-24,67,-34,-23,-26,-316,0,3008,28431,1,0,-1,1,1722,-1,-1,-1,-1,255,3,369603878,-1220329480,0,65535,65535,2,0,255,0,0,0,0,0,0,10,0,192,0,3,3
RC_CHANNELS_SCALED,28451013,-273,-312,16638,-24,67,-34,-23,-26,-316,0,3008,28451,1,0,0,3,1722,-1,-1,-1,-1,255,3,369603878,-1220329480,0,65535,65535,2,0,255,0,0,0,0,0,0,10,0,192,0,3,3
RAW_IMU,28471013,-311,-305,16647,-37,53,-33,-48,-30,-307,0,3168,28451,1,0,0,3,1722,-1,-1,-1,-1,255,3,369603878,-1220329480,0,65535,65535,2,0,255,0,0,0,0,0,0,10,0,192,0,3,3
RC_CHANNELS_SCALED,28471013,-311,-305,16647,-37,53,-33,-48,-30,-307,0,3168,28471,1,0,-2,-3,1718,-1,-1,-1,-1,255,3,369603878,-1220329480,0,65535,65535,2,0,255,0,0,0,0,0,0,10,0,192,0,3,3
RAW_IMU,28491013,-314,-209,16669,-31,52,-18,-35,-37,-310,0,2992,28471,1,0,-2,-3,1718,-1,-1,-1,-1,255,3,369603878,-1220329480,0,65535,65535,2,0,255,0,0,0,0,0,0,10,0,192,0,3,3
RC_CHANNELS_SCALED,28491013,-314,-209,16669,-31,52,-18,-35,-37,-310,0,2992,28491,1,0,3,0,1720,-1,-1,-1,-1,255,3,369603878,-1220329480,0,65535,65535,2,0,255,0,0,0,0,0,0,10,0,192,0,3,3
RAW_IMU,28511016,-317,-222,16682,-32,55,-20,-35,-25,-312,0,3120,28491,1,0,3,0,1720,-1,-1,-1,-1,255,3,369603878,-1220329480,0,65535,65535,2,0,255,0,0,0,0,0,0,10,0,192,0,3,3
RC_CHANNELS_SCALED,28511016,-317,-222,16682,-32,55,-20,-35,-25,-312,0,3120,28511,1,1,-3,3,1721,-1,-1,-1,-1,255,3,369603878,-1220329480,0,65535,65535,2,0,255,0,0,0,0,0,0,10,0,192,0,3,3
RAW_IMU,28531015,-300,-206,16645,-21,55,-17,-32,-32,-312,0,3088,28511,1,1,-3,3,1721,-1,-1,-1,-1,255,3,369603878,-1220329480,0,65535,65535,2,0,255,0,0,0,0,0,0,10,0,192,0,3,3
RC_CHANNELS_SCALED,28531015,-300,-206,16645,-21,55,-17,-32,-32,-312,0,3088,28531,1,-1,0,-1,1720,-1,-1,-1,-1,255,3,369603878,-1220329480,0,65535,65535,2,0,255,0,0,0,0,0,0,10,0,192,0,3,3
GPS_RAW_INT,28531301,-300,-206,16645,-21,55,-17,-32,-32,-312,0,3088,28531,1,-1,0,-1,1720,-1,-1,-1,-1,255,3,369603878,-1220329483,0,65535,65535,3,0,255,0,0,0,0,0,0,10,0,192,0,3,3
RAW_IMU,28551013,-311,-216,16654,-33,58,-31,-32,-32,-310,0,3136,28531,1,-1,0,-1,1720,-1,-1,-1,-1,255,3,369603878,-1220329483,0,65535,65535,3,0,255,0,0,0,0,0,0,10,0,192,0,3,3
RC_CHANNELS_SCALED,28551013,-311,-216,16654,-33,58,-31,-32,-32,-310,0,3136,28551,1,-2,3,0,1720,-1,-1,-1,-1,255,3,369603878,-1220329483,0,65535,65535,3,0,255,0,0,0,0,0,0,10,0,192,0,3,3
RAW_IMU,28571012,-410,-286,16646,-43,56,-20,-35,-32,-322,0,3072,28551,1,-2,3,0,1720,-1,-1,-1,-1,255,3,369603878,-1220329483,0,65535,65535,3,0,255,0,0,0,0,0,0,10,0,192,0,3,3
RC_CHANNELS_SCALED,28571012,-410,-286,16646,-43,56,-20,-35,-32,-322,0,3072,28571,1,6,0,3,1723,-1,-1,-1,-1,255,3,369603878,-1220329483,0,65535,65535,3,0,255,0,0,0,0,0,0,10,0,192,0,3,3
RAW_IMU,28591011,-301,-330,16662,-21,60,-37,-40,-23,-307,0,3008,28571,1,6,0,3,1723,-1,-1,-1,-1,255,3,369603878,-1220329483,0,65535,65535,3,0,255,0,0,0,0,0,0,10,0,192,0,3,3
RC_CHANNELS_SCALED,28591011,-301,-330,16662,-21,60,-37,-40,-23,-307,0,3008,28591,1,1,-2,1,1720,-1,-1,-1,-1,255,3,369603878,-1220329483,0,65535,65535,3,0,255,0,0,0,0,0,0,10,0,192,0,3,3
RAW_IMU,28611013,-322,-298,16694,-50,82,-11,-40,-23,-307,0,3168,28591,1,1,-2,1,1720,-1,-1,-1,-1,255,3,369603878,-1220329483,0,65535,65535,3,0,255,0,0,0,0,0,0,10,0,192,0,3,3
RC_CHANNELS_SCALED,28611013,-322,-298,16694,-50,82,-11,-40,-23,-307,0,3168,28611,1,-1,1,1,1720,-1,-1,-1,-1,255,3,369603878,-1220329483,0,65535,65535,3,0,255,0,0,0,0,0,0,10,0,192,0,3,3
RAW_IMU,28631014,-254,-267,16746,-31,55,-21,-35,-42,-317,0,3056,28611,1,-1,1,1,1720,-1,-1,-1,-1,255,3,369603878,-1220329483,0,65535,65535,3,0,255,0,0,0,0,0,0,10,0,192,0,3,3
RC_CHANNELS_SCALED,28631014,-254,-267,16746,-31,55,-21,-35,-42,-317,0,3056,28631,1,1,4,-3,1720,-1,-1,-1,-1,255,3,369603878,-1220329483,0,65535,65535,3,0,255,0,0,0,0,0,0,10,0,192,0,3,3
GPS_RAW_INT,28632009,-254,-267,16746,-31,55,-21,-35,-42,-317,0,3056,28631,1,1,4,-3,1720,-1,-1,-1,-1,255,3,369603875,-1220329485,0,65535,65535,3,0,255,0,0,0,0,0,0,10,0,192,0,3,3
RAW_IMU,28651012,-357,-268,16684,-41,57,-16,-35,-39,-315,0,3088,28631,1,1,4,-3,1720,-1,-1,-1,-1,255,3,369603875,-1220329485,0,65535,65535,3,0,255,0,0,0,0,0,0,10,0,192,0,3,3
RC_CHANNELS_SCALED,28651012,-357,-268,16684,-41,57,-16,-35,-39,-315,0,3088,28651,1,-4,-1,-1,1720,-1,-1,-1,-1,255,3,369603875,-1220329485,0,65535,65535,3,0,255,0,0,0,0,0,0,10,0,192,0,3,3
RAW_IMU,28671013,-323,-267,16656,-40,55,-12,-37,-27,-315,0,3072,28651,1,-4,-1,-1,1720,-1,-1,-1,-1,255,3,369603875,-1220329485,0,65535,65535,3,0,255,0,0,0,0,0,0,10,0,192,0,3,3
RC_CHANNELS_SCALED,28671013,-323,-267,16656,-40,55,-12,-37,-27,-315,0,3072,28671,1,2,-1,-2,1719,-1,-1,-1,-1,255,3,369603875,-1220329485,0,65535,65535,3,0,255,0,0,0,0,0,0,10,0,192,0,3,3
RAW_IMU,28691015,-293,-161,16682,-32,54,-34,-37,-32,-317,0,3088,28671,1,2,-1,-2,1719,-1,-1,-1,-1,255,3,369603875,-1220329485,0,65535,65535,3,0,255,0,0,0,0,0,0,10,0,192,0,3,3
RC_CHANNELS_SCALED,28691015,-293,-161,16682,-32,54,-34,-37,-32,-317,0,3088,28691,1,-1,3,1,1722,-1,-1,-1,-1,255,3,369603875,-1220329485,0,65535,65535,3,0,255,0,0,0,0,0,0,10,0,192,0,3,3
RAW_IMU,28711015,-357,-251,16728,-42,57,-20,-39,-26,-311,0,3120,28691,1,-1,3,1,1722,-1,-1,-1,-1,255,3,369603875,-1220329485,0,65535,65535,3,0,255,0,0,0,0,0,0,10,0,192,0,3,3
RC_CHANNELS_SCALED,28711015,-357,-251,16728,-42,57,-20,-39,-26,-311,0,3120,28711,1,-3,3,2,1720,-1,-1,-1,-1,255,3,369603875,-1220329485,0,65535,65535,3,0,255,0,0,0,0,0,0,10,0,192,0,3,3
RAW_IMU,28731013,-301,-187,16718,-38,70,-22,-31,-33,-316,0,3056,28711,1,-3,3,2,1720,-1,-1,-1,-1,255,3,369603875,-1220329485,0,65535,65535,3,0,255,0,0,0,0,0,0,10,0,192,0,3,3
RC_CHANNELS_SCALED,28731013,-301,-187,16718,-38,70,-22,-31,-33,-316,0,3056,28731,1,1,-2,1,1723,-1,-1,-1,-1,255,3,369603875,-1220329485,0,65535,65535,3,0,255,0,0,0,0,0,0,10,0,192,0,3,3
GPS_RAW_INT,28733007,-301,-187,16718,-38,70,-22,-31,-33,-316,0,3056,28731,1,1,-2,1,1723,-1,-1,-1,-1,255,3,369603875,-1220329485,0,65535,65535,3,0,255,0,0,0,0,0,0,10,0,192,0,3,3
RAW_IMU,28751015,-363,-299,16664,-31,68,-20,-28,-24,-309,0,3088,28731,1,1,-2,1,1723,-1,-1,-1,-1,255,3,369603875,-1220329485,0,65535,65535,3,0,255,0,0,0,0,0,0,10,0,192,0,3,3
RC_CHANNELS_SCALED,28751015,-363,-299,16664,-31,68,-20,-28,-24,-309,0,3088,28751,1,-7,6,2,1721,-1,-1,-1,-1,255,3,369603875,-1220329485,0,65535,65535,3,0,255,0,0,0,0,0,0,10,0,192,0,3,3
RAW_IMU,28771015,-345,-316,16721,-46,60,-36,-33,-31,-311,0,3008,28751,1,-7,6,2,1721,-1,-1,-1,-1,255,3,369603875,-1220329485,0,65535,65535,3,0,255,0,0,0,0,0,0,10,0,192,0,3,3
RC_CHANNELS_SCALED,28771015,-345,-316,16721,-46,60,-36,-33,-31,-311,0,3008,28771,1,2,-6,-3,1721,-1,-1,-1,-1,255,3,369603875,-1220329485,0,65535,65535,3,0,255,0,0,0,0,0,0,10,0,192,0,3,3
RAW_IMU,28791015,-355,-249,16655,-41,38,-29,-35,-30,-307,0,3072,28771,1,2,-6,-3,1721,-1,-1,-1,-1,255,3,369603875,-1220329485,0,65535,65535,3,0,255,0,0,0,0,0,0,10,0,192,0,3,3
RC_CHANNELS_SCALED,28791015,-355,-249,16655,-41,38,-29,-35,-30,-307,0,3072,28791,1,-1,2,1,1722,-1,-1,-1,-1,255,3,369603875,-1220329485,0,65535,65535,3,0,255,0,0,0,0,0,0,10,0,192,0,3,3
RAW_IMU,28811013,-347,-218,16741,-42,48,-17,-36,-29,-309,0,3120,28791,1,-1,2,1,1722,-1,-1,-1,-1,255,3,369603875,-1220329485,0,65535,65535,3,0,255,0,0,0,0,0,0,10,0,192,0,3,3
RC_CHANNELS_SCALED,28811013,-347,-218,16741,-42,48,-17,-36,-29,-309,0,3120,28811,1,0,-1,-2,1720,-1,-1,-1,-1,255,3,369603875,-1220329485,0,65535,65535,3,0,255,0,0,0,0,0,0,10,0,192,0,3,3
RAW_IMU,28831016,-320,-235,16684,-22,55,-41,-32,-32,-315,0,3136,28811,1,0,-1,-2,1720,-1,-1,-1,-1,255,3,369603875,-1220329485,0,65535,65535,3,0,255,0,0,0,0,0,0,10,0,192,0,3,3
RC_CHANNELS_SCALED,28831016,-320,-235,16684,-22,55,-41,-32,-32,-315,0,3136,28831,1,1,-2,6,1723,-1,-1,-1,-1,255,3,369603875,-1220329485,0,65535,65535,3,0,255,0,0,0,0,0,0,10,0,192,0,3,3
GPS_RAW_INT,28834006,-320,-235,16684,-22,55,-41,-32,-32,-315,0,3136,28831,1,1,-2,6,1723,-1,-1,-1,-1,255,3,369603875,-1220329486,0,65535,65535,3,0,255,0,0,0,0,0,0,10,0,192,0,3,3
RAW_IMU,28851015,-365,-290,16660,-35,42,-27,-35,-35,-315,0,3056,28831,1,1,-2,6,1723,-1,-1,-1,-1,255,3,369603875,-1220329486,0,65535,65535,3,0,255,0,0,0,0,0,0,10,0,192,0,3,3
RC_CHANNELS_SCALED,28851015,-365,-290,16660,-35,42,-27,-35,-35,-315,0,3056,28851,1,3,1,-1,1720,-1,-1,-1,-1,255,3,369603875,-1220329486,0,65535,65535,3,0,255,0,0,0,0,0,0,10,0,192,0,3,3
RAW_IMU,28871013,-322,-180,16679,-48,65,-3,-36,-33,-309,0,3072,28851,1,3,1,-1,1720,-1,-1,-1,-1,255,3,369603875,-1220329486,0,65535,65535,3,0,255,0,0,0,0,0,0,10,0,192,0,3,3
RC_CHANNELS_SCALED,28871013,-322,-180,16679,-48,65,-3,-36,-33,-309,0,3072,28871,1,-1,4,0,1721,-1,-1,-1,-1,255,3,369603875,-1220329486,0,65535,65535,3,0,255,0,0,0,0,0,0,10,0,192,0,3,3
RAW_IMU,28891013,-323,-204,16679,-50,54,-31,-35,-37,-327,0,3088,28871,1,-1,4,0,1721,-1,-1,-1,-1,255,3,369603875,-1220329486,0,65535,65535,3,0,255,0,0,0,0,0,0,10,0,192,0,3,3
RC_CHANNELS_SCALED,28891013,-323,-204,16679,-50,54,-31,-35,-37,-327,0,3088,28891,1,0,3,1,1721,-1,-1,-1,-1,255,3,369603875,-1220329486,0,65535,65535,3,0,255,0,0,0,0,0,0,10,0,192,0,3,3
RAW_IMU,28911014,-275,-268,16662,-41,54,-27,-33,-26,-316,0,3024,28891,1,0,3,1,1721,-1,-1,-1,-1,255,3,369603875,-1220329486,0,65535,65535,3,0,255,0,0,0,0,0,0,10,0,192,0,3,3
RC_CHANNELS_SCALED,28911014,-275,-268,16662,-41,54,-27,-33,-26,-316,0,3024,28911,1,1,-2,0,1721,-1,-1,-1,-1,255,3,369603875,-1220329486,0,65535,65535,3,0,255,0,0,0,0,0,0,10,0,192,0,3,3
RAW_IMU,28931014,-385,-221,16686,-41,55,-23,-35,-35,-310,0,3136,28911,1,1,-2,0,1721,-1,-1,-1,-1,255,3,369603875,-1220329486,0,65535,65535,3,0,255,0,0,0,0,0,0,10,0,192,0,3,3
RC_CHANNELS_SCALED,28931014,-385,-221,16686,-41,55,-23,-35,-35,-310,0,3136,28931,1,-1,-2,-1,1720,-1,-1,-1,-1,255,3,369603875,-1220329486,0,65535,65535,3,0,255,0,0,0,0,0,0,10,0,192,0,3,3
GPS_RAW_INT,28935006,-385,-221,16686,-41,55,-23,-35,-35,-310,0,3136,28931,1,-1,-2,-1,1720,-1,-1,-1,-1,255,3,369603875,-1220329486,0,65535,65535,3,0,255,0,0,0,0,0,0,10,0,192,0,3,3
RAW_IMU,28951012,-339,-213,16647,-25,68,-17,-32,-32,-322,0,3008,28931,1,-1,-2,-1,1720,-1,-1,-1,-1,255,3,369603875,-1220329486,0,65535,65535,3,0,255,0,0,0,0,0,0,10,0,192,0,3,3
RC_CHANNELS_SCALED,28951012,-339,-213,16647,-25,68,-17,-32,-32,-322,0,3008,28951,1,2,2,-1,1720,-1,-1,-1,-1,255,3,369603875,-1220329486,0,65535,65535,3,0,255,0,0,0,0,0,0,10,0,192,0,3,3
RAW_IMU,28971012,-302,-264,16704,-26,58,-4,-36,-26,-311,0,3088,28951,1,2,2,-1,1720,-1,-1,-1,-1,255,3,369603875,-1220329486,0,65535,65535,3,0,255,0,0,0,0,0,0,10,0,192,0,3,3
RC_CHANNELS_SCALED,28971012,-302,-264,16704,-26,58,-4,-36,-26,-311,0,3088,28971,1,0,-3,-1,1720,-1,-1,-1,-1,255,3,369603875,-1220329486,0,65535,65535,3,0,255,0,0,0,0,0,0,10,0,192,0,3,3
RAW_IMU,28991013,-342,-311,16647,-33,61,-31,-35,-35,-302,0,3072,28971,1,0,-3,-1,1720,-1,-1,-1,-1,255,3,369603875,-1220329486,0,65535,65535,3,0,255,0,0,0,0,0,0,10,0,192,0,3,3
RC_CHANNELS_SCALED,28991013,-342,-311,16647,-33,61,-31,-35,-35,-302,0,3072,28991,1,1,-1,0,1720,-1,-1,-1,-1,255,3,369603875,-1220329486,0,65535,65535,3,0,255,0,0,0,0,0,0,10,0,192,0,3,3
HEARTBEAT,28991013,-342,-311,16647,-33,61,-31,-35,-35,-302,0,3072,28991,1,1,-1,0,1720,-1,-1,-1,-1,255,3,369603875,-1220329486,0,65535,65535,3,0,255,0,0,0,0,0,0,10,0,192,0,3,3
RAW_IMU,29011014,-245,-214,16668,-31,46,-27,-40,-37,-320,0,3088,28991,1,1,-1,0,1720,-1,-1,-1,-1,255,3,369603875,-1220329486,0,65535,65535,3,0,255,0,0,0,0,0,0,10,0,192,0,3,3
RC_CHANNELS_SCALED,29011014,-245,-214,16668,-31,46,-27,-40,-37,-320,0,3088,29011,1,2,-3,1,1722,-1,-1,-1,-1,255,3,369603875,-1220329486,0,65535,65535,3,0,255,0,0,0,0,0,0,10,0,192,0,3,3
RAW_IMU,29031012,-316,-285,16714,-38,58,-33,-37,-25,-315,0,3072,29011,1,2,-3,1,1722,-1,-1,-1,-1,255,3,369603875,-1220329486,0,65535,65535,3,0,255,0,0,0,0,0,0,10,0,192,0,3,3
RC_CHANNELS_SCALED,29031012,-316,-285,16714,-38,58,-33,-37,-25,-315,0,3072,29031,1,-1,1,2,1722,-1,-1,-1,-1,255,3,369603875,-1220329486,0,65535,65535,3,0,255,0,0,0,0,0,0,10,0,192,0,3,3
GPS_RAW_INT,29036006,-316,-285,16714,-38,58,-33,-37,-25,-315,0,3072,29031,1,-1,1,2,1722,-1,-1,-1,-1,255,3,369603875,-1220329488,0,65535,65535,1,0,255,0,0,0,0,0,0,10,0,192,0,3,3
RAW_IMU,29051012,-304,-258,16716,-14,50,-19,-27,-30,-310,0,3120,29031,1,-1,1,2,1722,-1,-1,-1,-1,255,3,369603875,-1220329488,0,65535,65535,1,0,255,0,0,0,0,0,0,10,0,192,0,3,3
RC_CHANNELS_SCALED,29051012,-304,-258,16716,-14,50,-19,-27,-30,-310,0,3120,29051,1,1,-4,-3,1720,-1,-1,-1,-1,255,3,369603875,-1220329488,0,65535,65535,1,0,255,0,0,0,0,0,0,10,0,192,0,3,3
RAW_IMU,29071014,-312,-282,16693,-26,64,-24,-37,-32,-315,0,3136,29051,1,1,-4,-3,1720,-1,-1,-1,-1,255,3,369603875,-1220329488,0,65535,65535,1,0,255,0,0,0,0,0,0,10,0,192,0,3,3
RC_CHANNELS_SCALED,29071014,-312,-282,16693,-26,64,-24,-37,-32,-315,0,3136,29071,1,-1,0,-2,1720,-1,-1,-1,-1,255,3,369603875,-1220329488,0,65535,65535,1,0,255,0,0,0,0,0,0,10,0,192,0,3,3
RAW_IMU,29091015,-385,-259,16607,-30,67,-10,-31,-31,-301,0,3088,29071,1,-1,0,-2,1720,-1,-1,-1,-1,255,3,369603875,-1220329488,0,65535,65535,1,0,255,0,0,0,0,0,0,10,0,192,0,3,3
RC_CHANNELS_SCALED,29091015,-385,-259,16607,-30,67,-10,-31,-31,-301,0,3088,29091,1,-3,1,1,1723,-1,-1,-1,-1,255,3,369603875,-1220329488,0,65535,65535,1,0,255,0,0,0,0,0,0,10,0,192,0,3,3
RAW_IMU,29111011,-286,-245,16703,-40,54,-21,-41,-38,-316,0,3088,29091,1,-3,1,1,1723,-1,-1,-1,-1,255,3,369603875,-1220329488,0,65535,65535,1,0,255,0,0,0,0,0,0,10,0,192,0,3,3
RC_CHANNELS_SCALED,29111011,-286,-245,16703,-40,54,-21,-41,-38,-316,0,3088,29111,1,1,0,-2,1719,-1,-1,-1,-1,255,3,369603875,-1220329488,0,65535,65535,1,0,255,0,0,0,0,0,0,10,0,192,0,3,3
RAW_IMU,29131011,-362,-212,16714,-31,65,-8,-22,-37,-315,0,3136,29111,1,1,0,-2,1719,-1,-1,-1,-1,255,3,369603875,-1220329488,0,65535,65535,1,0,255,0,0,0,0,0,0,10,0,192,0,3,3
RC_CHANNELS_SCALED,29131011,-362,-212,16714,-31,65,-8,-22,-37,-315,0,3136,29131,1,-1,2,1,1722,-1,-1,-1,-1,255,3,369603875,-1220329488,0,65535,65535,1,0,255,0,0,0,0,0,0,10,0,192,0,3,3
GPS_RAW_INT,29137008,-362,-212,16714,-31,65,-8,-22,-37,-315,0,3136,29131,1,-1,2,1,1722,-1,-1,-1,-1,255,3,369603875,-1220329488,0,65535,65535,1,0,255,0,0,0,0,0,0,10,0,192,0,3,3
RAW_IMU,29151014,-321,-309,16679,-40,72,-10,-39,-31,-304,0,3168,29131,1,-1,2,1,1722,-1,-1,-1,-1,255,3,369603875,-1220329488,0,65535,65535,1,0,255,0,0,0,0,0,0,10,0,192,0,3,3
RC_CHANNELS_SCALED,29151014,-321,-309,16679,-40,72,-10,-39,-31,-304,0,3168,29151,1,3,-1,2,1722,-1,-1,-1,-1,255,3,369603875,-1220329488,0,65535,65535,1,0,255,0,0,0,0,0,0,10,0,192,0,3,3
RAW_IMU,29171015,-327,-280,16657,-41,60,-36,-44,-26,-316,0,3120,29151,1,3,-1,2,1722,-1,-1,-1,-1,255,3,369603875,-1220329488,0,65535,65535,1,0,255,0,0,0,0,0,0,10,0,192,0,3,3
RC_CHANNELS_SCALED,29171015,-327,-280,16657,-41,60,-36,-44,-26,-316,0,3120,29171,1,-1,0,2,1721,-1,-1,-1,-1,255,3,369603875,-1220329488,0,65535,65535,1,0,255,0,0,0,0,0,0,10,0,192,0,3,3
RAW_IMU,29191012,-334,-252,16664,-46,61,-21,-35,-30,-317,0,3120,29171,1,-1,0,2,1721,-1,-1,-1,-1,255,3,369603875,-1220329488,0,65535,65535,1,0,255,0,0,0,0,0,0,10,0,192,0,3,3
RC_CHANNELS_SCALED,29191012,-334,-252,16664,-46,61,-21,-35,-30,-317,0,3120,29191,1,3,1,4,1722,-1,-1,-1,-1,255,3,369603875,-1220329488,0,65535,65535,1,0,255,0,0,0,0,0,0,10,0,192,0,3,3
RAW_IMU,29211015,-307,-246,16687,-33,58,-24,-35,-37,-312,0,3088,29191,1,3,1,4,1722,-1,-1,-1,-1,255,3,369603875,-1220329488,0,65535,65535,1,0,255,0,0,0,0,0,0,10,0,192,0,3,3
RC_CHANNELS_SCALED,29211015,-307,-246,16687,-33,58,-24,-35,-37,-312,0,3088,29211,1,1,-3,0,1719,-1,-1,-1,-1,255,3,369603875,-1220329488,0,65535,65535,1,0,255,0,0,0,0,0,0,10,0,192,0,3,3
RAW_IMU,29231013,-254,-270,16735,-18,54,-27,-31,-33,-316,0,3088,29211,1,1,-3,0,1719,-1,-1,-1,-1,255,3,369603875,-1220329488,0,65535,65535,1,0,255,0,0,0,0,0,0,10,0,192,0,3,3
RC_CHANNELS_SCALED,29231013,-254,-270,16735,-18,54,-27,-31,-33,-316,0,3088,29231,1,1,-2,-1,1721,-1,-1,-1,-1,255,3,369603875,-1220329488,0,65535,65535,1,0,255,0,0,0,0,0,0,10,0,192,0,3,3
GPS_RAW_INT,29238005,-254,-270,16735,-18,54,-27,-31,-33,-316,0,3088,29231,1,1,-2,-1,1721,-1,-1,-1,-1,255,3,369603873,-1220329491,0,65535,65535,0,0,255,0,0,0,0,0,0,10,0,192,0,3,3
RAW_IMU,29251016,-300,-267,16716,-35,50,-11,-39,-26,-311,0,3072,29231,1,1,-2,-1,1721,-1,-1,-1,-1,255,3,369603873,-1220329491,0,65535,65535,0,0,255,0,0,0,0,0,0,10,0,192,0,3,3
RC_CHANNELS_SCALED,29251016,-300,-267,16716,-35,50,-11,-39,-26,-311,0,3072,29251,1,2,-2,0,1720,-1,-1,-1,-1,255,3,369603873,-1220329491,0,65535,65535,0,0,255,0,0,0,0,0,0,10,0,192,0,3,3
RAW_IMU,29271012,-310,-299,16674,-47,61,-10,-23,-31,-316,0,3024,29251,1,2,-2,0,1720,-1,-1,-1,-1,255,3,369603873,-1220329491,0,65535,65535,0,0,255,0,0,0,0,0,0,10,0,192,0,3,3
RC_CHANNELS_SCALED,29271012,-310,-299,16674,-47,61,-10,-23,-31,-316,0,3024,29271,1,0,0,3,1722,-1,-1,-1,-1,255,3,369603873,-1220329491,0,65535,65535,0,0,255,0,0,0,0,0,0,10,0,192,0,3,3
RAW_IMU,29291012,-331,-260,16637,-37,48,-11,-35,-30,-312,0,3088,29271,1,0,0,3,1722,-1,-1,-1,-1,255,3,369603873,-1220329491,0,65535,65535,0,0,255,0,0,0,0,0,0,10,0,192,0,3,3
RC_CHANNELS_SCALED,29291012,-331,-260,16637,-37,48,-11,-35,-30,-312,0,3088,29291,1,2,-4,0,1720,-1,-1,-1,-1,255,3,369603873,-1220329491,0,65535,65535,0,0,255,0,0,0,0,0,0,10,0,192,0,3,3
RAW_IMU,29311013,-263,-226,16698,-51,61,-7,-31,-36,-314,0,3088,29291,1,2,-4,0,1720,-1,-1,-1,-1,255,3,369603873,-1220329491,0,65535,65535,0,0,255,0,0,0,0,0,0,10,0,192,0,3,3
RC_CHANNELS_SCALED,29311013,-263,-226,16698,-51,61,-7,-31,-36,-314,0,3088,29311,1,-3,-3,3,1723,-1,-1,-1,-1,255,3,369603873,-1220329491,0,65535,65535,0,0,255,0,0,0,0,0,0,10,0,192,0,3,3
RAW_IMU,29331012,-352,-256,16673,-34,62,-23,-28,-38,-316,0,3136,29311,1,-3,-3,3,1723,-1,-1,-1,-1,255,3,369603873,-1220329491,0,65535,65535,0,0,255,0,0,0,0,0,0,10,0,192,0,3,3
RC_CHANNELS_SCALED,29331012,-352,-256,16673,-34,62,-23,-28,-38,-316,0,3136,29331,1,0,-3,0,1721,-1,-1,-1,-1,255,3,369603873,-1220329491,0,65535,65535,0,0,255,0,0,0,0,0,0,10,0,192,0,3,3
GPS_RAW_INT,29339006,-352,-256,16673,-34,62,-23,-28,-38,-316,0,3136,29331,1,0,-3,0,1721,-1,-1,-1,-1,255,3,369603873,-1220329491,0,65535,65535,0,0,255,0,0,0,0,0,0,10,0,192,0,3,3
RAW_IMU,29351012,-323,-254,16737,-40,55,-31,-39,-26,-314,0,3088,29331,1,0,-3,0,1721,-1,-1,-1,-1,255,3,369603873,-1220329491,0,65535,65535,0,0,255,0,0,0,0,0,0,10,0,192,0,3,3
RC_CHANNELS_SCALED,29351012,-323,-254,16737,-40,55,-31,-39,-26,-314,0,3088,29351,1,-3,-4,-1,1719,-1,-1,-1,-1,255,3,369603873,-1220329491,0,65535,65535,0,0,255,0,0,0,0,0,0,10,0,192,0,3,3
RAW_IMU,29371013,-340,-254,16717,-33,56,-32,-35,-27,-317,0,2912,29351,1,-3,-4,-1,1719,-1,-1,-1,-1,255,3,369603873,-1220329491,0,65535,65535,0,0,255,0,0,0,0,0,0,10,0,192,0,3,3
RC_CHANNELS_SCALED,29371013,-340,-254,16717,-33,56,-32,-35,-27,-317,0,2912,29371,1,0,-3,-2,1721,-1,-1,-1,-1,255,3,369603873,-1220329491,0,65535,65535,0,0,255,0,0,0,0,0,0,10,0,192,0,3,3
RAW_IMU,29391013,-271,-233,16624,-24,63,-14,-28,-33,-321,0,3168,29371,1,0,-3,-2,1721,-1,-1,-1,-1,255,3,369603873,-1220329491,0,65535,65535,0,0,255,0,0,0,0,0,0,10,0,192,0,3,3
RC_CHANNELS_SCALED,29391013,-271,-233,16624,-24,63,-14,-28,-33,-321,0,3168,29391,1,2,2,2,1721,-1,-1,-1,-1,255,3,369603873,-1220329491,0,65535,65535,0,0,255,0,0,0,0,0,0,10,0,192,0,3,3
RAW_IMU,29411011,-267,-239,16628,-29,71,-19,-43,-32,-312,0,2960,29391,1,2,2,2,1721,-1,-1,-1,-1,255,3,369603873,-1220329491,0,65535,65535,0,0,255,0,0,0,0,0,0,10,0,192,0,3,3
RC_CHANNELS_SCALED,29411011,-267,-239,16628,-29,71,-19,-43,-32,-312,0,2960,29411,1,-1,1,-1,1721,-1,-1,-1,-1,255,3,369603873,-1220329491,0,65535,65535,0,0,255,0,0,0,0,0,0,10,0,192,0,3,3
RAW_IMU,29431013,-327,-265,16645,-26,67,-34,-32,-27,-312,0,3088,29411,1,-1,1,-1,1721,-1,-1,-1,-1,255,3,369603873,-1220329491,0,65535,65535,0,0,255,0,0,0,0,0,0,10,0,192,0,3,3
RC_CHANNELS_SCALED,29431013,-327,-265,16645,-26,67,-34,-32,-27,-312,0,3088,29431,1,-2,-2,1,1722,-1,-1,-1,-1,255,3,369603873,-1220329491,0,65535,65535,0,0,255,0,0,0,0,0,0,10,0,192,0,3,3
GPS_RAW_INT,29440007,-327,-265,16645,-26,67,-34,-32,-27,-312,0,3088,29431,1,-2,-2,1,1722,-1,-1,-1,-1,255,3,369603873,-1220329491,0,65535,65535,1,0,255,0,0,0,0,0,0,10,0,192,0,3,3
RAW_IMU,29451016,-328,-263,16715,-29,59,-21,-23,-31,-314,0,3136,29431,1,-2,-2,1,1722,-1,-1,-1,-1,255,3,369603873,-1220329491,0,65535,65535,1,0,255,0,0,0,0,0,0,10,0,192,0,3,3
RC_CHANNELS_SCALED,29451016,-328,-263,16715,-29,59,-21,-23,-31,-314,0,3136,29451,1,2,-3,2,1722,-1,-1,-1,-1,255,3,369603873,-1220329491,0,65535,65535,1,0,255,0,0,0,0,0,0,10,0,192,0,3,3
RAW_IMU,29471013,-274,-230,16691,-25,60,-26,-24,-30,-315,0,3008,29451,1,2,-3,2,1722,-1,-1,-1,-1,255,3,369603873,-1220329491,0,65535,65535,1,0,255,0,0,0,0,0,0,10,0,192,0,3,3
RC_CHANNELS_SCALED,29471013,-274,-230,16691,-25,60,-26,-24,-30,-315,0,3008,29471,1,-1,1,1,1722,-1,-1,-1,-1,255,3,369603873,-1220329491,0,65535,65535,1,0,255,0,0,0,0,0,0,10,0,192,0,3,3
RAW_IMU,29491014,-319,-213,16640,-33,47,-18,-39,-31,-314,0,3136,29471,1,-1,1,1,1722,-1,-1,-1,-1,255,3,369603873,-1220329491,0,65535,65535,1,0,255,0,0,0,0,0,0,10,0,192,0,3,3
RC_CHANNELS_SCALED,29491014,-319,-213,16640,-33,47,-18,-39,-31,-314,0,3136,29491,1,2,-2,0,1721,-1,-1,-1,-1,255,3,369603873,-1220329491,0,65535,65535,1,0,255,0,0,0,0,0,0,10,0,192,0,3,3
RAW_IMU,29511015,-356,-257,16697,-38,67,-23,-41,-21,-318,0,3136,29491,1,2,-2,0,1721,-1,-1,-1,-1,255,3,369603873,-1220329491,0,65535,65535,1,0,255,0,0,0,0,0,0,10,0,192,0,3,3
RC_CHANNELS_SCALED,29511015,-356,-257,16697,-38,67,-23,-41,-21,-318,0,3136,29511,1,2,1,-1,1720,-1,-1,-1,-1,255,3,369603873,-1220329491,0,65535,65535,1,0,255,0,0,0,0,0,0,10,0,192,0,3,3
RAW_IMU,29531013,-336,-257,16645,-41,64,-34,-27,-25,-307,0,3072,29511,1,2,1,-1,1720,-1,-1,-1,-1,255,3,369603873,-1220329491,0,65535,65535,1,0,255,0,0,0,0,0,0,10,0,192,0,3,3
RC_CHANNELS_SCALED,29531013,-336,-257,16645,-41,64,-34,-27,-25,-307,0,3072,29531,1,0,3,1,1722,-1,-1,-1,-1,255,3,369603873,-1220329491,0,65535,65535,1,0,255,0,0,0,0,0,0,10,0,192,0,3,3
GPS_RAW_INT,29541006,-336,-257,16645,-41,64,-34,-27,-25,-307,0,3072,29531,1,0,3,1,1722,-1,-1,-1,-1,255,3,369603873,-1220329491,0,65535,65535,1,0,255,0,0,0,0,0,0,10,0,192,0,3,3
RAW_IMU,29551015,-282,-276,16675,-45,64,-22,-28,-31,-314,0,3024,29531,1,0,3,1,1722,-1,-1,-1,-1,255,3,369603873,-1220329491,0,65535,65535,1,0,255,0,0,0,0,0,0,10,0,192,0,3,3
RC_CHANNELS_SCALED,29551015,-282,-276,16675,-45,64,-22,-28,-31,-314,0,3024,29551,1,1,-2,-2,1719,-1,-1,-1,-1,255,3,369603873,-1220329491,0,65535,65535,1,0,255,0,0,0,0,0,0,10,0,192,0,3,3
RAW_IMU,29571014,-327,-196,16654,-27,54,-15,-37,-30,-310,0,3136,29551,1,1,-2,-2,1719,-1,-1,-1,-1,255,3,369603873,-1220329491,0,65535,65535,1,0,255,0,0,0,0,0,0,10,0,192,0,3,3
RC_CHANNELS_SCALED,29571014,-327,-196,16654,-27,54,-15,-37,-30,-310,0,3136,29571,1,-3,-5,3,1719,-1,-1,-1,-1,255,3,369603873,-1220329491,0,65535,65535,1,0,255,0,0,0,0,0,0,10,0,192,0,3,3
RAW_IMU,29591013,-312,-259,16746,-31,56,-37,-41,-33,-309,0,3136,29571,1,-3,-5,3,1719,-1,-1,-1,-1,255,3,369603873,-1220329491,0,65535,65535,1,0,255,0,0,0,0,0,0,10,0,192,0,3,3
RC_CHANNELS_SCALED,29591013,-312,-259,16746,-31,56,-37,-41,-33,-309,0,3136,29591,1,2,-1,1,1722,-1,-1,-1,-1,255,3,369603873,-1220329491,0,65535,65535,1,0,255,0,0,0,0,0,0,10,0,192,0,3,3
RAW_IMU,29611014,-282,-255,16671,-44,46,-23,-22,-35,-310,0,3136,29591,1,2,-1,1,1722,-1,-1,-1,-1,255,3,369603873,-1220329491,0,65535,65535,1,0,255,0,0,0,0,0,0,10,0,192,0,3,3
RC_CHANNELS_SCALED,29611014,-282,-255,16671,-44,46,-23,-22,-35,-310,0,3136,29611,1,0,2,2,1722,-1,-1,-1,-1,255,3,369603873,-1220329491,0,65535,65535,1,0,255,0,0,0,0,0,0,10,0,192,0,3,3
RAW_IMU,29631015,-307,-216,16713,-35,60,-26,-36,-21,-311,0,3072,29611,1,0,2,2,1722,-1,-1,-1,-1,255,3,369603873,-1220329491,0,65535,65535,1,0,255,0,0,0,0,0,0,10,0,192,0,3,3
RC_CHANNELS_SCALED,29631015,-307,-216,16713,-35,60,-26,-36,-21,-311,0,3072,29631,1,-3,-2,-1,1720,-1,-1,-1,-1,255,3,369603873,-1220329491,0,65535,65535,1,0,255,0,0,0,0,0,0,10,0,192,0,3,3
GPS_RAW_INT,29642007,-307,-216,16713,-35,60,-26,-36,-21,-311,0,3072,29631,1,-3,-2,-1,1720,-1,-1,-1,-1,255,3,369603871,-1220329493,0,65535,65535,2,0,255,0,0,0,0,0,0,10,0,192,0,3,3
RAW_IMU,29651017,-268,-232,16661,-31,59,-23,-24,-23,-322,0,3136,29631,1,-3,-2,-1,1720,-1,-1,-1,-1,255,3,369603871,-1220329493,0,65535,65535,2,0,255,0,0,0,0,0,0,10,0,192,0,3,3
RC_CHANNELS_SCALED,29651017,-268,-232,16661,-31,59,-23,-24,-23,-322,0,3136,29651,1,4,1,-2,1720,-1,-1,-1,-1,255,3,369603871,-1220329493,0,65535,65535,2,0,255,0,0,0,0,0,0,10,0,192,0,3,3
RAW_IMU,29671015,-291,-290,16629,-24,74,-7,-46,-38,-314,0,3120,29651,1,4,1,-2,1720,-1,-1,-1,-1,255,3,369603871,-1220329493,0,65535,65535,2,0,255,0,0,0,0,0,0,10,0,192,0,3,3
RC_CHANNELS_SCALED,29671015,-291,-290,16629,-24,74,-7,-46,-38,-314,0,3120,29671,1,-2,2,2,1720,-1,-1,-1,-1,255,3,369603871,-1220329493,0,65535,65535,2,0,255,0,0,0,0,0,0,10,0,192,0,3,3
RAW_IMU,29691016,-316,-190,16696,-41,54,-32,-32,-30,-312,0,3024,29671,1,-2,2,2,1720,-1,-1,-1,-1,255,3,369603871,-1220329493,0,65535,65535,2,0,255,0,0,0,0,0,0,10,0,192,0,3,3
RC_CHANNELS_SCALED,29691016,-316,-190,16696,-41,54,-32,-32,-30,-312,0,3024,29691,1,0,0,-2,1719,-1,-1,-1,-1,255,3,369603871,-1220329493,0,65535,65535,2,0,255,0,0,0,0,0,0,10,0,192,0,3,3
RAW_IMU,29711015,-380,-249,16696,-41,61,-28,-27,-37,-302,0,3136,29691,1,0,0,-2,1719,-1,-1,-1,-1,255,3,369603871,-1220329493,0,65535,65535,2,0,255,0,0,0,0,0,0,10,0,192,0,3,3
RC_CHANNELS_SCALED,29711015,-380,-249,16696,-41,61,-28,-27,-37,-302,0,3136,29711,1,1,1,0,1721,-1,-1,-1,-1,255,3,369603871,-1220329493,0,65535,65535,2,0,255,0,0,0,0,0,0,10,0,192,0,3,3
RAW_IMU,29731016,-330,-222,16674,-36,62,-20,-41,-41,-301,0,3072,29711,1,1,1,0,1721,-1,-1,-1,-1,255,3,369603871,-1220329493,0,65535,65535,2,0,255,0,0,0,0,0,0,10,0,192,0,3,3
RC_CHANNELS_SCALED,29731016,-330,-222,16674,-36,62,-20,-41,-41,-301,0,3072,29731,1,-3,-2,-2,1719,-1,-1,-1,-1,255,3,369603871,-1220329493,0,65535,65535,2,0,255,0,0,0,0,0,0,10,0,192,0,3,3
GPS_RAW_INT,29743007,-330,-222,16674,-36,62,-20,-41,-41,-301,0,3072,29731,1,-3,-2,-2,1719,-1,-1,-1,-1,255,3,369603871,-1220329493,0,65535,65535,2,0,255,0,0,0,0,0,0,10,0,192,0,3,3
RAW_IMU,29751013,-364,-315,16651,-44,39,-24,-31,-24,-304,0,3072,29731,1,-3,-2,-2,1719,-1,-1,-1,-1,255,3,369603871,-1220329493,0,65535,65535,2,0,255,0,0,0,0,0,0,10,0,192,0,3,3
RC_CHANNELS_SCALED,29751013,-364,-315,16651,-44,39,-24,-31,-24,-304,0,3072,29751,1,1,0,5,1723,-1,-1,-1,-1,255,3,369603871,-1220329493,0,65535,65535,2,0,255,0,0,0,0,0,0,10,0,192,0,3,3
RAW_IMU,29771013,-319,-286,16667,-36,58,-17,-36,-36,-314,0,3136,29751,1,1,0,5,1723,-1,-1,-1,-1,255,3,369603871,-1220329493,0,65535,65535,2,0,255,0,0,0,0,0,0,10,0,192,0,3,3
RC_CHANNELS_SCALED,29771013,-319,-286,16667,-36,58,-17,-36,-36,-314,0,3136,29771,1,0,-3,-1,1719,-1,-1,-1,-1,255,3,369603871,-1220329493,0,65535,65535,2,0,255,0,0,0,0,0,0,10,0,192,0,3,3
RAW_IMU,29791012,-350,-202,16675,-41,54,-19,-24,-25,-310,0,3136,29771,1,0,-3,-1,1719,-1,-1,-1,-1,255,3,369603871,-1220329493,0,65535,65535,2,0,255,0,0,0,0,0,0,10,0,192,0,3,3
RC_CHANNELS_SCALED,29791012,-350,-202,16675,-41,54,-19,-24,-25,-310,0,3136,29791,1,0,4,-1,1720,-1,-1,-1,-1,255,3,369603871,-1220329493,0,65535,65535,2,0,255,0,0,0,0,0,0,10,0,192,0,3,3
RAW_IMU,29811015,-346,-229,16685,-28,64,-22,-37,-25,-307,0,3072,29791,1,0,4,-1,1720,-1,-1,-1,-1,255,3,369603871,-1220329493,0,65535,65535,2,0,255,0,0,0,0,0,0,10,0,192,0,3,3
RC_CHANNELS_SCALED,29811015,-346,-229,16685,-28,64,-22,-37,-25,-307,0,3072,29811,1,3,3,-1,1721,-1,-1,-1,-1,255,3,369603871,-1220329493,0,65535,65535,2,0,255,0,0,0,0,0,0,10,0,192,0,3,3
RAW_IMU,29831011,-307,-266,16653,-35,54,-26,-27,-25,-307,0,3136,29811,1,3,3,-1,1721,-1,-1,-1,-1,255,3,369603871,-1220329493,0,65535,65535,2,0,255,0,0,0,0,0,0,10,0,192,0,3,3
RC_CHANNELS_SCALED,29831011,-307,-266,16653,-35,54,-26,-27,-25,-307,0,3136,29831,1,-2,0,0,1721,-1,-1,-1,-1,255,3,369603871,-1220329493,0,65535,65535,2,0,255,0,0,0,0,0,0,10,0,192,0,3,3
GPS_RAW_INT,29844007,-307,-266,16653,-35,54,-26,-27,-25,-307,0,3136,29831,1,-2,0,0,1721,-1,-1,-1,-1,255,3,369603870,-1220329496,0,65535,65535,8,0,255,0,0,0,0,0,0,10,0,192,0,3,3
RAW_IMU,29851013,-290,-202,16665,-29,57,-26,-39,-29,-318,0,3088,29831,1,-2,0,0,1721,-1,-1,-1,-1,255,3,369603870,-1220329496,0,65535,65535,8,0,255,0,0,0,0,0,0,10,0,192,0,3,3
RC_CHANNELS_SCALED,29851013,-290,-202,16665,-29,57,-26,-39,-29,-318,0,3088,29851,1,1,1,-1,1721,-1,-1,-1,-1,255,3,369603870,-1220329496,0,65535,65535,8,0,255,0,0,0,0,0,0,10,0,192,0,3,3
RAW_IMU,29871013,-284,-216,16678,-36,60,-27,-31,-26,-318,0,3008,29851,1,1,1,-1,1721,-1,-1,-1,-1,255,3,369603870,-1220329496,0,65535,65535,8,0,255,0,0,0,0,0,0,10,0,192,0,3,3
RC_CHANNELS_SCALED,29871013,-284,-216,16678,-36,60,-27,-31,-26,-318,0,3008,29871,1,1,-1,-3,1720,-1,-1,-1,-1,255,3,369603870,-1220329496,0,65535,65535,8,0,255,0,0,0,0,0,0,10,0,192,0,3,3
RAW_IMU,29891013,-292,-253,16671,-54,58,-19,-28,-31,-314,0,3008,29871,1,1,-1,-3,1720,-1,-1,-1,-1,255,3,369603870,-1220329496,0,65535,65535,8,0,255,0,0,0,0,0,0,10,0,192,0,3,3
RC_CHANNELS_SCALED,29891013,-292,-253,16671,-54,58,-19,-28,-31,-314,0,3008,29891,1,-2,3,2,1721,-1,-1,-1,-1,255,3,369603870,-1220329496,0,65535,65535,8,0,255,0,0,0,0,0,0,10,0,192,0,3,3
RAW_IMU,29911017,-303,-282,16676,-34,64,-18,-36,-21,-318,0,3024,29891,1,-2,3,2,1721,-1,-1,-1,-1,255,3,369603870,-1220329496,0,65535,65535,8,0,255,0,0,0,0,0,0,10,0,192,0,3,3
RC_CHANNELS_SCALED,29911017,-303,-282,16676,-34,64,-18,-36,-21,-318,0,3024,29911,1,0,-1,-3,1720,-1,-1,-1,-1,255,3,369603870,-1220329496,0,65535,65535,8,0,255,0,0,0,0,0,0,10,0,192,0,3,3
RAW_IMU,29931016,-255,-185,16638,-33,58,-11,-24,-35,-305,0,3088,29911,1,0,-1,-3,1720,-1,-1,-1,-1,255,3,369603870,-1220329496,0,65535,65535,8,0,255,0,0,0,0,0,0,10,0,192,0,3,3
RC_CHANNELS_SCALED,29931016,-255,-185,16638,-33,58,-11,-24,-35,-305,0,3088,29931,1,-2,-2,2,1722,-1,-1,-1,-1,255,3,369603870,-1220329496,0,65535,65535,8,0,255,0,0,0,0,0,0,10,0,192,0,3,3
GPS_RAW_INT,29945007,-255,-185,16638,-33,58,-11,-24,-35,-305,0,3088,29931,1,-2,-2,2,1722,-1,-1,-1,-1,255,3,369603870,-1220329496,0,65535,65535,8,0,255,0,0,0,0,0,0,10,0,192,0,3,3
RAW_IMU,29951012,-316,-245,16630,-43,49,-19,-36,-33,-314,0,3072,29931,1,-2,-2,2,1722,-1,-1,-1,-1,255,3,369603870,-1220329496,0,65535,65535,8,0,255,0,0,0,0,0,0,10,0,192,0,3,3
RC_CHANNELS_SCALED,29951012,-316,-245,16630,-43,49,-19,-36,-33,-314,0,3072,29951,1,0,-5,1,1722,-1,-1,-1,-1,255,3,369603870,-1220329496,0,65535,65535,8,0,255,0,0,0,0,0,0,10,0,192,0,3,3
RAW_IMU,29971012,-339,-258,16662,-40,62,-24,-32,-37,-317,0,3024,29951,1,0,-5,1,1722,-1,-1,-1,-1,255,3,369603870,-1220329496,0,65535,65535,8,0,255,0,0,0,0,0,0,10,0,192,0,3,3
RC_CHANNELS_SCALED,29971012,-339,-258,16662,-40,62,-24,-32,-37,-317,0,3024,29971,1,-1,0,-2,1719,-1,-1,-1,-1,255,3,369603870,-1220329496,0,65535,65535,8,0,255,0,0,0,0,0,0,10,0,192,0,3,3
RAW_IMU,29991015,-272,-234,16699,-43,62,-15,-40,-30,-320,0,3136,29971,1,-1,0,-2,1719,-1,-1,-1,-1,255,3,369603870,-1220329496,0,65535,65535,8,0,255,0,0,0,0,0,0,10,0,192,0,3,3
RC_CHANNELS_SCALED,29991015,-272,-234,16699,-43,62,-15,-40,-30,-320,0,3136,29991,1,-1,-1,0,1722,-1,-1,-1,-1,255,3,369603870,-1220329496,0,65535,65535,8,0,255,0,0,0,0,0,0,10,0,192,0,3,3
HEARTBEAT,29991015,-272,-234,16699,-43,62,-15,-40,-30,-320,0,3136,29991,1,-1,-1,0,1722,-1,-1,-1,-1,255,3,369603870,-1220329496,0,65535,65535,8,0,255,0,0,0,0,0,0,10,0,192,0,3,3
RAW_IMU,30011014,-352,-209,16635,-35,55,-21,-33,-38,-309,0,3072,29991,1,-1,-1,0,1722,-1,-1,-1,-1,255,3,369603870,-1220329496,0,65535,65535,8,0,255,0,0,0,0,0,0,10,0,192,0,3,3
RC_CHANNELS_SCALED,30011014,-352,-209,16635,-35,55,-21,-33,-38,-309,0,3072,30011,1,2,0,4,1724,-1,-1,-1,-1,255,3,369603870,-1220329496,0,65535,65535,8,0,255,0,0,0,0,0,0,10,0,192,0,3,3
RAW_IMU,30031014,-301,-246,16665,-24,77,-22,-39,-24,-314,0,3088,30011,1,2,0,4,1724,-1,-1,-1,-1,255,3,369603870,-1220329496,0,65535,65535,8,0,255,0,0,0,0,0,0,10,0,192,0,3,3
RC_CHANNELS_SCALED,30031014,-301,-246,16665,-24,77,-22,-39,-24,-314,0,3088,30031,1,-1,0,0,1719,-1,-1,-1,-1,255,3,369603870,-1220329496,0,65535,65535,8,0,255,0,0,0,0,0,0,10,0,192,0,3,3
GPS_RAW_INT,30046008,-301,-246,16665,-24,77,-22,-39,-24,-314,0,3088,30031,1,-1,0,0,1719,-1,-1,-1,-1,255,3,369603870,-1220329498,0,65535,65535,3,0,255,0,0,0,0,0,0,10,0,192,0,3,3
RAW_IMU,30051015,-307,-236,16656,-41,50,-21,-31,-33,-318,0,3072,30031,1,-1,0,0,1719,-1,-1,-1,-1,255,3,369603870,-1220329498,0,65535,65535,3,0,255,0,0,0,0,0,0,10,0,192,0,3,3
RC_CHANNELS_SCALED,30051015,-307,-236,16656,-41,50,-21,-31,-33,-318,0,3072,30051,1,-5,-2,-3,1718,-1,-1,-1,-1,255,3,369603870,-1220329498,0,65535,65535,3,0,255,0,0,0,0,0,0,10,0,192,0,3,3
RAW_IMU,30071015,-347,-266,16707,-25,59,-26,-35,-32,-325,0,3136,30051,1,-5,-2,-3,1718,-1,-1,-1,-1,255,3,369603870,-1220329498,0,65535,65535,3,0,255,0,0,0,0,0,0,10,0,192,0,3,3
RC_CHANNELS_SCALED,30071015,-347,-266,16707,-25,59,-26,-35,-32,-325,0,3136,30071,1,1,2,-1,1720,-1,-1,-1,-1,255,3,369603870,-1220329498,0,65535,65535,3,0,255,0,0,0,0,0,0,10,0,192,0,3,3
RAW_IMU,30091015,-348,-199,16780,-39,71,-20,-44,-33,-321,0,3136,30071,1,1,2,-1,1720,-1,-1,-1,-1,255,3,369603870,-1220329498,0,65535,65535,3,0,255,0,0,0,0,0,0,10,0,192,0,3,3
RC_CHANNELS_SCALED,30091015,-348,-199,16780,-39,71,-20,-44,-33,-321,0,3136,30091,1,0,3,-1,1720,-1,-1,-1,-1,255,3,369603870,-1220329498,0,65535,65535,3,0,255,0,0,0,0,0,0,10,0,192,0,3,3
RAW_IMU,30111016,-266,-307,16648,-62,72,-16,-37,-32,-315,0,3120,30091,1,0,3,-1,1720,-1,-1,-1,-1,255,3,369603870,-1220329498,0,65535,65535,3,0,255,0,0,0,0,0,0,10,0,192,0,3,3
RC_CHANNELS_SCALED,30111016,-266,-307,16648,-62,72,-16,-37,-32,-315,0,3120,30111,1,2,5,1,1722,-1,-1,-1,-1,255,3,369603870,-1220329498,0,65535,65535,3,0,255,0,0,0,0,0,0,10,0,192,0,3,3
RAW_IMU,30131011,-245,-254,16669,-42,62,-33,-40,-32,-325,0,3024,30111,1,2,5,1,1722,-1,-1,-1,-1,255,3,369603870,-1220329498,0,65535,65535,3,0,255,0,0,0,0,0,0,10,0,192,0,3,3
RC_CHANNELS_SCALED,30131011,-245,-254,16669,-42,62,-33,-40,-32,-325,0,3024,30131,1,-2,-9,0,1722,-1,-1,-1,-1,255,3,369603870,-1220329498,0,65535,65535,3,0,255,0,0,0,0,0,0,10,0,192,0,3,3
GPS_RAW_INT,30147006,-245,-254,16669,-42,62,-33,-40,-32,-325,0,3024,30131,1,-2,-9,0,1722,-1,-1,-1,-1,255,3,369603870,-1220329498,0,65535,65535,3,0,255,0,0,0,0,0,0,10,0,192,0,3,3
RAW_IMU,30151015,-344,-262,16669,-50,51,-22,-40,-25,-320,0,3024,30131,1,-2,-9,0,1722,-1,-1,-1,-1,255,3,369603870,-1220329498,0,65535,65535,3,0,255,0,0,0,0,0,0,10,0,192,0,3,3
RC_CHANNELS_SCALED,30151015,-344,-262,16669,-50,51,-22,-40,-25,-320,0,3024,30151,1,3,2,-4,1720,-1,-1,-1,-1,255,3,369603870,-1220329498,0,65535,65535,3,0,255,0,0,0,0,0,0,10,0,192,0,3,3
RAW_IMU,30171014,-310,-298,16704,-23,63,-33,-40,-35,-307,0,3088,30151,1,3,2,-4,1720,-1,-1,-1,-1,255,3,369603870,-1220329498,0,65535,65535,3,0,255,0,0,0,0,0,0,10,0,192,0,3,3
RC_CHANNELS_SCALED,30171014,-310,-298,16704,-23,63,-33,-40,-35,-307,0,3088,30171,1,0,-1,1,1722,-1,-1,-1,-1,255,3,369603870,-1220329498,0,65535,65535,3,0,255,0,0,0,0,0,0,10,0,192,0,3,3
RAW_IMU,30191021,-292,-227,16661,-38,63,-25,-31,-19,-306,0,3088,30171,1,0,-1,1,1722,-1,-1,-1,-1,255,3,369603870,-1220329498,0,65535,65535,3,0,255,0,0,0,0,0,0,10,0,192,0,3,3
RC_CHANNELS_SCALED,30191021,-292,-227,16661,-38,63,-25,-31,-19,-306,0,3088,30191,1,-1,5,0,1721,-1,-1,-1,-1,255,3,369603870,-1220329498,0,65535,65535,3,0,255,0,0,0,0,0,0,10,0,192,0,3,3
RAW_IMU,30211015,-328,-166,16674,-37,54,-13,-33,-26,-309,0,3088,30191,1,-1,5,0,1721,-1,-1,-1,-1,255,3,369603870,-1220329498,0,65535,65535,3,0,255,0,0,0,0,0,0,10,0,192,0,3,3
RC_CHANNELS_SCALED,30211015,-328,-166,16674,-37,54,-13,-33,-26,-309,0,3088,30211,1,-1,-4,-1,1718,-1,-1,-1,-1,255,3,369603870,-1220329498,0,65535,65535,3,0,255,0,0,0,0,0,0,10,0,192,0,3,3
RAW_IMU,30231014,-300,-326,16666,-38,55,-13,-41,-36,-318,0,3072,30211,1,-1,-4,-1,1718,-1,-1,-1,-1,255,3,369603870,-1220329498,0,65535,65535,3,0,255,0,0,0,0,0,0,10,0,192,0,3,3
RC_CHANNELS_SCALED,30231014,-300,-326,16666,-38,55,-13,-41,-36,-318,0,3072,30231,1,-2,-3,0,1721,-1,-1,-1,-1,255,3,369603870,-1220329498,0,65535,65535,3,0,255,0,0,0,0,0,0,10,0,192,0,3,3
GPS_RAW_INT,30248009,-300,-326,16666,-38,55,-13,-41,-36,-318,0,3072,30231,1,-2,-3,0,1721,-1,-1,-1,-1,255,3,369603870,-1220329500,0,65535,65535,2,0,255,0,0,0,0,0,0,10,0,192,0,3,3
RAW_IMU,30251012,-351,-256,16666,-22,48,-14,-30,-30,-315,0,3136,30231,1,-2,-3,0,1721,-1,-1,-1,-1,255,3,369603870,-1220329500,0,65535,65535,2,0,255,0,0,0,0,0,0,10,0,192,0,3,3
RC_CHANNELS_SCALED,30251012,-351,-256,16666,-22,48,-14,-30,-30,-315,0,3136,30251,1,1,3,-1,1720,-1,-1,-1,-1,255,3,369603870,-1220329500,0,65535,65535,2,0,255,0,0,0,0,0,0,10,0,192,0,3,3
RAW_IMU,30271011,-350,-296,16642,-36,61,-13,-35,-32,-317,0,3024,30251,1,1,3,-1,1720,-1,-1,-1,-1,255,3,369603870,-1220329500,0,65535,65535,2,0,255,0,0,0,0,0,0,10,0,192,0,3,3
RC_CHANNELS_SCALED,30271011,-350,-296,16642,-36,61,-13,-35,-32,-317,0,3024,30271,1,1,-2,1,1722,-1,-1,-1,-1,255,3,369603870,-1220329500,0,65535,65535,2,0,255,0,0,0,0,0,0,10,0,192,0,3,3
RAW_IMU,30291014,-312,-251,16612,-50,58,-8,-31,-24,-311,0,3056,30271,1,1,-2,1,1722,-1,-1,-1,-1,255,3,369603870,-1220329500,0,65535,65535,2,0,255,0,0,0,0,0,0,10,0,192,0,3,3
RC_CHANNELS_SCALED,30291014,-312,-251,16612,-50,58,-8,-31,-24,-311,0,3056,30291,1,2,-2,0,1721,-1,-1,-1,-1,255,3,369603870,-1220329500,0,65535,65535,2,0,255,0,0,0,0,0,0,10,0,192,0,3,3
RAW_IMU,30311012,-252,-214,16690,-26,62,-38,-37,-37,-310,0,3088,30291,1,2,-2,0,1721,-1,-1,-1,-1,255,3,369603870,-1220329500,0,65535,65535,2,0,255,0,0,0,0,0,0,10,0,192,0,3,3
RC_CHANNELS_SCALED,30311012,-252,-214,16690,-26,62,-38,-37,-37,-310,0,3088,30311,1,1,0,-2,1720,-1,-1,-1,-1,255,3,369603870,-1220329500,0,65535,65535,2,0,255,0,0,0,0,0,0,10,0,192,0,3,3
RAW_IMU,30331013,-324,-228,16669,-44,57,-24,-32,-35,-312,0,3008,30311,1,1,0,-2,1720,-1,-1,-1,-1,255,3,369603870,-1220329500,0,65535,65535,2,0,255,0,0,0,0,0,0,10,0,192,0,3,3
RC_CHANNELS_SCALED,30331013,-324,-228,16669,-44,57,-24,-32,-35,-312,0,3008,30331,1,-1,0,1,1721,-1,-1,-1,-1,255,3,369603870,-1220329500,0,65535,65535,2,0,255,0,0,0,0,0,0,10,0,192,0,3,3
GPS_RAW_INT,30349006,-324,-228,16669,-44,57,-24,-32,-35,-312,0,3008,30331,1,-1,0,1,1721,-1,-1,-1,-1,255,3,369603870,-1220329500,0,65535,65535,2,0,255,0,0,0,0,0,0,10,0,192,0,3,3
RAW_IMU,30351015,-292,-230,16703,-39,65,-20,-35,-30,-307,0,3120,30331,1,-1,0,1,1721,-1,-1,-1,-1,255,3,369603870,-1220329500,0,65535,65535,2,0,255,0,0,0,0,0,0,10,0,192,0,3,3
RC_CHANNELS_SCALED,30351015,-292,-230,16703,-39,65,-20,-35,-30,-307,0,3120,30351,1,0,0,-3,1718,-1,-1,-1,-1,255,3,369603870,-1220329500,0,65535,65535,2,0,255,0,0,0,0,0,0,10,0,192,0,3,3
RAW_IMU,30371014,-295,-317,16663,-51,46,-28,-39,-36,-309,0,3088,30351,1,0,0,-3,1718,-1,-1,-1,-1,255,3,369603870,-1220329500,0,65535,65535,2,0,255,0,0,0,0,0,0,10,0,192,0,3,3
RC_CHANNELS_SCALED,30371014,-295,-317,16663,-51,46,-28,-39,-36,-309,0,3088,30371,1,0,3,-2,1720,-1,-1,-1,-1,255,3,369603870,-1220329500,0,65535,65535,2,0,255,0,0,0,0,0,0,10,0,192,0,3,3
RAW_IMU,30391013,-265,-292,16653,-42,53,-27,-27,-32,-310,0,3136,30371,1,0,3,-2,1720,-1,-1,-1,-1,255,3,369603870,-1220329500,0,65535,65535,2,0,255,0,0,0,0,0,0,10,0,192,0,3,3
RC_CHANNELS_SCALED,30391013,-265,-292,16653,-42,53,-27,-27,-32,-310,0,3136,30391,1,4,1,1,1720,-1,-1,-1,-1,255,3,369603870,-1220329500,0,65535,65535,2,0,255,0,0,0,0,0,0,10,0,192,0,3,3
RAW_IMU,30411015,-269,-248,16712,-49,68,-29,-26,-26,-309,0,3136,30391,1,4,1,1,1720,-1,-1,-1,-1,255,3,369603870,-1220329500,0,65535,65535,2,0,255,0,0,0,0,0,0,10,0,192,0,3,3
RC_CHANNELS_SCALED,30411015,-269,-248,16712,-49,68,-29,-26,-26,-309,0,3136,30411,1,1,1,-1,1721,-1,-1,-1,-1,255,3,369603870,-1220329500,0,65535,65535,2,0,255,0,0,0,0,0,0,10,0,192,0,3,3
RAW_IMU,30431015,-266,-231,16722,-34,54,-2,-33,-31,-316,0,3072,30411,1,1,1,-1,1721,-1,-1,-1,-1,255,3,369603870,-1220329500,0,65535,65535,2,0,255,0,0,0,0,0,0,10,0,192,0,3,3
RC_CHANNELS_SCALED,30431015,-266,-231,16722,-34,54,-2,-33,-31,-316,0,3072,30431,1,-4,-1,3,1724,-1,-1,-1,-1,255,3,369603870,-1220329500,0,65535,65535,2,0,255,0,0,0,0,0,0,10,0,192,0,3,3
GPS_RAW_INT,30450008,-266,-231,16722,-34,54,-2,-33,-31,-316,0,3072,30431,1,-4,-1,3,1724,-1,-1,-1,-1,255,3,369603870,-1220329500,0,65535,65535,7,0,255,0,0,0,0,0,0,10,0,192,0,3,3
RAW_IMU,30451011,-316,-238,16659,-34,57,-19,-31,-31,-316,0,3184,30431,1,-4,-1,3,1724,-1,-1,-1,-1,255,3,369603870,-1220329500,0,65535,65535,7,0,255,0,0,0,0,0,0,10,0,192,0,3,3
RC_CHANNELS_SCALED,30451011,-316,-238,16659,-34,57,-19,-31,-31,-316,0,3184,30451,1,0,1,-2,1720,-1,-1,-1,-1,255,3,369603870,-1220329500,0,65535,65535,7,0,255,0,0,0,0,0,0,10,0,192,0,3,3
RAW_IMU,30471012,-380,-210,16581,-31,62,-36,-22,-30,-310,0,3120,30451,1,0,1,-2,1720,-1,-1,-1,-1,255,3,369603870,-1220329500,0,65535,65535,7,0,255,0,0,0,0,0,0,10,0,192,0,3,3
RC_CHANNELS_SCALED,30471012,-380,-210,16581,-31,62,-36,-22,-30,-310,0,3120,30471,1,-2,-3,3,1722,-1,-1,-1,-1,255,3,369603870,-1220329500,0,65535,65535,7,0,255,0,0,0,0,0,0,10,0,192,0,3,3
RAW_IMU,30491013,-277,-236,16606,-37,53,4,-35,-25,-310,0,3120,30471,1,-2,-3,3,1722,-1,-1,-1,-1,255,3,369603870,-1220329500,0,65535,65535,7,0,255,0,0,0,0,0,0,10,0,192,0,3,3
RC_CHANNELS_SCALED,30491013,-277,-236,16606,-37,53,4,-35,-25,-310,0,3120,30491,1,3,0,1,1723,-1,-1,-1,-1,255,3,369603870,-1220329500,0,65535,65535,7,0,255,0,0,0,0,0,0,10,0,192,0,3,3
RAW_IMU,30511014,-287,-303,16684,-37,57,-12,-41,-24,-326,0,2960,30491,1,3,0,1,1723,-1,-1,-1,-1,255,3,369603870,-1220329500,0,65535,65535,7,0,255,0,0,0,0,0,0,10,0,192,0,3,3
RC_CHANNELS_SCALED,30511014,-287,-303,16684,-37,57,-12,-41,-24,-326,0,2960,30511,1,-2,2,2,1721,-1,-1,-1,-1,255,3,369603870,-1220329500,0,65535,65535,7,0,255,0,0,0,0,0,0,10,0,192,0,3,3
RAW_IMU,30531014,-297,-301,16696,-43,38,-16,-39,-29,-309,0,3120,30511,1,-2,2,2,1721,-1,-1,-1,-1,255,3,369603870,-1220329500,0,65535,65535,7,0,255,0,0,0,0,0,0,10,0,192,0,3,3
RC_CHANNELS_SCALED,30531014,-297,-301,16696,-43,38,-16,-39,-29,-309,0,3120,30531,1,3,-2,1,1722,-1,-1,-1,-1,255,3,369603870,-1220329500,0,65535,65535,7,0,255,0,0,0,0,0,0,10,0,192,0,3,3
RAW_IMU,30551012,-341,-249,16708,-39,66,-8,-35,-30,-315,0,3088,30531,1,3,-2,1,1722,-1,-1,-1,-1,255,3,369603870,-1220329500,0,65535,65535,7,0,255,0,0,0,0,0,0,10,0,192,0,3,3
RC_CHANNELS_SCALED,30551012,-341,-249,16708,-39,66,-8,-35,-30,-315,0,3088,30551,1,5,-3,1,1721,-1,-1,-1,-1,255,3,369603870,-1220329500,0,65535,65535,7,0,255,0,0,0,0,0,0,10,0,192,0,3,3
GPS_RAW_INT,30551298,-341,-249,16708,-39,66,-8,-35,-30,-315,0,3088,30551,1,5,-3,1,1721,-1,-1,-1,-1,255,3,369603870,-1220329500,0,65535,65535,7,0,255,0,0,0,0,0,0,10,0,192,0,3,3
RAW_IMU,30571011,-408,-172,16664,-50,72,-12,-24,-32,-302,0,3200,30551,1,5,-3,1,1721,-1,-1,-1,-1,255,3,369603870,-1220329500,0,65535,65535,7,0,255,0,0,0,0,0,0,10,0,192,0,3,3
RC_CHANNELS_SCALED,30571011,-408,-172,16664,-50,72,-12,-24,-32,-302,0,3200,30571,1,4,2,0,1720,-1,-1,-1,-1,255,3,369603870,-1220329500,0,65535,65535,7,0,255,0,0,0,0,0,0,10,0,192,0,3,3
RAW_IMU,30591013,-301,-363,16642,-38,61,-33,-28,-24,-316,0,3136,30571,1,4,2,0,1720,-1,-1,-1,-1,255,3,369603870,-1220329500,0,65535,65535,7,0,255,0,0,0,0,0,0,10,0,192,0,3,3
RC_CHANNELS_SCALED,30591013,-301,-363,16642,-38,61,-33,-28,-24,-316,0,3136,30591,1,0,-2,-4,1718,-1,-1,-1,-1,255,3,369603870,-1220329500,0,65535,65535,7,0,255,0,0,0,0,0,0,10,0,192,0,3,3
RAW_IMU,30611015,-310,-243,16734,-29,68,-31,-36,-29,-314,0,3120,30591,1,0,-2,-4,1718,-1,-1,-1,-1,255,3,369603870,-1220329500,0,65535,65535,7,0,255,0,0,0,0,0,0,10,0,192,0,3,3
RC_CHANNELS_SCALED,30611015,-310,-243,16734,-29,68,-31,-36,-29,-314,0,3120,30611,1,-4,3,0,1721,-1,-1,-1,-1,255,3,369603870,-1220329500,0,65535,65535,7,0,255,0,0,0,0,0,0,10,0,192,0,3,3
RAW_IMU,30631012,-279,-237,16694,-45,44,-25,-35,-30,-315,0,3024,30611,1,-4,3,0,1721,-1,-1,-1,-1,255,3,369603870,-1220329500,0,65535,65535,7,0,255,0,0,0,0,0,0,10,0,192,0,3,3
RC_CHANNELS_SCALED,30631012,-279,-237,16694,-45,44,-25,-35,-30,-315,0,3024,30631,1,-3,-1,-1,1720,-1,-1,-1,-1,255,3,369603870,-1220329500,0,65535,65535,7,0,255,0,0,0,0,0,0,10,0,192,0,3,3
RAW_IMU,30651014,-302,-302,16676,-42,66,-18,-28,-29,-314,0,3088,30631,1,-3,-1,-1,1720,-1,-1,-1,-1,255,3,369603870,-1220329500,0,65535,65535,7,0,255,0,0,0,0,0,0,10,0,192,0,3,3
RC_CHANNELS_SCALED,30651014,-302,-302,16676,-42,66,-18,-28,-29,-314,0,3088,30651,1,-4,1,5,1723,-1,-1,-1,-1,255,3,369603870,-1220329500,0,65535,65535,7,0,255,0,0,0,0,0,0,10,0,192,0,3,3
GPS_RAW_INT,30652009,-302,-302,16676,-42,66,-18,-28,-29,-314,0,3088,30651,1,-4,1,5,1723,-1,-1,-1,-1,255,3,369603868,-1220329500,0,65535,65535,1,0,255,0,0,0,0,0,0,10,0,192,0,3,3
RAW_IMU,30671016,-362,-234,16663,-30,49,-16,-28,-33,-314,0,3120,30651,1,-4,1,5,1723,-1,-1,-1,-1,255,3,369603868,-1220329500,0,65535,65535,1,0,255,0,0,0,0,0,0,10,0,192,0,3,3
RC_CHANNELS_SCALED,30671016,-362,-234,16663,-30,49,-16,-28,-33,-314,0,3120,30671,1,-2,-3,-1,1719,-1,-1,-1,-1,255,3,369603868,-1220329500,0,65535,65535,1,0,255,0,0,0,0,0,0,10,0,192,0,3,3
RAW_IMU,30691014,-323,-211,16728,-45,63,-18,-20,-29,-311,0,3088,30671,1,-2,-3,-1,1719,-1,-1,-1,-1,255,3,369603868,-1220329500,0,65535,65535,1,0,255,0,0,0,0,0,0,10,0,192,0,3,3
RC_CHANNELS_SCALED,30691014,-323,-211,16728,-45,63,-18,-20,-29,-311,0,3088,30691,1,3,0,2,1720,-1,-1,-1,-1,255,3,369603868,-1220329500,0,65535,65535,1,0,255,0,0,0,0,0,0,10,0,192,0,3,3
RAW_IMU,30711014,-277,-209,16724,-40,67,-21,-36,-33,-314,0,3136,30691,1,3,0,2,1720,-1,-1,-1,-1,255,3,369603868,-1220329500,0,65535,65535,1,0,255,0,0,0,0,0,0,10,0,192,0,3,3
RC_CHANNELS_SCALED,30711014,-277,-209,16724,-40,67,-21,-36,-33,-314,0,3136,30711,1,0,-1,-2,1719,-1,-1,-1,-1,255,3,369603868,-1220329500,0,65535,65535,1,0,255,0,0,0,0,0,0,10,0,192,0,3,3
RAW_IMU,30731014,-355,-222,16730,-45,51,-28,-32,-30,-325,0,3136,30711,1,0,-1,-2,1719,-1,-1,-1,-1,255,3,369603868,-1220329500,0,65535,65535,1,0,255,0,0,0,0,0,0,10,0,192,0,3,3
RC_CHANNELS_SCALED,30731014,-355,-222,16730,-45,51,-28,-32,-30,-325,0,3136,30731,1,-1,-1,1,1722,-1,-1,-1,-1,255,3,369603868,-1220329500,0,65535,65535,1,0,255,0,0,0,0,0,0,10,0,192,0,3,3
RAW_IMU,30751015,-320,-321,16682,-29,59,-17,-39,-21,-321,0,3120,30731,1,-1,-1,1,1722,-1,-1,-1,-1,255,3,369603868,-1220329500,0,65535,65535,1,0,255,0,0,0,0,0,0,10,0,192,0,3,3
RC_CHANNELS_SCALED,30751015,-320,-321,16682,-29,59,-17,-39,-21,-321,0,3120,30751,1,-4,5,-1,1718,-1,-1,-1,-1,255,3,369603868,-1220329500,0,65535,65535,1,0,255,0,0,0,0,0,0,10,0,192,0,3,3
GPS_RAW_INT,30753008,-320,-321,16682,-29,59,-17,-39,-21,-321,0,3120,30751,1,-4,5,-1,1718,-1,-1,-1,-1,255,3,369603868,-1220329500,0,65535,65535,1,0,255,0,0,0,0,0,0,10,0,192,0,3,3
RAW_IMU,30771012,-390,-170,16638,-38,63,-20,-31,-26,-306,0,3072,30751,1,-4,5,-1,1718,-1,-1,-1,-1,255,3,369603868,-1220329500,0,65535,65535,1,0,255,0,0,0,0,0,0,10,0,192,0,3,3
RC_CHANNELS_SCALED,30771012,-390,-170,16638,-38,63,-20,-31,-26,-306,0,3072,30771,1,1,-3,3,1722,-1,-1,-1,-1,255,3,369603868,-1220329500,0,65535,65535,1,0,255,0,0,0,0,0,0,10,0,192,0,3,3
RAW_IMU,30791013,-369,-374,16658,-40,55,-13,-30,-35,-315,0,3088,30771,1,1,-3,3,1722,-1,-1,-1,-1,255,3,369603868,-1220329500,0,65535,65535,1,0,255,0,0,0,0,0,0,10,0,192,0,3,3
RC_CHANNELS_SCALED,30791013,-369,-374,16658,-40,55,-13,-30,-35,-315,0,3088,30791,1,-3,-3,-3,1718,-1,-1,-1,-1,255,3,369603868,-1220329500,0,65535,65535,1,0,255,0,0,0,0,0,0,10,0,192,0,3,3
RAW_IMU,30811011,-300,-294,16715,-38,54,-26,-28,-26,-301,0,3088,30791,1,-3,-3,-3,1718,-1,-1,-1,-1,255,3,369603868,-1220329500,0,65535,65535,1,0,255,0,0,0,0,0,0,10,0,192,0,3,3
RC_CHANNELS_SCALED,30811011,-300,-294,16715,-38,54,-26,-28,-26,-301,0,3088,30811,1,1,3,0,1719,-1,-1,-1,-1,255,3,369603868,-1220329500,0,65535,65535,1,0,255,0,0,0,0,0,0,10,0,192,0,3,3
RAW_IMU,30831016,-311,-210,16655,-41,70,-20,-31,-33,-311,0,3008,30811,1,1,3,0,1719,-1,-1,-1,-1,255,3,369603868,-1220329500,0,65535,65535,1,0,255,0,0,0,0,0,0,10,0,192,0,3,3
RC_CHANNELS_SCALED,30831016,-311,-210,16655,-41,70,-20,-31,-33,-311,0,3008,30831,1,-1,-3,-1,1721,-1,-1,-1,-1,255,3,369603868,-1220329500,0,65535,65535,1,0,255,0,0,0,0,0,0,10,0,192,0,3,3
RAW_IMU,30851015,-281,-270,16666,-48,46,-36,-37,-30,-310,0,3088,30831,1,-1,-3,-1,1721,-1,-1,-1,-1,255,3,369603868,-1220329500,0,65535,65535,1,0,255,0,0,0,0,0,0,10,0,192,0,3,3
RC_CHANNELS_SCALED,30851015,-281,-270,16666,-48,46,-36,-37,-30,-310,0,3088,30851,1,-2,-3,-2,1720,-1,-1,-1,-1,255,3,369603868,-1220329500,0,65535,65535,1,0,255,0,0,0,0,0,0,10,0,192,0,3,3
GPS_RAW_INT,30854007,-281,-270,16666,-48,46,-36,-37,-30,-310,0,3088,30851,1,-2,-3,-2,1720,-1,-1,-1,-1,255,3,369603868,-1220329501,0,65535,65535,2,0,255,0,0,0,0,0,0,10,0,192,0,3,3
RAW_IMU,30871013,-314,-254,16663,-41,64,-23,-37,-35,-307,0,3008,30851,1,-2,-3,-2,1720,-1,-1,-1,-1,255,3,369603868,-1220329501,0,65535,65535,2,0,255,0,0,0,0,0,0,10,0,192,0,3,3
RC_CHANNELS_SCALED,30871013,-314,-254,16663,-41,64,-23,-37,-35,-307,0,3008,30871,1,1,-4,-1,1720,-1,-1,-1,-1,255,3,369603868,-1220329501,0,65535,65535,2,0,255,0,0,0,0,0,0,10,0,192,0,3,3
RAW_IMU,30891015,-271,-208,16722,-33,67,-27,-35,-27,-310,0,3072,30871,1,1,-4,-1,1720,-1,-1,-1,-1,255,3,369603868,-1220329501,0,65535,65535,2,0,255,0,0,0,0,0,0,10,0,192,0,3,3
RC_CHANNELS_SCALED,30891015,-271,-208,16722,-33,67,-27,-35,-27,-310,0,3072,30891,1,1,-1,0,1722,-1,-1,-1,-1,255,3,369603868,-1220329501,0,65535,65535,2,0,255,0,0,0,0,0,0,10,0,192,0,3,3
RAW_IMU,30911012,-266,-262,16679,-19,70,-28,-35,-35,-310,0,3120,30891,1,1,-1,0,1722,-1,-1,-1,-1,255,3,369603868,-1220329501,0,65535,65535,2,0,255,0,0,0,0,0,0,10,0,192,0,3,3
RC_CHANNELS_SCALED,30911012,-266,-262,16679,-19,70,-28,-35,-35,-310,0,3120,30911,1,1,-1,4,1721,-1,-1,-1,-1,255,3,369603868,-1220329501,0,65535,65535,2,0,255,0,0,0,0,0,0,10,0,192,0,3,3
RAW_IMU,30931015,-301,-319,16712,-47,61,-23,-36,-41,-314,0,3008,30911,1,1,-1,4,1721,-1,-1,-1,-1,255,3,369603868,-1220329501,0,65535,65535,2,0,255,0,0,0,0,0,0,10,0,192,0,3,3
RC_CHANNELS_SCALED,30931015,-301,-319,16712,-47,61,-23,-36,-41,-314,0,3008,30931,1,1,-1,2,1722,-1,-1,-1,-1,255,3,369603868,-1220329501,0,65535,65535,2,0,255,0,0,0,0,0,0,10,0,192,0,3,3
RAW_IMU,30951013,-318,-238,16759,-48,58,-15,-30,-23,-315,0,3072,30931,1,1,-1,2,1722,-1,-1,-1,-1,255,3,369603868,-1220329501,0,65535,65535,2,0,255,0,0,0,0,0,0,10,0,192,0,3,3
RC_CHANNELS_SCALED,30951013,-318,-238,16759,-48,58,-15,-30,-23,-315,0,3072,30951,1,-4,1,-1,1720,-1,-1,-1,-1,255,3,369603868,-1220329501,0,65535,65535,2,0,255,0,0,0,0,0,0,10,0,192,0,3,3
GPS_RAW_INT,30955005,-318,-238,16759,-48,58,-15,-30,-23,-315,0,3072,30951,1,-4,1,-1,1720,-1,-1,-1,-1,255,3,369603868,-1220329501,0,65535,65535,2,0,255,0,0,0,0,0,0,10,0,192,0,3,3
RAW_IMU,30971014,-340,-287,16684,-39,65,-23,-27,-30,-310,0,3056,30951,1,-4,1,-1,1720,-1,-1,-1,-1,255,3,369603868,-1220329501,0,65535,65535,2,0,255,0,0,0,0,0,0,10,0,192,0,3,3
RC_CHANNELS_SCALED,30971014,-340,-287,16684,-39,65,-23,-27,-30,-310,0,3056,30971,1,-3,7,0,1720,-1,-1,-1,-1,255,3,369603868,-1220329501,0,65535,65535,2,0,255,0,0,0,0,0,0,10,0,192,0,3,3
RAW_IMU,30991014,-336,-233,16755,-27,63,-27,-30,-25,-310,0,3056,30971,1,-3,7,0,1720,-1,-1,-1,-1,255,3,369603868,-1220329501,0,65535,65535,2,0,255,0,0,0,0,0,0,10,0,192,0,3,3
RC_CHANNELS_SCALED,30991014,-336,-233,16755,-27,63,-27,-30,-25,-310,0,3056,30991,1,0,1,0,1721,-1,-1,-1,-1,255,3,369603868,-1220329501,0,65535,65535,2,0,255,0,0,0,0,0,0,10,0,192,0,3,3
HEARTBEAT,30991014,-336,-233,16755,-27,63,-27,-30,-25,-310,0,3056,30991,1,0,1,0,1721,-1,-1,-1,-1,255,3,369603868,-1220329501,0,65535,65535,2,0,255,0,0,0,0,0,0,10,0,192,0,3,3
RAW_IMU,31011014,-322,-286,16632,-44,58,-23,-28,-33,-316,0,3136,30991,1,0,1,0,1721,-1,-1,-1,-1,255,3,369603868,-1220329501,0,65535,65535,2,0,255,0,0,0,0,0,0,10,0,192,0,3,3
RC_CHANNELS_SCALED,31011014,-322,-286,16632,-44,58,-23,-28,-33,-316,0,3136,31011,1,-1,-2,-1,1721,-1,-1,-1,-1,255,3,369603868,-1220329501,0,65535,65535,2,0,255,0,0,0,0,0,0,10,0,192,0,3,3
RAW_IMU,31031010,-273,-217,16717,-41,55,-20,-32,-20,-320,0,3072,31011,1,-1,-2,-1,1721,-1,-1,-1,-1,255,3,369603868,-1220329501,0,65535,65535,2,0,255,0,0,0,0,0,0,10,0,192,0,3,3
RC_CHANNELS_SCALED,31031010,-273,-217,16717,-41,55,-20,-32,-20,-320,0,3072,31031,1,0,-1,3,1723,-1,-1,-1,-1,255,3,369603868,-1220329501,0,65535,65535,2,0,255,0,0,0,0,0,0,10,0,192,0,3,3
RAW_IMU,31051008,-344,-262,16679,-29,53,-20,-36,-31,-312,0,3168,31031,1,0,-1,3,1723,-1,-1,-1,-1,255,3,369603868,-1220329501,0,65535,65535,2,0,255,0,0,0,0,0,0,10,0,192,0,3,3
RC_CHANNELS_SCALED,31051008,-344,-262,16679,-29,53,-20,-36,-31,-312,0,3168,31051,1,0,-1,-1,1721,-1,-1,-1,-1,255,3,369603868,-1220329501,0,65535,65535,2,0,255,0,0,0,0,0,0,10,0,192,0,3,3
GPS_RAW_INT,31056008,-344,-262,16679,-29,53,-20,-36,-31,-312,0,3168,31051,1,0,-1,-1,1721,-1,-1,-1,-1,255,3,369603866,-1220329503,0,65535,65535,2,0,255,0,0,0,0,0,0,10,0,192,0,3,3
RAW_IMU,31071006,-378,-257,16722,-25,57,-32,-30,-32,-310,0,3136,31051,1,0,-1,-1,1721,-1,-1,-1,-1,255,3,369603866,-1220329503,0,65535,65535,2,0,255,0,0,0,0,0,0,10,0,192,0,3,3
RC_CHANNELS_SCALED,31071006,-378,-257,16722,-25,57,-32,-30,-32,-310,0,3136,31071,1,-1,-2,1,1722,-1,-1,-1,-1,255,3,369603866,-1220329503,0,65535,65535,2,0,255,0,0,0,0,0,0,10,0,192,0,3,3
RAW_IMU,31091010,-314,-219,16743,-54,65,-17,-27,-42,-312,0,3136,31071,1,-1,-2,1,1722,-1,-1,-1,-1,255,3,369603866,-1220329503,0,65535,65535,2,0,255,0,0,0,0,0,0,10,0,192,0,3,3
RC_CHANNELS_SCALED,31091010,-314,-219,16743,-54,65,-17,-27,-42,-312,0,3136,31091,1,1,-4,1,1719,-1,-1,-1,-1,255,3,369603866,-1220329503,0,65535,65535,2,0,255,0,0,0,0,0,0,10,0,192,0,3,3
RAW_IMU,31111014,-323,-272,16628,-24,62,-18,-35,-32,-327,0,3136,31091,1,1,-4,1,1719,-1,-1,-1,-1,255,3,369603866,-1220329503,0,65535,65535,2,0,255,0,0,0,0,0,0,10,0,192,0,3,3
RC_CHANNELS_SCALED,31111014,-323,-272,16628,-24,62,-18,-35,-32,-327,0,3136,31111,1,0,-2,2,1721,-1,-1,-1,-1,255,3,369603866,-1220329503,0,65535,65535,2,0,255,0,0,0,0,0,0,10,0,192,0,3,3
RAW_IMU,31131014,-306,-195,16691,-38,44,-35,-36,-31,-309,0,3136,31111,1,0,-2,2,1721,-1,-1,-1,-1,255,3,369603866,-1220329503,0,65535,65535,2,0,255,0,0,0,0,0,0,10,0,192,0,3,3
RC_CHANNELS_SCALED,31131014,-306,-195,16691,-38,44,-35,-36,-31,-309,0,3136,31131,1,2,-5,0,1721,-1,-1,-1,-1,255,3,369603866,-1220329503,0,65535,65535,2,0,255,0,0,0,0,0,0,10,0,192,0,3,3
RAW_IMU,31151014,-252,-302,16724,-42,62,-19,-31,-31,-309,0,3088,31131,1,2,-5,0,1721,-1,-1,-1,-1,255,3,369603866,-1220329503,0,65535,65535,2,0,255,0,0,0,0,0,0,10,0,192,0,3,3
RC_CHANNELS_SCALED,31151014,-252,-302,16724,-42,62,-19,-31,-31,-309,0,3088,31151,1,-2,4,-2,1719,-1,-1,-1,-1,255,3,369603866,-1220329503,0,65535,65535,2,0,255,0,0,0,0,0,0,10,0,192,0,3,3
GPS_RAW_INT,31157008,-252,-302,16724,-42,62,-19,-31,-31,-309,0,3088,31151,1,-2,4,-2,1719,-1,-1,-1,-1,255,3,369603866,-1220329503,0,65535,65535,2,0,255,0,0,0,0,0,0,10,0,192,0,3,3
RAW_IMU,31171012,-317,-223,16581,-46,61,-16,-27,-37,-310,0,3088,31151,1,-2,4,-2,1719,-1,-1,-1,-1,255,3,369603866,-1220329503,0,65535,65535,2,0,255,0,0,0,0,0,0,10,0,192,0,3,3
RC_CHANNELS_SCALED,31171012,-317,-223,16581,-46,61,-16,-27,-37,-310,0,3088,31171,1,-1,-2,2,1722,-1,-1,-1,-1,255,3,369603866,-1220329503,0,65535,65535,2,0,255,0,0,0,0,0,0,10,0,192,0,3,3
RAW_IMU,31191011,-319,-285,16740,-35,61,-25,-27,-35,-312,0,3136,31171,1,-1,-2,2,1722,-1,-1,-1,-1,255,3,369603866,-1220329503,0,65535,65535,2,0,255,0,0,0,0,0,0,10,0,192,0,3,3
RC_CHANNELS_SCALED,31191011,-319,-285,16740,-35,61,-25,-27,-35,-312,0,3136,31191,1,1,0,3,1723,-1,-1,-1,-1,255,3,369603866,-1220329503,0,65535,65535,2,0,255,0,0,0,0,0,0,10,0,192,0,3,3
RAW_IMU,31211011,-318,-215,16659,-41,60,-18,-43,-44,-320,0,3088,31191,1,1,0,3,1723,-1,-1,-1,-1,255,3,369603866,-1220329503,0,65535,65535,2,0,255,0,0,0,0,0,0,10,0,192,0,3,3
RC_CHANNELS_SCALED,31211011,-318,-215,16659,-41,60,-18,-43,-44,-320,0,3088,31211,1,4,1,-1,1719,-1,-1,-1,-1,255,3,369603866,-1220329503,0,65535,65535,2,0,255,0,0,0,0,0,0,10,0,192,0,3,3
RAW_IMU,31231015,-322,-184,16715,-28,57,-23,-31,-31,-314,0,3088,31211,1,4,1,-1,1719,-1,-1,-1,-1,255,3,369603866,-1220329503,0,65535,65535,2,0,255,0,0,0,0,0,0,10,0,192,0,3,3
RC_CHANNELS_SCALED,31231015,-322,-184,16715,-28,57,-23,-31,-31,-314,0,3088,31231,1,-3,-2,0,1720,-1,-1,-1,-1,255,3,369603866,-1220329503,0,65535,65535,2,0,255,0,0,0,0,0,0,10,0,192,0,3,3
RAW_IMU,31251014,-274,-324,16648,-28,56,-25,-31,-36,-311,0,3072,31231,1,-3,-2,0,1720,-1,-1,-1,-1,255,3,369603866,-1220329503,0,65535,65535,2,0,255,0,0,0,0,0,0,10,0,192,0,3,3
RC_CHANNELS_SCALED,31251014,-274,-324,16648,-28,56,-25,-31,-36,-311,0,3072,31251,1,-2,1,-1,1722,-1,-1,-1,-1,255,3,369603866,-1220329503,0,65535,65535,2,0,255,0,0,0,0,0,0,10,0,192,0,3,3
GPS_RAW_INT,31258006,-274,-324,16648,-28,56,-25,-31,-36,-311,0,3072,31251,1,-2,1,-1,1722,-1,-1,-1,-1,255,3,369603866,-1220329505,0,65535,65535,5,0,255,0,0,0,0,0,0,10,0,192,0,3,3
RAW_IMU,31271012,-294,-261,16703,-42,62,-16,-43,-27,-312,0,3088,31251,1,-2,1,-1,1722,-1,-1,-1,-1,255,3,369603866,-1220329505,0,65535,65535,5,0,255,0,0,0,0,0,0,10,0,192,0,3,3
RC_CHANNELS_SCALED,31271012,-294,-261,16703,-42,62,-16,-43,-27,-312,0,3088,31271,1,46,48,-3,1723,-1,-1,-1,-1,255,3,369603866,-1220329505,0,65535,65535,5,0,255,0,0,0,0,0,0,10,0,192,0,3,3
RAW_IMU,31291014,-1990,-210,16117,57,25,-92,-39,-33,-306,0,3024,31271,1,46,48,-3,1723,-1,-1,-1,-1,255,3,369603866,-1220329505,0,65535,65535,5,0,255,0,0,0,0,0,0,10,0,192,0,3,3
RC_CHANNELS_SCALED,31291014,-1990,-210,16117,57,25,-92,-39,-33,-306,0,3024,31291,1,44,32,-3,1722,-1,-1,-1,-1,255,3,369603866,-1220329505,0,65535,65535,5,0,255,0,0,0,0,0,0,10,0,192,0,3,3
RAW_IMU,31311016,931,-1758,23240,110,-49,-53,-45,-32,-307,0,3168,31291,1,44,32,-3,1722,-1,-1,-1,-1,255,3,369603866,-1220329505,0,65535,65535,5,0,255,0,0,0,0,0,0,10,0,192,0,3,3
