mavpackettype,time_boot_ms,port,chan1_raw,chan2_raw,chan3_raw,chan4_raw,chan5_raw,chan6_raw,chan7_raw,chan8_raw,rssi,time_usec,xacc,yacc,zacc,xgyro,ygyro,zgyro,xmag,ymag,zmag,id,temperature,chan1_scaled,chan2_scaled,chan3_scaled,chan4_scaled,chan5_scaled,chan6_scaled,chan7_scaled,chan8_scaled,fix_type,lat,lon,alt,eph,epv,vel,cog,satellites_visible,alt_ellipsoid,h_acc,v_acc,vel_acc,hdg_acc,yaw,type,autopilot,base_mode,custom_mode,system_status,mavlink_version
RC_CHANNELS_SCALED,117251,1,172,992,934,951,172,172,172,1811,255,117251149,91,69,16641,-24,64,-21,-90,30,-334,0,208,-2,3,-2,1724,-1,-1,-1,-1,3,369603375,-1220327196,0,65535,65535,2,0,255,0,0,0,0,0,0,10,0,192,0,3,3
RC_CHANNELS_RAW,117271,0,172,992,934,952,172,172,172,1811,255,117251149,91,69,16641,-24,64,-21,-90,30,-334,0,208,-2,3,-2,1724,-1,-1,-1,-1,3,369603375,-1220327196,0,65535,65535,2,0,255,0,0,0,0,0,0,10,0,192,0,3,3
RAW_IMU,117271,0,172,992,934,952,172,172,172,1811,255,117271149,66,25,16724,-33,72,-21,-103,25,-327,0,176,-2,3,-2,1724,-1,-1,-1,-1,3,369603375,-1220327196,0,65535,65535,2,0,255,0,0,0,0,0,0,10,0,192,0,3,3
RC_CHANNELS_SCALED,117271,1,172,992,934,952,172,172,172,1811,255,117271149,66,25,16724,-33,72,-21,-103,25,-327,0,176,-1,1,-2,1725,-1,-1,-1,-1,3,369603375,-1220327196,0,65535,65535,2,0,255,0,0,0,0,0,0,10,0,192,0,3,3
RC_CHANNELS_RAW,117291,0,172,992,934,952,172,172,172,1811,255,117271149,66,25,16724,-33,72,-21,-103,25,-327,0,176,-1,1,-2,1725,-1,-1,-1,-1,3,369603375,-1220327196,0,65535,65535,2,0,255,0,0,0,0,0,0,10,0,192,0,3,3
RAW_IMU,117291,0,172,992,934,952,172,172,172,1811,255,117291144,95,-35,16622,-46,65,-19,-92,30,-332,0,144,-1,1,-2,1725,-1,-1,-1,-1,3,369603375,-1220327196,0,65535,65535,2,0,255,0,0,0,0,0,0,10,0,192,0,3,3
RC_CHANNELS_SCALED,117291,1,172,992,934,952,172,172,172,1811,255,117291144,95,-35,16622,-46,65,-19,-92,30,-332,0,144,0,0,0,1725,-1,-1,-1,-1,3,369603375,-1220327196,0,65535,65535,2,0,255,0,0,0,0,0,0,10,0,192,0,3,3
GPS_RAW_INT,117291,1,172,992,934,952,172,172,172,1811,255,117310008,95,-35,16622,-46,65,-19,-92,30,-332,0,144,0,0,0,1725,-1,-1,-1,-1,3,369603375,-1220327196,0,65535,65535,1,0,255,0,0,0,0,0,0,10,0,192,0,3,3
RC_CHANNELS_RAW,117311,0,172,992,934,952,172,172,172,1811,255,117310008,95,-35,16622,-46,65,-19,-92,30,-332,0,144,0,0,0,1725,-1,-1,-1,-1,3,369603375,-1220327196,0,65535,65535,1,0,255,0,0,0,0,0,0,10,0,192,0,3,3
RAW_IMU,117311,0,172,992,934,952,172,172,172,1811,255,117311146,107,59,16691,-28,66,-11,-96,29,-328,0,144,0,0,0,1725,-1,-1,-1,-1,3,369603375,-1220327196,0,65535,65535,1,0,255,0,0,0,0,0,0,10,0,192,0,3,3
RC_CHANNELS_SCALED,117311,1,172,992,934,952,172,172,172,1811,255,117311146,107,59,16691,-28,66,-11,-96,29,-328,0,144,-2,0,0,1726,-1,-1,-1,-1,3,369603375,-1220327196,0,65535,65535,1,0,255,0,0,0,0,0,0,10,0,192,0,3,3
RC_CHANNELS_RAW,117331,0,172,992,934,951,172,172,172,1811,255,117311146,107,59,16691,-28,66,-11,-96,29,-328,0,144,-2,0,0,1726,-1,-1,-1,-1,3,369603375,-1220327196,0,65535,65535,1,0,255,0,0,0,0,0,0,10,0,192,0,3,3
RAW_IMU,117331,0,172,992,934,951,172,172,172,1811,255,117331141,139,12,16703,-32,74,-15,-95,23,-329,0,192,-2,0,0,1726,-1,-1,-1,-1,3,369603375,-1220327196,0,65535,65535,1,0,255,0,0,0,0,0,0,10,0,192,0,3,3
RC_CHANNELS_SCALED,117331,1,172,992,934,951,172,172,172,1811,255,117331141,139,12,16703,-32,74,-15,-95,23,-329,0,192,-2,0,-1,1728,-1,-1,-1,-1,3,369603375,-1220327196,0,65535,65535,1,0,255,0,0,0,0,0,0,10,0,192,0,3,3
RC_CHANNELS_RAW,117351,0,172,992,934,952,172,172,172,1811,255,117331141,139,12,16703,-32,74,-15,-95,23,-329,0,192,-2,0,-1,1728,-1,-1,-1,-1,3,369603375,-1220327196,0,65535,65535,1,0,255,0,0,0,0,0,0,10,0,192,0,3,3
RAW_IMU,117351,0,172,992,934,952,172,172,172,1811,255,117351145,79,93,16708,-34,58,-20,-99,36,-336,0,240,-2,0,-1,1728,-1,-1,-1,-1,3,369603375,-1220327196,0,65535,65535,1,0,255,0,0,0,0,0,0,10,0,192,0,3,3
RC_CHANNELS_SCALED,117351,1,172,992,934,952,172,172,172,1811,255,117351145,79,93,16708,-34,58,-20,-99,36,-336,0,240,-1,-2,3,1729,-1,-1,-1,-1,3,369603375,-1220327196,0,65535,65535,1,0,255,0,0,0,0,0,0,10,0,192,0,3,3
RC_CHANNELS_RAW,117371,0,172,992,934,952,172,172,172,1811,255,117351145,79,93,16708,-34,58,-20,-99,36,-336,0,240,-1,-2,3,1729,-1,-1,-1,-1,3,369603375,-1220327196,0,65535,65535,1,0,255,0,0,0,0,0,0,10,0,192,0,3,3
RAW_IMU,117371,0,172,992,934,952,172,172,172,1811,255,117371144,45,27,16636,-28,56,-18,-93,29,-336,0,128,-1,-2,3,1729,-1,-1,-1,-1,3,369603375,-1220327196,0,65535,65535,1,0,255,0,0,0,0,0,0,10,0,192,0,3,3
RC_CHANNELS_SCALED,117371,1,172,992,934,952,172,172,172,1811,255,117371144,45,27,16636,-28,56,-18,-93,29,-336,0,128,-3,-4,0,1726,-1,-1,-1,-1,3,369603375,-1220327196,0,65535,65535,1,0,255,0,0,0,0,0,0,10,0,192,0,3,3
RC_CHANNELS_RAW,117391,0,172,992,934,951,172,172,172,1811,255,117371144,45,27,16636,-28,56,-18,-93,29,-336,0,128,-3,-4,0,1726,-1,-1,-1,-1,3,369603375,-1220327196,0,65535,65535,1,0,255,0,0,0,0,0,0,10,0,192,0,3,3
RAW_IMU,117391,0,172,992,934,951,172,172,172,1811,255,117391142,51,64,16667,-28,72,-20,-97,35,-332,0,208,-3,-4,0,1726,-1,-1,-1,-1,3,369603375,-1220327196,0,65535,65535,1,0,255,0,0,0,0,0,0,10,0,192,0,3,3
RC_CHANNELS_SCALED,117391,1,172,992,934,951,172,172,172,1811,255,117391142,51,64,16667,-28,72,-20,-97,35,-332,0,208,2,-5,0,1726,-1,-1,-1,-1,3,369603375,-1220327196,0,65535,65535,1,0,255,0,0,0,0,0,0,10,0,192,0,3,3
RC_CHANNELS_RAW,117411,0,172,992,934,951,172,172,172,1811,255,117391142,51,64,16667,-28,72,-20,-97,35,-332,0,208,2,-5,0,1726,-1,-1,-1,-1,3,369603375,-1220327196,0,65535,65535,1,0,255,0,0,0,0,0,0,10,0,192,0,3,3
RAW_IMU,117411,0,172,992,934,951,172,172,172,1811,255,117411144,140,22,16614,-32,56,-22,-103,35,-329,0,208,2,-5,0,1726,-1,-1,-1,-1,3,369603375,-1220327196,0,65535,65535,1,0,255,0,0,0,0,0,0,10,0,192,0,3,3
RC_CHANNELS_SCALED,117411,1,172,992,934,951,172,172,172,1811,255,117411144,140,22,16614,-32,56,-22,-103,35,-329,0,208,-1,0,0,1724,-1,-1,-1,-1,3,369603375,-1220327196,0,65535,65535,1,0,255,0,0,0,0,0,0,10,0,192,0,3,3
GPS_RAW_INT,117411,1,172,992,934,951,172,172,172,1811,255,117411428,140,22,16614,-32,56,-22,-103,35,-329,0,208,-1,0,0,1724,-1,-1,-1,-1,3,369603375,-1220327196,0,65535,65535,5,0,255,0,0,0,0,0,0,10,0,192,0,3,3
RC_CHANNELS_RAW,117431,0,172,992,934,951,172,172,172,1811,255,117411428,140,22,16614,-32,56,-22,-103,35,-329,0,208,-1,0,0,1724,-1,-1,-1,-1,3,369603375,-1220327196,0,65535,65535,5,0,255,0,0,0,0,0,0,10,0,192,0,3,3
RAW_IMU,117431,0,172,992,934,951,172,172,172,1811,255,117431142,34,69,16587,-33,71,-29,-91,33,-338,0,240,-1,0,0,1724,-1,-1,-1,-1,3,369603375,-1220327196,0,65535,65535,5,0,255,0,0,0,0,0,0,10,0,192,0,3,3
RC_CHANNELS_SCALED,117431,1,172,992,934,951,172,172,172,1811,255,117431142,34,69,16587,-33,71,-29,-91,33,-338,0,240,6,3,0,1725,-1,-1,-1,-1,3,369603375,-1220327196,0,65535,65535,5,0,255,0,0,0,0,0,0,10,0,192,0,3,3
RC_CHANNELS_RAW,117451,0,172,992,934,951,172,172,172,1811,255,117431142,34,69,16587,-33,71,-29,-91,33,-338,0,240,6,3,0,1725,-1,-1,-1,-1,3,369603375,-1220327196,0,65535,65535,5,0,255,0,0,0,0,0,0,10,0,192,0,3,3
RAW_IMU,117451,0,172,992,934,951,172,172,172,1811,255,117451143,68,14,16577,-30,69,-15,-88,29,-318,0,208,6,3,0,1725,-1,-1,-1,-1,3,369603375,-1220327196,0,65535,65535,5,0,255,0,0,0,0,0,0,10,0,192,0,3,3
RC_CHANNELS_SCALED,117451,1,172,992,934,951,172,172,172,1811,255,117451143,68,14,16577,-30,69,-15,-88,29,-318,0,208,-2,-1,0,1725,-1,-1,-1,-1,3,369603375,-1220327196,0,65535,65535,5,0,255,0,0,0,0,0,0,10,0,192,0,3,3
RC_CHANNELS_RAW,117471,0,172,992,934,952,172,172,172,1811,255,117451143,68,14,16577,-30,69,-15,-88,29,-318,0,208,-2,-1,0,1725,-1,-1,-1,-1,3,369603375,-1220327196,0,65535,65535,5,0,255,0,0,0,0,0,0,10,0,192,0,3,3
RAW_IMU,117471,0,172,992,934,952,172,172,172,1811,255,117471142,66,44,16679,-34,64,-6,-93,31,-328,0,208,-2,-1,0,1725,-1,-1,-1,-1,3,369603375,-1220327196,0,65535,65535,5,0,255,0,0,0,0,0,0,10,0,192,0,3,3
RC_CHANNELS_SCALED,117471,1,172,992,934,952,172,172,172,1811,255,117471142,66,44,16679,-34,64,-6,-93,31,-328,0,208,-4,2,-1,1725,-1,-1,-1,-1,3,369603375,-1220327196,0,65535,65535,5,0,255,0,0,0,0,0,0,10,0,192,0,3,3
RC_CHANNELS_RAW,117491,0,172,992,934,952,172,172,172,1811,255,117471142,66,44,16679,-34,64,-6,-93,31,-328,0,208,-4,2,-1,1725,-1,-1,-1,-1,3,369603375,-1220327196,0,65535,65535,5,0,255,0,0,0,0,0,0,10,0,192,0,3,3
RAW_IMU,117491,0,172,992,934,952,172,172,172,1811,255,117491140,34,-49,16609,-33,71,-2,-97,27,-332,0,208,-4,2,-1,1725,-1,-1,-1,-1,3,369603375,-1220327196,0,65535,65535,5,0,255,0,0,0,0,0,0,10,0,192,0,3,3
RC_CHANNELS_SCALED,117491,1,172,992,934,952,172,172,172,1811,255,117491140,34,-49,16609,-33,71,-2,-97,27,-332,0,208,0,2,1,1725,-1,-1,-1,-1,3,369603375,-1220327196,0,65535,65535,5,0,255,0,0,0,0,0,0,10,0,192,0,3,3
RC_CHANNELS_RAW,117511,0,172,992,934,952,172,172,172,1811,255,117491140,34,-49,16609,-33,71,-2,-97,27,-332,0,208,0,2,1,1725,-1,-1,-1,-1,3,369603375,-1220327196,0,65535,65535,5,0,255,0,0,0,0,0,0,10,0,192,0,3,3
RAW_IMU,117511,0,172,992,934,952,172,172,172,1811,255,117511142,79,28,16621,-31,67,-18,-84,30,-322,0,80,0,2,1,1725,-1,-1,-1,-1,3,369603375,-1220327196,0,65535,65535,5,0,255,0,0,0,0,0,0,10,0,192,0,3,3
RC_CHANNELS_SCALED,117511,1,172,992,934,952,172,172,172,1811,255,117511142,79,28,16621,-31,67,-18,-84,30,-322,0,80,3,-1,-1,1724,-1,-1,-1,-1,3,369603375,-1220327196,0,65535,65535,5,0,255,0,0,0,0,0,0,10,0,192,0,3,3
GPS_RAW_INT,117511,1,172,992,934,952,172,172,172,1811,255,117512008,79,28,16621,-31,67,-18,-84,30,-322,0,80,3,-1,-1,1724,-1,-1,-1,-1,3,369603375,-1220327196,0,65535,65535,5,0,255,0,0,0,0,0,0,10,0,192,0,3,3
RC_CHANNELS_RAW,117531,0,172,992,934,952,172,172,172,1811,255,117512008,79,28,16621,-31,67,-18,-84,30,-322,0,80,3,-1,-1,1724,-1,-1,-1,-1,3,369603375,-1220327196,0,65535,65535,5,0,255,0,0,0,0,0,0,10,0,192,0,3,3
RAW_IMU,117531,0,172,992,934,952,172,172,172,1811,255,117531143,30,39,16621,-36,60,-11,-86,29,-331,0,256,3,-1,-1,1724,-1,-1,-1,-1,3,369603375,-1220327196,0,65535,65535,5,0,255,0,0,0,0,0,0,10,0,192,0,3,3
RC_CHANNELS_SCALED,117531,1,172,992,934,952,172,172,172,1811,255,117531143,30,39,16621,-36,60,-11,-86,29,-331,0,256,1,-2,2,1726,-1,-1,-1,-1,3,369603375,-1220327196,0,65535,65535,5,0,255,0,0,0,0,0,0,10,0,192,0,3,3
RC_CHANNELS_RAW,117551,0,172,992,934,952,172,172,172,1811,255,117531143,30,39,16621,-36,60,-11,-86,29,-331,0,256,1,-2,2,1726,-1,-1,-1,-1,3,369603375,-1220327196,0,65535,65535,5,0,255,0,0,0,0,0,0,10,0,192,0,3,3
RAW_IMU,117551,0,172,992,934,952,172,172,172,1811,255,117551145,30,-18,16655,-41,71,-26,-100,25,-334,0,208,1,-2,2,1726,-1,-1,-1,-1,3,369603375,-1220327196,0,65535,65535,5,0,255,0,0,0,0,0,0,10,0,192,0,3,3
RC_CHANNELS_SCALED,117551,1,172,992,934,952,172,172,172,1811,255,117551145,30,-18,16655,-41,71,-26,-100,25,-334,0,208,1,4,0,1724,-1,-1,-1,-1,3,369603375,-1220327196,0,65535,65535,5,0,255,0,0,0,0,0,0,10,0,192,0,3,3
RC_CHANNELS_RAW,117571,0,172,992,934,952,172,172,172,1811,255,117551145,30,-18,16655,-41,71,-26,-100,25,-334,0,208,1,4,0,1724,-1,-1,-1,-1,3,369603375,-1220327196,0,65535,65535,5,0,255,0,0,0,0,0,0,10,0,192,0,3,3
RAW_IMU,117571,0,172,992,934,952,172,172,172,1811,255,117571143,127,64,16649,-28,70,-14,-96,30,-329,0,240,1,4,0,1724,-1,-1,-1,-1,3,369603375,-1220327196,0,65535,65535,5,0,255,0,0,0,0,0,0,10,0,192,0,3,3
RC_CHANNELS_SCALED,117571,1,172,992,934,952,172,172,172,1811,255,117571143,127,64,16649,-28,70,-14,-96,30,-329,0,240,1,-3,-1,1725,-1,-1,-1,-1,3,369603375,-1220327196,0,65535,65535,5,0,255,0,0,0,0,0,0,10,0,192,0,3,3
RC_CHANNELS_RAW,117591,0,172,992,934,952,172,172,172,1811,255,117571143,127,64,16649,-28,70,-14,-96,30,-329,0,240,1,-3,-1,1725,-1,-1,-1,-1,3,369603375,-1220327196,0,65535,65535,5,0,255,0,0,0,0,0,0,10,0,192,0,3,3
RAW_IMU,117591,0,172,992,934,952,172,172,172,1811,255,117591141,81,33,16655,-33,80,-17,-92,32,-329,0,208,1,-3,-1,1725,-1,-1,-1,-1,3,369603375,-1220327196,0,65535,65535,5,0,255,0,0,0,0,0,0,10,0,192,0,3,3
RC_CHANNELS_SCALED,117591,1,172,992,934,952,172,172,172,1811,255,117591141,81,33,16655,-33,80,-17,-92,32,-329,0,208,0,-2,1,1725,-1,-1,-1,-1,3,369603375,-1220327196,0,65535,65535,5,0,255,0,0,0,0,0,0,10,0,192,0,3,3
RC_CHANNELS_RAW,117611,0,172,992,934,952,172,172,172,1811,255,117591141,81,33,16655,-33,80,-17,-92,32,-329,0,208,0,-2,1,1725,-1,-1,-1,-1,3,369603375,-1220327196,0,65535,65535,5,0,255,0,0,0,0,0,0,10,0,192,0,3,3
RAW_IMU,117611,0,172,992,934,952,172,172,172,1811,255,117611142,55,94,16679,-36,60,-23,-93,26,-333,0,192,0,-2,1,1725,-1,-1,-1,-1,3,369603375,-1220327196,0,65535,65535,5,0,255,0,0,0,0,0,0,10,0,192,0,3,3
RC_CHANNELS_SCALED,117611,1,172,992,934,952,172,172,172,1811,255,117611142,55,94,16679,-36,60,-23,-93,26,-333,0,192,-2,6,4,1726,-1,-1,-1,-1,3,369603375,-1220327196,0,65535,65535,5,0,255,0,0,0,0,0,0,10,0,192,0,3,3
GPS_RAW_INT,117611,1,172,992,934,952,172,172,172,1811,255,117613009,55,94,16679,-36,60,-23,-93,26,-333,0,192,-2,6,4,1726,-1,-1,-1,-1,3,369603375,-1220327195,0,65535,65535,0,0,255,0,0,0,0,0,0,10,0,192,0,3,3
RC_CHANNELS_RAW,117631,0,172,992,934,951,172,172,172,1811,255,117613009,55,94,16679,-36,60,-23,-93,26,-333,0,192,-2,6,4,1726,-1,-1,-1,-1,3,369603375,-1220327195,0,65535,65535,0,0,255,0,0,0,0,0,0,10,0,192,0,3,3
RAW_IMU,117631,0,172,992,934,951,172,172,172,1811,255,117631142,94,9,16628,-40,60,-17,-96,29,-328,0,208,-2,6,4,1726,-1,-1,-1,-1,3,369603375,-1220327195,0,65535,65535,0,0,255,0,0,0,0,0,0,10,0,192,0,3,3
RC_CHANNELS_SCALED,117631,1,172,992,934,951,172,172,172,1811,255,117631142,94,9,16628,-40,60,-17,-96,29,-328,0,208,1,3,-2,1722,-1,-1,-1,-1,3,369603375,-1220327195,0,65535,65535,0,0,255,0,0,0,0,0,0,10,0,192,0,3,3
RC_CHANNELS_RAW,117651,0,172,992,934,951,172,172,172,1811,255,117631142,94,9,16628,-40,60,-17,-96,29,-328,0,208,1,3,-2,1722,-1,-1,-1,-1,3,369603375,-1220327195,0,65535,65535,0,0,255,0,0,0,0,0,0,10,0,192,0,3,3
RAW_IMU,117651,0,172,992,934,951,172,172,172,1811,255,117651149,75,59,16613,-11,66,-18,-82,32,-322,0,64,1,3,-2,1722,-1,-1,-1,-1,3,369603375,-1220327195,0,65535,65535,0,0,255,0,0,0,0,0,0,10,0,192,0,3,3
RC_CHANNELS_SCALED,117651,1,172,992,934,951,172,172,172,1811,255,117651149,75,59,16613,-11,66,-18,-82,32,-322,0,64,1,3,4,1727,-1,-1,-1,-1,3,369603375,-1220327195,0,65535,65535,0,0,255,0,0,0,0,0,0,10,0,192,0,3,3
RC_CHANNELS_RAW,117671,0,172,992,934,951,172,172,172,1811,255,117651149,75,59,16613,-11,66,-18,-82,32,-322,0,64,1,3,4,1727,-1,-1,-1,-1,3,369603375,-1220327195,0,65535,65535,0,0,255,0,0,0,0,0,0,10,0,192,0,3,3
RAW_IMU,117671,0,172,992,934,951,172,172,172,1811,255,117671143,139,76,16576,-41,69,-16,-92,23,-329,0,128,1,3,4,1727,-1,-1,-1,-1,3,369603375,-1220327195,0,65535,65535,0,0,255,0,0,0,0,0,0,10,0,192,0,3,3
RC_CHANNELS_SCALED,117671,1,172,992,934,951,172,172,172,1811,255,117671143,139,76,16576,-41,69,-16,-92,23,-329,0,128,-4,0,-2,1724,-1,-1,-1,-1,3,369603375,-1220327195,0,65535,65535,0,0,255,0,0,0,0,0,0,10,0,192,0,3,3
RC_CHANNELS_RAW,117691,0,172,992,934,951,172,172,172,1811,255,117671143,139,76,16576,-41,69,-16,-92,23,-329,0,128,-4,0,-2,1724,-1,-1,-1,-1,3,369603375,-1220327195,0,65535,65535,0,0,255,0,0,0,0,0,0,10,0,192,0,3,3
RAW_IMU,117691,0,172,992,934,951,172,172,172,1811,255,117691146,55,-35,16672,-35,53,-24,-97,27,-332,0,176,-4,0,-2,1724,-1,-1,-1,-1,3,369603375,-1220327195,0,65535,65535,0,0,255,0,0,0,0,0,0,10,0,192,0,3,3
RC_CHANNELS_SCALED,117691,1,172,992,934,951,172,172,172,1811,255,117691146,55,-35,16672,-35,53,-24,-97,27,-332,0,176,0,2,1,1727,-1,-1,-1,-1,3,369603375,-1220327195,0,65535,65535,0,0,255,0,0,0,0,0,0,10,0,192,0,3,3
RC_CHANNELS_RAW,117711,0,172,992,934,952,172,172,172,1811,255,117691146,55,-35,16672,-35,53,-24,-97,27,-332,0,176,0,2,1,1727,-1,-1,-1,-1,3,369603375,-1220327195,0,65535,65535,0,0,255,0,0,0,0,0,0,10,0,192,0,3,3
RAW_IMU,117711,0,172,992,934,952,172,172,172,1811,255,117711144,75,58,16594,-36,61,-23,-100,30,-322,0,144,0,2,1,1727,-1,-1,-1,-1,3,369603375,-1220327195,0,65535,65535,0,0,255,0,0,0,0,0,0,10,0,192,0,3,3
RC_CHANNELS_SCALED,117711,1,172,992,934,952,172,172,172,1811,255,117711144,75,58,16594,-36,61,-23,-100,30,-322,0,144,3,-1,-2,1725,-1,-1,-1,-1,3,369603375,-1220327195,0,65535,65535,0,0,255,0,0,0,0,0,0,10,0,192,0,3,3
GPS_RAW_INT,117711,1,172,992,934,952,172,172,172,1811,255,117714009,75,58,16594,-36,61,-23,-100,30,-322,0,144,3,-1,-2,1725,-1,-1,-1,-1,3,369603375,-1220327195,0,65535,65535,8,0,255,0,0,0,0,0,0,10,0,192,0,3,3
RC_CHANNELS_RAW,117731,0,172,992,934,951,172,172,172,1811,255,117714009,75,58,16594,-36,61,-23,-100,30,-322,0,144,3,-1,-2,1725,-1,-1,-1,-1,3,369603375,-1220327195,0,65535,65535,8,0,255,0,0,0,0,0,0,10,0,192,0,3,3
RAW_IMU,117731,0,172,992,934,951,172,172,172,1811,255,117731143,96,-13,16611,-30,59,-9,-90,37,-327,0,144,3,-1,-2,1725,-1,-1,-1,-1,3,369603375,-1220327195,0,65535,65535,8,0,255,0,0,0,0,0,0,10,0,192,0,3,3
RC_CHANNELS_SCALED,117731,1,172,992,934,951,172,172,172,1811,255,117731143,96,-13,16611,-30,59,-9,-90,37,-327,0,144,2,0,2,1726,-1,-1,-1,-1,3,369603375,-1220327195,0,65535,65535,8,0,255,0,0,0,0,0,0,10,0,192,0,3,3
RC_CHANNELS_RAW,117751,0,172,992,934,952,172,172,172,1811,255,117731143,96,-13,16611,-30,59,-9,-90,37,-327,0,144,2,0,2,1726,-1,-1,-1,-1,3,369603375,-1220327195,0,65535,65535,8,0,255,0,0,0,0,0,0,10,0,192,0,3,3
RAW_IMU,117751,0,172,992,934,952,172,172,172,1811,255,117751145,95,-10,16712,-30,67,-21,-96,36,-328,0,176,2,0,2,1726,-1,-1,-1,-1,3,369603375,-1220327195,0,65535,65535,8,0,255,0,0,0,0,0,0,10,0,192,0,3,3
RC_CHANNELS_SCALED,117751,1,172,992,934,952,172,172,172,1811,255,117751145,95,-10,16712,-30,67,-21,-96,36,-328,0,176,1,0,2,1726,-1,-1,-1,-1,3,369603375,-1220327195,0,65535,65535,8,0,255,0,0,0,0,0,0,10,0,192,0,3,3
RC_CHANNELS_RAW,117771,0,172,992,934,952,172,172,172,1811,255,117751145,95,-10,16712,-30,67,-21,-96,36,-328,0,176,1,0,2,1726,-1,-1,-1,-1,3,369603375,-1220327195,0,65535,65535,8,0,255,0,0,0,0,0,0,10,0,192,0,3,3
RAW_IMU,117771,0,172,992,934,952,172,172,172,1811,255,117771148,113,29,16614,-26,50,-4,-97,37,-332,0,144,1,0,2,1726,-1,-1,-1,-1,3,369603375,-1220327195,0,65535,65535,8,0,255,0,0,0,0,0,0,10,0,192,0,3,3
RC_CHANNELS_SCALED,117771,1,172,992,934,952,172,172,172,1811,255,117771148,113,29,16614,-26,50,-4,-97,37,-332,0,144,1,2,2,1728,-1,-1,-1,-1,3,369603375,-1220327195,0,65535,65535,8,0,255,0,0,0,0,0,0,10,0,192,0,3,3
RC_CHANNELS_RAW,117791,0,172,992,934,952,172,172,172,1811,255,117771148,113,29,16614,-26,50,-4,-97,37,-332,0,144,1,2,2,1728,-1,-1,-1,-1,3,369603375,-1220327195,0,65535,65535,8,0,255,0,0,0,0,0,0,10,0,192,0,3,3
RAW_IMU,117791,0,172,992,934,952,172,172,172,1811,255,117791144,100,14,16655,-31,60,-20,-97,35,-327,0,208,1,2,2,1728,-1,-1,-1,-1,3,369603375,-1220327195,0,65535,65535,8,0,255,0,0,0,0,0,0,10,0,192,0,3,3
RC_CHANNELS_SCALED,117791,1,172,992,934,952,172,172,172,1811,255,117791144,100,14,16655,-31,60,-20,-97,35,-327,0,208,1,-2,-2,1723,-1,-1,-1,-1,3,369603375,-1220327195,0,65535,65535,8,0,255,0,0,0,0,0,0,10,0,192,0,3,3
RC_CHANNELS_RAW,117811,0,172,992,934,952,172,172,172,1811,255,117791144,100,14,16655,-31,60,-20,-97,35,-327,0,208,1,-2,-2,1723,-1,-1,-1,-1,3,369603375,-1220327195,0,65535,65535,8,0,255,0,0,0,0,0,0,10,0,192,0,3,3
RAW_IMU,117811,0,172,992,934,952,172,172,172,1811,255,117811146,102,45,16663,-26,69,-16,-100,37,-320,0,208,1,-2,-2,1723,-1,-1,-1,-1,3,369603375,-1220327195,0,65535,65535,8,0,255,0,0,0,0,0,0,10,0,192,0,3,3
RC_CHANNELS_SCALED,117811,1,172,992,934,952,172,172,172,1811,255,117811146,102,45,16663,-26,69,-16,-100,37,-320,0,208,-3,0,2,1725,-1,-1,-1,-1,3,369603375,-1220327195,0,65535,65535,8,0,255,0,0,0,0,0,0,10,0,192,0,3,3
GPS_RAW_INT,117811,1,172,992,934,952,172,172,172,1811,255,117815006,102,45,16663,-26,69,-16,-100,37,-320,0,208,-3,0,2,1725,-1,-1,-1,-1,3,369603375,-1220327195,0,65535,65535,4,0,255,0,0,0,0,0,0,10,0,192,0,3,3
RC_CHANNELS_RAW,117831,0,172,992,934,952,172,172,172,1811,255,117815006,102,45,16663,-26,69,-16,-100,37,-320,0,208,-3,0,2,1725,-1,-1,-1,-1,3,369603375,-1220327195,0,65535,65535,4,0,255,0,0,0,0,0,0,10,0,192,0,3,3
RAW_IMU,117831,0,172,992,934,952,172,172,172,1811,255,117831141,91,57,16641,-40,59,-24,-96,29,-336,0,144,-3,0,2,1725,-1,-1,-1,-1,3,369603375,-1220327195,0,65535,65535,4,0,255,0,0,0,0,0,0,10,0,192,0,3,3
RC_CHANNELS_SCALED,117831,1,172,992,934,952,172,172,172,1811,255,117831141,91,57,16641,-40,59,-24,-96,29,-336,0,144,-2,0,1,1724,-1,-1,-1,-1,3,369603375,-1220327195,0,65535,65535,4,0,255,0,0,0,0,0,0,10,0,192,0,3,3
RC_CHANNELS_RAW,117851,0,172,992,934,951,172,172,172,1811,255,117831141,91,57,16641,-40,59,-24,-96,29,-336,0,144,-2,0,1,1724,-1,-1,-1,-1,3,369603375,-1220327195,0,65535,65535,4,0,255,0,0,0,0,0,0,10,0,192,0,3,3
RAW_IMU,117851,0,172,992,934,951,172,172,172,1811,255,117851145,36,-11,16656,-33,62,-19,-91,33,-336,0,176,-2,0,1,1724,-1,-1,-1,-1,3,369603375,-1220327195,0,65535,65535,4,0,255,0,0,0,0,0,0,10,0,192,0,3,3
RC_CHANNELS_SCALED,117851,1,172,992,934,951,172,172,172,1811,255,117851145,36,-11,16656,-33,62,-19,-91,33,-336,0,176,-1,3,-1,1724,-1,-1,-1,-1,3,369603375,-1220327195,0,65535,65535,4,0,255,0,0,0,0,0,0,10,0,192,0,3,3
RC_CHANNELS_RAW,117871,0,172,992,934,951,172,172,172,1811,255,117851145,36,-11,16656,-33,62,-19,-91,33,-336,0,176,-1,3,-1,1724,-1,-1,-1,-1,3,369603375,-1220327195,0,65535,65535,4,0,255,0,0,0,0,0,0,10,0,192,0,3,3
RAW_IMU,117871,0,172,992,934,951,172,172,172,1811,255,117871144,120,45,16640,-40,81,-10,-80,24,-331,0,176,-1,3,-1,1724,-1,-1,-1,-1,3,369603375,-1220327195,0,65535,65535,4,0,255,0,0,0,0,0,0,10,0,192,0,3,3
RC_CHANNELS_SCALED,117871,1,172,992,934,951,172,172,172,1811,255,117871144,120,45,16640,-40,81,-10,-80,24,-331,0,176,-3,-3,2,1725,-1,-1,-1,-1,3,369603375,-1220327195,0,65535,65535,4,0,255,0,0,0,0,0,0,10,0,192,0,3,3
RC_CHANNELS_RAW,117891,0,172,992,934,952,172,172,172,1811,255,117871144,120,45,16640,-40,81,-10,-80,24,-331,0,176,-3,-3,2,1725,-1,-1,-1,-1,3,369603375,-1220327195,0,65535,65535,4,0,255,0,0,0,0,0,0,10,0,192,0,3,3
RAW_IMU,117891,0,172,992,934,952,172,172,172,1811,255,117891142,99,65,16691,-34,69,-28,-92,37,-322,0,128,-3,-3,2,1725,-1,-1,-1,-1,3,369603375,-1220327195,0,65535,65535,4,0,255,0,0,0,0,0,0,10,0,192,0,3,3
RC_CHANNELS_SCALED,117891,1,172,992,934,952,172,172,172,1811,255,117891142,99,65,16691,-34,69,-28,-92,37,-322,0,128,0,-2,1,1726,-1,-1,-1,-1,3,369603375,-1220327195,0,65535,65535,4,0,255,0,0,0,0,0,0,10,0,192,0,3,3
RC_CHANNELS_RAW,117911,0,172,992,934,951,172,172,172,1811,255,117891142,99,65,16691,-34,69,-28,-92,37,-322,0,128,0,-2,1,1726,-1,-1,-1,-1,3,369603375,-1220327195,0,65535,65535,4,0,255,0,0,0,0,0,0,10,0,192,0,3,3
RAW_IMU,117911,0,172,992,934,951,172,172,172,1811,255,117911147,25,-26,16632,-35,52,-11,-96,31,-333,0,176,0,-2,1,1726,-1,-1,-1,-1,3,369603375,-1220327195,0,65535,65535,4,0,255,0,0,0,0,0,0,10,0,192,0,3,3
RC_CHANNELS_SCALED,117911,1,172,992,934,951,172,172,172,1811,255,117911147,25,-26,16632,-35,52,-11,-96,31,-333,0,176,-5,2,-1,1725,-1,-1,-1,-1,3,369603375,-1220327195,0,65535,65535,4,0,255,0,0,0,0,0,0,10,0,192,0,3,3
GPS_RAW_INT,117911,1,172,992,934,951,172,172,172,1811,255,117916006,25,-26,16632,-35,52,-11,-96,31,-333,0,176,-5,2,-1,1725,-1,-1,-1,-1,3,369603375,-1220327195,0,65535,65535,8,0,255,0,0,0,0,0,0,10,0,192,0,3,3
RC_CHANNELS_RAW,117931,0,172,992,934,951,172,172,172,1811,255,117916006,25,-26,16632,-35,52,-11,-96,31,-333,0,176,-5,2,-1,1725,-1,-1,-1,-1,3,369603375,-1220327195,0,65535,65535,8,0,255,0,0,0,0,0,0,10,0,192,0,3,3
RAW_IMU,117931,0,172,992,934,951,172,172,172,1811,255,117931146,61,-2,16648,-27,65,-18,-96,26,-328,0,208,-5,2,-1,1725,-1,-1,-1,-1,3,369603375,-1220327195,0,65535,65535,8,0,255,0,0,0,0,0,0,10,0,192,0,3,3
RC_CHANNELS_SCALED,117931,1,172,992,934,951,172,172,172,1811,255,117931146,61,-2,16648,-27,65,-18,-96,26,-328,0,208,1,3,2,1727,-1,-1,-1,-1,3,369603375,-1220327195,0,65535,65535,8,0,255,0,0,0,0,0,0,10,0,192,0,3,3
RC_CHANNELS_RAW,117951,0,172,992,934,952,172,172,172,1811,255,117931146,61,-2,16648,-27,65,-18,-96,26,-328,0,208,1,3,2,1727,-1,-1,-1,-1,3,369603375,-1220327195,0,65535,65535,8,0,255,0,0,0,0,0,0,10,0,192,0,3,3
RAW_IMU,117951,0,172,992,934,952,172,172,172,1811,255,117951151,119,50,16692,-27,65,-6,-88,38,-331,0,208,1,3,2,1727,-1,-1,-1,-1,3,369603375,-1220327195,0,65535,65535,8,0,255,0,0,0,0,0,0,10,0,192,0,3,3
RC_CHANNELS_SCALED,117951,1,172,992,934,952,172,172,172,1811,255,117951151,119,50,16692,-27,65,-6,-88,38,-331,0,208,2,-1,0,1725,-1,-1,-1,-1,3,369603375,-1220327195,0,65535,65535,8,0,255,0,0,0,0,0,0,10,0,192,0,3,3
RC_CHANNELS_RAW,117971,0,172,992,934,951,172,172,172,1811,255,117951151,119,50,16692,-27,65,-6,-88,38,-331,0,208,2,-1,0,1725,-1,-1,-1,-1,3,369603375,-1220327195,0,65535,65535,8,0,255,0,0,0,0,0,0,10,0,192,0,3,3
RAW_IMU,117971,0,172,992,934,951,172,172,172,1811,255,117971143,68,-11,16612,-36,71,-25,-100,30,-329,0,128,2,-1,0,1725,-1,-1,-1,-1,3,369603375,-1220327195,0,65535,65535,8,0,255,0,0,0,0,0,0,10,0,192,0,3,3
RC_CHANNELS_SCALED,117971,1,172,992,934,951,172,172,172,1811,255,117971143,68,-11,16612,-36,71,-25,-100,30,-329,0,128,4,2,-3,1723,-1,-1,-1,-1,3,369603375,-1220327195,0,65535,65535,8,0,255,0,0,0,0,0,0,10,0,192,0,3,3
RC_CHANNELS_RAW,117991,0,172,989,934,951,172,172,172,1811,255,117971143,68,-11,16612,-36,71,-25,-100,30,-329,0,128,4,2,-3,1723,-1,-1,-1,-1,3,369603375,-1220327195,0,65535,65535,8,0,255,0,0,0,0,0,0,10,0,192,0,3,3
RAW_IMU,117991,0,172,989,934,951,172,172,172,1811,255,117991144,31,-14,16646,-39,62,-11,-93,31,-336,0,192,4,2,-3,1723,-1,-1,-1,-1,3,369603375,-1220327195,0,65535,65535,8,0,255,0,0,0,0,0,0,10,0,192,0,3,3
RC_CHANNELS_SCALED,117991,1,172,989,934,951,172,172,172,1811,255,117991144,31,-14,16646,-39,62,-11,-93,31,-336,0,192,-1,6,-2,1724,-1,-1,-1,-1,3,369603375,-1220327195,0,65535,65535,8,0,255,0,0,0,0,0,0,10,0,192,0,3,3
HEARTBEAT,117991,1,172,989,934,951,172,172,172,1811,255,117991144,31,-14,16646,-39,62,-11,-93,31,-336,0,192,-1,6,-2,1724,-1,-1,-1,-1,3,369603375,-1220327195,0,65535,65535,8,0,255,0,0,0,0,0,0,10,0,192,0,3,3
RC_CHANNELS_RAW,118011,0,172,989,934,951,172,172,172,1811,255,117991144,31,-14,16646,-39,62,-11,-93,31,-336,0,192,-1,6,-2,1724,-1,-1,-1,-1,3,369603375,-1220327195,0,65535,65535,8,0,255,0,0,0,0,0,0,10,0,192,0,3,3
RAW_IMU,118011,0,172,989,934,951,172,172,172,1811,255,118011144,123,42,16627,-28,62,-27,-91,33,-328,0,256,-1,6,-2,1724,-1,-1,-1,-1,3,369603375,-1220327195,0,65535,65535,8,0,255,0,0,0,0,0,0,10,0,192,0,3,3
RC_CHANNELS_SCALED,118011,1,172,989,934,951,172,172,172,1811,255,118011144,123,42,16627,-28,62,-27,-91,33,-328,0,256,-1,-2,3,1727,-1,-1,-1,-1,3,369603375,-1220327195,0,65535,65535,8,0,255,0,0,0,0,0,0,10,0,192,0,3,3
GPS_RAW_INT,118011,1,172,989,934,951,172,172,172,1811,255,118017013,123,42,16627,-28,62,-27,-91,33,-328,0,256,-1,-2,3,1727,-1,-1,-1,-1,3,369603375,-1220327195,0,65535,65535,3,0,255,0,0,0,0,0,0,10,0,192,0,3,3
RC_CHANNELS_RAW,118031,0,172,992,934,951,172,172,172,1811,255,118017013,123,42,16627,-28,62,-27,-91,33,-328,0,256,-1,-2,3,1727,-1,-1,-1,-1,3,369603375,-1220327195,0,65535,65535,3,0,255,0,0,0,0,0,0,10,0,192,0,3,3
RAW_IMU,118031,0,172,992,934,951,172,172,172,1811,255,118031144,68,-1,16631,-24,81,-22,-82,32,-325,0,256,-1,-2,3,1727,-1,-1,-1,-1,3,369603375,-1220327195,0,65535,65535,3,0,255,0,0,0,0,0,0,10,0,192,0,3,3
RC_CHANNELS_SCALED,118031,1,172,992,934,951,172,172,172,1811,255,118031144,68,-1,16631,-24,81,-22,-82,32,-325,0,256,-4,0,-4,1720,-1,-1,-1,-1,3,369603375,-1220327195,0,65535,65535,3,0,255,0,0,0,0,0,0,10,0,192,0,3,3
RC_CHANNELS_RAW,118051,0,172,992,934,951,172,172,172,1811,255,118031144,68,-1,16631,-24,81,-22,-82,32,-325,0,256,-4,0,-4,1720,-1,-1,-1,-1,3,369603375,-1220327195,0,65535,65535,3,0,255,0,0,0,0,0,0,10,0,192,0,3,3
RAW_IMU,118051,0,172,992,934,951,172,172,172,1811,255,118051151,22,41,16637,-24,63,-13,-86,31,-331,0,208,-4,0,-4,1720,-1,-1,-1,-1,3,369603375,-1220327195,0,65535,65535,3,0,255,0,0,0,0,0,0,10,0,192,0,3,3
RC_CHANNELS_SCALED,118051,1,172,992,934,951,172,172,172,1811,255,118051151,22,41,16637,-24,63,-13,-86,31,-331,0,208,-2,-2,4,1727,-1,-1,-1,-1,3,369603375,-1220327195,0,65535,65535,3,0,255,0,0,0,0,0,0,10,0,192,0,3,3
RC_CHANNELS_RAW,118071,0,172,992,934,951,172,172,172,1811,255,118051151,22,41,16637,-24,63,-13,-86,31,-331,0,208,-2,-2,4,1727,-1,-1,-1,-1,3,369603375,-1220327195,0,65535,65535,3,0,255,0,0,0,0,0,0,10,0,192,0,3,3
RAW_IMU,118071,0,172,992,934,951,172,172,172,1811,255,118071145,73,2,16623,-35,72,-13,-99,26,-321,0,96,-2,-2,4,1727,-1,-1,-1,-1,3,369603375,-1220327195,0,65535,65535,3,0,255,0,0,0,0,0,0,10,0,192,0,3,3
RC_CHANNELS_SCALED,118071,1,172,992,934,951,172,172,172,1811,255,118071145,73,2,16623,-35,72,-13,-99,26,-321,0,96,-3,4,-1,1726,-1,-1,-1,-1,3,369603375,-1220327195,0,65535,65535,3,0,255,0,0,0,0,0,0,10,0,192,0,3,3
RC_CHANNELS_RAW,118091,0,172,989,934,952,172,172,172,1811,255,118071145,73,2,16623,-35,72,-13,-99,26,-321,0,96,-3,4,-1,1726,-1,-1,-1,-1,3,369603375,-1220327195,0,65535,65535,3,0,255,0,0,0,0,0,0,10,0,192,0,3,3
RAW_IMU,118091,0,172,989,934,952,172,172,172,1811,255,118091144,31,-2,16611,-18,67,-21,-86,29,-328,0,240,-3,4,-1,1726,-1,-1,-1,-1,3,369603375,-1220327195,0,65535,65535,3,0,255,0,0,0,0,0,0,10,0,192,0,3,3
RC_CHANNELS_SCALED,118091,1,172,989,934,952,172,172,172,1811,255,118091144,31,-2,16611,-18,67,-21,-86,29,-328,0,240,0,6,-2,1724,-1,-1,-1,-1,3,369603375,-1220327195,0,65535,65535,3,0,255,0,0,0,0,0,0,10,0,192,0,3,3
RC_CHANNELS_RAW,118111,0,172,989,934,951,172,172,172,1811,255,118091144,31,-2,16611,-18,67,-21,-86,29,-328,0,240,0,6,-2,1724,-1,-1,-1,-1,3,369603375,-1220327195,0,65535,65535,3,0,255,0,0,0,0,0,0,10,0,192,0,3,3
RAW_IMU,118111,0,172,989,934,951,172,172,172,1811,255,118111142,74,96,16652,-32,81,-19,-86,31,-328,0,128,0,6,-2,1724,-1,-1,-1,-1,3,369603375,-1220327195,0,65535,65535,3,0,255,0,0,0,0,0,0,10,0,192,0,3,3
RC_CHANNELS_SCALED,118111,1,172,989,934,951,172,172,172,1811,255,118111142,74,96,16652,-32,81,-19,-86,31,-328,0,128,-1,7,-1,1725,-1,-1,-1,-1,3,369603375,-1220327195,0,65535,65535,3,0,255,0,0,0,0,0,0,10,0,192,0,3,3
GPS_RAW_INT,118111,1,172,989,934,951,172,172,172,1811,255,118118005,74,96,16652,-32,81,-19,-86,31,-328,0,128,-1,7,-1,1725,-1,-1,-1,-1,3,369603375,-1220327195,0,65535,65535,4,0,255,0,0,0,0,0,0,10,0,192,0,3,3
RC_CHANNELS_RAW,118131,0,172,989,934,952,172,172,172,1811,255,118118005,74,96,16652,-32,81,-19,-86,31,-328,0,128,-1,7,-1,1725,-1,-1,-1,-1,3,369603375,-1220327195,0,65535,65535,4,0,255,0,0,0,0,0,0,10,0,192,0,3,3
RAW_IMU,118131,0,172,989,934,952,172,172,172,1811,255,118131144,28,32,16632,-25,77,-7,-92,35,-327,0,176,-1,7,-1,1725,-1,-1,-1,-1,3,369603375,-1220327195,0,65535,65535,4,0,255,0,0,0,0,0,0,10,0,192,0,3,3
RC_CHANNELS_SCALED,118131,1,172,989,934,952,172,172,172,1811,255,118131144,28,32,16632,-25,77,-7,-92,35,-327,0,176,1,2,-2,1724,-1,-1,-1,-1,3,369603375,-1220327195,0,65535,65535,4,0,255,0,0,0,0,0,0,10,0,192,0,3,3
RC_CHANNELS_RAW,118151,0,172,989,934,951,172,172,172,1811,255,118131144,28,32,16632,-25,77,-7,-92,35,-327,0,176,1,2,-2,1724,-1,-1,-1,-1,3,369603375,-1220327195,0,65535,65535,4,0,255,0,0,0,0,0,0,10,0,192,0,3,3
RAW_IMU,118151,0,172,989,934,951,172,172,172,1811,255,118151145,126,62,16632,-26,57,-16,-97,30,-325,0,96,1,2,-2,1724,-1,-1,-1,-1,3,369603375,-1220327195,0,65535,65535,4,0,255,0,0,0,0,0,0,10,0,192,0,3,3
RC_CHANNELS_SCALED,118151,1,172,989,934,951,172,172,172,1811,255,118151145,126,62,16632,-26,57,-16,-97,30,-325,0,96,2,-2,-2,1723,-1,-1,-1,-1,3,369603375,-1220327195,0,65535,65535,4,0,255,0,0,0,0,0,0,10,0,192,0,3,3
RC_CHANNELS_RAW,118171,0,172,992,934,951,172,172,172,1811,255,118151145,126,62,16632,-26,57,-16,-97,30,-325,0,96,2,-2,-2,1723,-1,-1,-1,-1,3,369603375,-1220327195,0,65535,65535,4,0,255,0,0,0,0,0,0,10,0,192,0,3,3
RAW_IMU,118171,0,172,992,934,951,172,172,172,1811,255,118171145,94,64,16667,-24,45,-19,-91,33,-331,0,240,2,-2,-2,1723,-1,-1,-1,-1,3,369603375,-1220327195,0,65535,65535,4,0,255,0,0,0,0,0,0,10,0,192,0,3,3
RC_CHANNELS_SCALED,118171,1,172,992,934,951,172,172,172,1811,255,118171145,94,64,16667,-24,45,-19,-91,33,-331,0,240,0,1,1,1726,-1,-1,-1,-1,3,369603375,-1220327195,0,65535,65535,4,0,255,0,0,0,0,0,0,10,0,192,0,3,3
RC_CHANNELS_RAW,118191,0,172,992,934,952,172,172,172,1811,255,118171145,94,64,16667,-24,45,-19,-91,33,-331,0,240,0,1,1,1726,-1,-1,-1,-1,3,369603375,-1220327195,0,65535,65535,4,0,255,0,0,0,0,0,0,10,0,192,0,3,3
RAW_IMU,118191,0,172,992,934,952,172,172,172,1811,255,118191143,82,35,16615,-34,72,-17,-92,30,-325,0,144,0,1,1,1726,-1,-1,-1,-1,3,369603375,-1220327195,0,65535,65535,4,0,255,0,0,0,0,0,0,10,0,192,0,3,3
RC_CHANNELS_SCALED,118191,1,172,992,934,952,172,172,172,1811,255,118191143,82,35,16615,-34,72,-17,-92,30,-325,0,144,0,-1,2,1727,-1,-1,-1,-1,3,369603375,-1220327195,0,65535,65535,4,0,255,0,0,0,0,0,0,10,0,192,0,3,3
RC_CHANNELS_RAW,118211,0,172,992,934,952,172,172,172,1811,255,118191143,82,35,16615,-34,72,-17,-92,30,-325,0,144,0,-1,2,1727,-1,-1,-1,-1,3,369603375,-1220327195,0,65535,65535,4,0,255,0,0,0,0,0,0,10,0,192,0,3,3
RAW_IMU,118211,0,172,992,934,952,172,172,172,1811,255,118211143,34,-16,16581,-43,65,-31,-93,33,-328,0,240,0,-1,2,1727,-1,-1,-1,-1,3,369603375,-1220327195,0,65535,65535,4,0,255,0,0,0,0,0,0,10,0,192,0,3,3
RC_CHANNELS_SCALED,118211,1,172,992,934,952,172,172,172,1811,255,118211143,34,-16,16581,-43,65,-31,-93,33,-328,0,240,-1,-3,2,1726,-1,-1,-1,-1,3,369603375,-1220327195,0,65535,65535,4,0,255,0,0,0,0,0,0,10,0,192,0,3,3
GPS_RAW_INT,118211,1,172,992,934,952,172,172,172,1811,255,118219007,34,-16,16581,-43,65,-31,-93,33,-328,0,240,-1,-3,2,1726,-1,-1,-1,-1,3,369603375,-1220327195,0,65535,65535,2,0,255,0,0,0,0,0,0,10,0,192,0,3,3
RC_CHANNELS_RAW,118231,0,172,992,934,951,172,172,172,1811,255,118219007,34,-16,16581,-43,65,-31,-93,33,-328,0,240,-1,-3,2,1726,-1,-1,-1,-1,3,369603375,-1220327195,0,65535,65535,2,0,255,0,0,0,0,0,0,10,0,192,0,3,3
RAW_IMU,118231,0,172,992,934,951,172,172,172,1811,255,118231144,105,38,16642,-31,65,-33,-96,26,-331,0,240,-1,-3,2,1726,-1,-1,-1,-1,3,369603375,-1220327195,0,65535,65535,2,0,255,0,0,0,0,0,0,10,0,192,0,3,3
RC_CHANNELS_SCALED,118231,1,172,992,934,951,172,172,172,1811,255,118231144,105,38,16642,-31,65,-33,-96,26,-331,0,240,5,1,1,1727,-1,-1,-1,-1,3,369603375,-1220327195,0,65535,65535,2,0,255,0,0,0,0,0,0,10,0,192,0,3,3
RC_CHANNELS_RAW,118251,0,172,992,934,952,172,172,172,1811,255,118231144,105,38,16642,-31,65,-33,-96,26,-331,0,240,5,1,1,1727,-1,-1,-1,-1,3,369603375,-1220327195,0,65535,65535,2,0,255,0,0,0,0,0,0,10,0,192,0,3,3
RAW_IMU,118251,0,172,992,934,952,172,172,172,1811,255,118251146,121,32,16587,-44,55,-11,-97,37,-332,0,176,5,1,1,1727,-1,-1,-1,-1,3,369603375,-1220327195,0,65535,65535,2,0,255,0,0,0,0,0,0,10,0,192,0,3,3
RC_CHANNELS_SCALED,118251,1,172,992,934,952,172,172,172,1811,255,118251146,121,32,16587,-44,55,-11,-97,37,-332,0,176,0,-2,1,1726,-1,-1,-1,-1,3,369603375,-1220327195,0,65535,65535,2,0,255,0,0,0,0,0,0,10,0,192,0,3,3
RC_CHANNELS_RAW,118271,0,172,992,934,951,172,172,172,1811,255,118251146,121,32,16587,-44,55,-11,-97,37,-332,0,176,0,-2,1,1726,-1,-1,-1,-1,3,369603375,-1220327195,0,65535,65535,2,0,255,0,0,0,0,0,0,10,0,192,0,3,3
RAW_IMU,118271,0,172,992,934,951,172,172,172,1811,255,118271141,67,-33,16677,-10,67,-9,-91,29,-318,0,96,0,-2,1,1726,-1,-1,-1,-1,3,369603375,-1220327195,0,65535,65535,2,0,255,0,0,0,0,0,0,10,0,192,0,3,3
RC_CHANNELS_SCALED,118271,1,172,992,934,951,172,172,172,1811,255,118271141,67,-33,16677,-10,67,-9,-91,29,-318,0,96,-1,-1,1,1725,-1,-1,-1,-1,3,369603375,-1220327195,0,65535,65535,2,0,255,0,0,0,0,0,0,10,0,192,0,3,3
RC_CHANNELS_RAW,118291,0,172,992,934,951,172,172,172,1811,255,118271141,67,-33,16677,-10,67,-9,-91,29,-318,0,96,-1,-1,1,1725,-1,-1,-1,-1,3,369603375,-1220327195,0,65535,65535,2,0,255,0,0,0,0,0,0,10,0,192,0,3,3
RAW_IMU,118291,0,172,992,934,951,172,172,172,1811,255,118291146,66,-16,16590,-23,61,-30,-105,35,-322,0,192,-1,-1,1,1725,-1,-1,-1,-1,3,369603375,-1220327195,0,65535,65535,2,0,255,0,0,0,0,0,0,10,0,192,0,3,3
RC_CHANNELS_SCALED,118291,1,172,992,934,951,172,172,172,1811,255,118291146,66,-16,16590,-23,61,-30,-105,35,-322,0,192,-2,-3,2,1727,-1,-1,-1,-1,3,369603375,-1220327195,0,65535,65535,2,0,255,0,0,0,0,0,0,10,0,192,0,3,3
RC_CHANNELS_RAW,118311,0,172,992,934,952,172,172,172,1811,255,118291146,66,-16,16590,-23,61,-30,-105,35,-322,0,192,-2,-3,2,1727,-1,-1,-1,-1,3,369603375,-1220327195,0,65535,65535,2,0,255,0,0,0,0,0,0,10,0,192,0,3,3
RAW_IMU,118311,0,172,992,934,952,172,172,172,1811,255,118311146,80,12,16668,-22,78,-18,-92,30,-329,0,144,-2,-3,2,1727,-1,-1,-1,-1,3,369603375,-1220327195,0,65535,65535,2,0,255,0,0,0,0,0,0,10,0,192,0,3,3
RC_CHANNELS_SCALED,118311,1,172,992,934,952,172,172,172,1811,255,118311146,80,12,16668,-22,78,-18,-92,30,-329,0,144,-2,-2,1,1725,-1,-1,-1,-1,3,369603375,-1220327195,0,65535,65535,2,0,255,0,0,0,0,0,0,10,0,192,0,3,3
GPS_RAW_INT,118311,1,172,992,934,952,172,172,172,1811,255,118320009,80,12,16668,-22,78,-18,-92,30,-329,0,144,-2,-2,1,1725,-1,-1,-1,-1,3,369603375,-1220327195,0,65535,65535,7,0,255,0,0,0,0,0,0,10,0,192,0,3,3
RC_CHANNELS_RAW,118331,0,172,992,934,952,172,172,172,1811,255,118320009,80,12,16668,-22,78,-18,-92,30,-329,0,144,-2,-2,1,1725,-1,-1,-1,-1,3,369603375,-1220327195,0,65535,65535,7,0,255,0,0,0,0,0,0,10,0,192,0,3,3
RAW_IMU,118331,0,172,992,934,952,172,172,172,1811,255,118331144,129,-21,16662,-35,57,-22,-99,38,-331,0,144,-2,-2,1,1725,-1,-1,-1,-1,3,369603375,-1220327195,0,65535,65535,7,0,255,0,0,0,0,0,0,10,0,192,0,3,3
RC_CHANNELS_SCALED,118331,1,172,992,934,952,172,172,172,1811,255,118331144,129,-21,16662,-35,57,-22,-99,38,-331,0,144,-1,0,3,1727,-1,-1,-1,-1,3,369603375,-1220327195,0,65535,65535,7,0,255,0,0,0,0,0,0,10,0,192,0,3,3
RC_CHANNELS_RAW,118351,0,172,992,934,952,172,172,172,1811,255,118331144,129,-21,16662,-35,57,-22,-99,38,-331,0,144,-1,0,3,1727,-1,-1,-1,-1,3,369603375,-1220327195,0,65535,65535,7,0,255,0,0,0,0,0,0,10,0,192,0,3,3
RAW_IMU,118351,0,172,992,934,952,172,172,172,1811,255,118351148,55,3,16714,-32,69,-20,-86,36,-333,0,208,-1,0,3,1727,-1,-1,-1,-1,3,369603375,-1220327195,0,65535,65535,7,0,255,0,0,0,0,0,0,10,0,192,0,3,3
RC_CHANNELS_SCALED,118351,1,172,992,934,952,172,172,172,1811,255,118351148,55,3,16714,-32,69,-20,-86,36,-333,0,208,2,0,3,1727,-1,-1,-1,-1,3,369603375,-1220327195,0,65535,65535,7,0,255,0,0,0,0,0,0,10,0,192,0,3,3
RC_CHANNELS_RAW,118371,0,172,992,934,951,172,172,172,1811,255,118351148,55,3,16714,-32,69,-20,-86,36,-333,0,208,2,0,3,1727,-1,-1,-1,-1,3,369603375,-1220327195,0,65535,65535,7,0,255,0,0,0,0,0,0,10,0,192,0,3,3
RAW_IMU,118371,0,172,992,934,951,172,172,172,1811,255,118371142,24,60,16659,-33,60,7,-105,37,-325,0,144,2,0,3,1727,-1,-1,-1,-1,3,369603375,-1220327195,0,65535,65535,7,0,255,0,0,0,0,0,0,10,0,192,0,3,3
RC_CHANNELS_SCALED,118371,1,172,992,934,951,172,172,172,1811,255,118371142,24,60,16659,-33,60,7,-105,37,-325,0,144,3,3,2,1725,-1,-1,-1,-1,3,369603375,-1220327195,0,65535,65535,7,0,255,0,0,0,0,0,0,10,0,192,0,3,3
RC_CHANNELS_RAW,118391,0,172,992,934,952,172,172,172,1811,255,118371142,24,60,16659,-33,60,7,-105,37,-325,0,144,3,3,2,1725,-1,-1,-1,-1,3,369603375,-1220327195,0,65535,65535,7,0,255,0,0,0,0,0,0,10,0,192,0,3,3
RAW_IMU,118391,0,172,992,934,952,172,172,172,1811,255,118391144,94,41,16666,-30,71,-25,-97,35,-325,0,240,3,3,2,1725,-1,-1,-1,-1,3,369603375,-1220327195,0,65535,65535,7,0,255,0,0,0,0,0,0,10,0,192,0,3,3
RC_CHANNELS_SCALED,118391,1,172,992,934,952,172,172,172,1811,255,118391144,94,41,16666,-30,71,-25,-97,35,-325,0,240,2,3,3,1726,-1,-1,-1,-1,3,369603375,-1220327195,0,65535,65535,7,0,255,0,0,0,0,0,0,10,0,192,0,3,3
RC_CHANNELS_RAW,118411,0,172,992,934,952,172,172,172,1811,255,118391144,94,41,16666,-30,71,-25,-97,35,-325,0,240,2,3,3,1726,-1,-1,-1,-1,3,369603375,-1220327195,0,65535,65535,7,0,255,0,0,0,0,0,0,10,0,192,0,3,3
RAW_IMU,118411,0,172,992,934,952,172,172,172,1811,255,118411142,67,40,16670,-39,68,-21,-100,23,-325,0,176,2,3,3,1726,-1,-1,-1,-1,3,369603375,-1220327195,0,65535,65535,7,0,255,0,0,0,0,0,0,10,0,192,0,3,3
RC_CHANNELS_SCALED,118411,1,172,992,934,952,172,172,172,1811,255,118411142,67,40,16670,-39,68,-21,-100,23,-325,0,176,2,2,0,1725,-1,-1,-1,-1,3,369603375,-1220327195,0,65535,65535,7,0,255,0,0,0,0,0,0,10,0,192,0,3,3
GPS_RAW_INT,118411,1,172,992,934,952,172,172,172,1811,255,118421006,67,40,16670,-39,68,-21,-100,23,-325,0,176,2,2,0,1725,-1,-1,-1,-1,3,369603375,-1220327195,0,65535,65535,5,0,255,0,0,0,0,0,0,10,0,192,0,3,3
RC_CHANNELS_RAW,118431,0,172,992,934,952,172,172,172,1811,255,118421006,67,40,16670,-39,68,-21,-100,23,-325,0,176,2,2,0,1725,-1,-1,-1,-1,3,369603375,-1220327195,0,65535,65535,5,0,255,0,0,0,0,0,0,10,0,192,0,3,3
RAW_IMU,118431,0,172,992,934,952,172,172,172,1811,255,118431143,42,-15,16648,-40,58,-22,-97,35,-329,0,144,2,2,0,1725,-1,-1,-1,-1,3,369603375,-1220327195,0,65535,65535,5,0,255,0,0,0,0,0,0,10,0,192,0,3,3
RC_CHANNELS_SCALED,118431,1,172,992,934,952,172,172,172,1811,255,118431143,42,-15,16648,-40,58,-22,-97,35,-329,0,144,2,-1,2,1726,-1,-1,-1,-1,3,369603375,-1220327195,0,65535,65535,5,0,255,0,0,0,0,0,0,10,0,192,0,3,3
RC_CHANNELS_RAW,118451,0,172,992,934,952,172,172,172,1811,255,118431143,42,-15,16648,-40,58,-22,-97,35,-329,0,144,2,-1,2,1726,-1,-1,-1,-1,3,369603375,-1220327195,0,65535,65535,5,0,255,0,0,0,0,0,0,10,0,192,0,3,3
RAW_IMU,118451,0,172,992,934,952,172,172,172,1811,255,118451150,66,6,16650,-20,70,-11,-92,35,-334,0,256,2,-1,2,1726,-1,-1,-1,-1,3,369603375,-1220327195,0,65535,65535,5,0,255,0,0,0,0,0,0,10,0,192,0,3,3
RC_CHANNELS_SCALED,118451,1,172,992,934,952,172,172,172,1811,255,118451150,66,6,16650,-20,70,-11,-92,35,-334,0,256,1,-3,-2,1725,-1,-1,-1,-1,3,369603375,-1220327195,0,65535,65535,5,0,255,0,0,0,0,0,0,10,0,192,0,3,3
RC_CHANNELS_RAW,118471,0,172,992,934,951,172,172,172,1811,255,118451150,66,6,16650,-20,70,-11,-92,35,-334,0,256,1,-3,-2,1725,-1,-1,-1,-1,3,369603375,-1220327195,0,65535,65535,5,0,255,0,0,0,0,0,0,10,0,192,0,3,3
RAW_IMU,118471,0,172,992,934,951,172,172,172,1811,255,118471144,120,20,16617,-42,67,-28,-97,30,-325,0,144,1,-3,-2,1725,-1,-1,-1,-1,3,369603375,-1220327195,0,65535,65535,5,0,255,0,0,0,0,0,0,10,0,192,0,3,3
RC_CHANNELS_SCALED,118471,1,172,992,934,951,172,172,172,1811,255,118471144,120,20,16617,-42,67,-28,-97,30,-325,0,144,0,-3,2,1727,-1,-1,-1,-1,3,369603375,-1220327195,0,65535,65535,5,0,255,0,0,0,0,0,0,10,0,192,0,3,3
RC_CHANNELS_RAW,118491,0,172,989,934,952,172,172,172,1811,255,118471144,120,20,16617,-42,67,-28,-97,30,-325,0,144,0,-3,2,1727,-1,-1,-1,-1,3,369603375,-1220327195,0,65535,65535,5,0,255,0,0,0,0,0,0,10,0,192,0,3,3
RAW_IMU,118491,0,172,989,934,952,172,172,172,1811,255,118491142,42,26,16671,-40,68,-13,-88,33,-328,0,144,0,-3,2,1727,-1,-1,-1,-1,3,369603375,-1220327195,0,65535,65535,5,0,255,0,0,0,0,0,0,10,0,192,0,3,3
RC_CHANNELS_SCALED,118491,1,172,989,934,952,172,172,172,1811,255,118491142,42,26,16671,-40,68,-13,-88,33,-328,0,144,-2,0,-3,1725,-1,-1,-1,-1,3,369603375,-1220327195,0,65535,65535,5,0,255,0,0,0,0,0,0,10,0,192,0,3,3
RC_CHANNELS_RAW,118511,0,172,992,934,951,172,172,172,1811,255,118491142,42,26,16671,-40,68,-13,-88,33,-328,0,144,-2,0,-3,1725,-1,-1,-1,-1,3,369603375,-1220327195,0,65535,65535,5,0,255,0,0,0,0,0,0,10,0,192,0,3,3
RAW_IMU,118511,0,172,992,934,951,172,172,172,1811,255,118511144,40,37,16693,-34,63,-26,-93,29,-326,0,176,-2,0,-3,1725,-1,-1,-1,-1,3,369603375,-1220327195,0,65535,65535,5,0,255,0,0,0,0,0,0,10,0,192,0,3,3
RC_CHANNELS_SCALED,118511,1,172,992,934,951,172,172,172,1811,255,118511144,40,37,16693,-34,63,-26,-93,29,-326,0,176,-4,-1,0,1726,-1,-1,-1,-1,3,369603375,-1220327195,0,65535,65535,5,0,255,0,0,0,0,0,0,10,0,192,0,3,3
GPS_RAW_INT,118511,1,172,992,934,951,172,172,172,1811,255,118522006,40,37,16693,-34,63,-26,-93,29,-326,0,176,-4,-1,0,1726,-1,-1,-1,-1,3,369603375,-1220327195,0,65535,65535,2,0,255,0,0,0,0,0,0,10,0,192,0,3,3
RC_CHANNELS_RAW,118531,0,172,989,934,952,172,172,172,1811,255,118522006,40,37,16693,-34,63,-26,-93,29,-326,0,176,-4,-1,0,1726,-1,-1,-1,-1,3,369603375,-1220327195,0,65535,65535,2,0,255,0,0,0,0,0,0,10,0,192,0,3,3
RAW_IMU,118531,0,172,989,934,952,172,172,172,1811,255,118531145,117,31,16669,-33,70,-22,-100,30,-320,0,208,-4,-1,0,1726,-1,-1,-1,-1,3,369603375,-1220327195,0,65535,65535,2,0,255,0,0,0,0,0,0,10,0,192,0,3,3
RC_CHANNELS_SCALED,118531,1,172,989,934,952,172,172,172,1811,255,118531145,117,31,16669,-33,70,-22,-100,30,-320,0,208,2,-1,0,1728,-1,-1,-1,-1,3,369603375,-1220327195,0,65535,65535,2,0,255,0,0,0,0,0,0,10,0,192,0,3,3
RC_CHANNELS_RAW,118551,0,172,992,934,951,172,172,172,1811,255,118531145,117,31,16669,-33,70,-22,-100,30,-320,0,208,2,-1,0,1728,-1,-1,-1,-1,3,369603375,-1220327195,0,65535,65535,2,0,255,0,0,0,0,0,0,10,0,192,0,3,3
RAW_IMU,118551,0,172,992,934,951,172,172,172,1811,255,118551149,82,130,16656,-33,56,-27,-95,32,-332,0,208,2,-1,0,1728,-1,-1,-1,-1,3,369603375,-1220327195,0,65535,65535,2,0,255,0,0,0,0,0,0,10,0,192,0,3,3
RC_CHANNELS_SCALED,118551,1,172,992,934,951,172,172,172,1811,255,118551149,82,130,16656,-33,56,-27,-95,32,-332,0,208,0,3,1,1727,-1,-1,-1,-1,3,369603375,-1220327195,0,65535,65535,2,0,255,0,0,0,0,0,0,10,0,192,0,3,3
RC_CHANNELS_RAW,118571,0,172,992,934,951,172,172,172,1811,255,118551149,82,130,16656,-33,56,-27,-95,32,-332,0,208,0,3,1,1727,-1,-1,-1,-1,3,369603375,-1220327195,0,65535,65535,2,0,255,0,0,0,0,0,0,10,0,192,0,3,3
RAW_IMU,118571,0,172,992,934,951,172,172,172,1811,255,118571149,59,62,16648,-9,73,-19,-96,31,-326,0,96,0,3,1,1727,-1,-1,-1,-1,3,369603375,-1220327195,0,65535,65535,2,0,255,0,0,0,0,0,0,10,0,192,0,3,3
RC_CHANNELS_SCALED,118571,1,172,992,934,951,172,172,172,1811,255,118571149,59,62,16648,-9,73,-19,-96,31,-326,0,96,-2,-3,-1,1723,-1,-1,-1,-1,3,369603375,-1220327195,0,65535,65535,2,0,255,0,0,0,0,0,0,10,0,192,0,3,3
RC_CHANNELS_RAW,118591,0,172,989,934,951,172,172,172,1811,255,118571149,59,62,16648,-9,73,-19,-96,31,-326,0,96,-2,-3,-1,1723,-1,-1,-1,-1,3,369603375,-1220327195,0,65535,65535,2,0,255,0,0,0,0,0,0,10,0,192,0,3,3
RAW_IMU,118591,0,172,989,934,951,172,172,172,1811,255,118591144,90,0,16690,-40,72,-29,-92,37,-320,0,144,-2,-3,-1,1723,-1,-1,-1,-1,3,369603375,-1220327195,0,65535,65535,2,0,255,0,0,0,0,0,0,10,0,192,0,3,3
RC_CHANNELS_SCALED,118591,1,172,989,934,951,172,172,172,1811,255,118591144,90,0,16690,-40,72,-29,-92,37,-320,0,144,0,4,-4,1723,-1,-1,-1,-1,3,369603375,-1220327195,0,65535,65535,2,0,255,0,0,0,0,0,0,10,0,192,0,3,3
RC_CHANNELS_RAW,118611,0,172,992,934,951,172,172,172,1811,255,118591144,90,0,16690,-40,72,-29,-92,37,-320,0,144,0,4,-4,1723,-1,-1,-1,-1,3,369603375,-1220327195,0,65535,65535,2,0,255,0,0,0,0,0,0,10,0,192,0,3,3
RAW_IMU,118611,0,172,992,934,951,172,172,172,1811,255,118611141,53,38,16626,-13,69,-14,-92,37,-320,0,144,0,4,-4,1723,-1,-1,-1,-1,3,369603375,-1220327195,0,65535,65535,2,0,255,0,0,0,0,0,0,10,0,192,0,3,3
RC_CHANNELS_SCALED,118611,1,172,992,934,951,172,172,172,1811,255,118611141,53,38,16626,-13,69,-14,-92,37,-320,0,144,2,-1,5,1729,-1,-1,-1,-1,3,369603375,-1220327195,0,65535,65535,2,0,255,0,0,0,0,0,0,10,0,192,0,3,3
GPS_RAW_INT,118611,1,172,992,934,951,172,172,172,1811,255,118623008,53,38,16626,-13,69,-14,-92,37,-320,0,144,2,-1,5,1729,-1,-1,-1,-1,3,369603375,-1220327193,0,65535,65535,2,0,255,0,0,0,0,0,0,10,0,192,0,3,3
RC_CHANNELS_RAW,118631,0,172,992,934,951,172,172,172,1811,255,118623008,53,38,16626,-13,69,-14,-92,37,-320,0,144,2,-1,5,1729,-1,-1,-1,-1,3,369603375,-1220327193,0,65535,65535,2,0,255,0,0,0,0,0,0,10,0,192,0,3,3
RAW_IMU,118631,0,172,992,934,951,172,172,172,1811,255,118631141,131,79,16617,-45,66,-25,-99,33,-336,0,144,2,-1,5,1729,-1,-1,-1,-1,3,369603375,-1220327193,0,65535,65535,2,0,255,0,0,0,0,0,0,10,0,192,0,3,3
RC_CHANNELS_SCALED,118631,1,172,992,934,951,172,172,172,1811,255,118631141,131,79,16617,-45,66,-25,-99,33,-336,0,144,1,2,-2,1725,-1,-1,-1,-1,3,369603375,-1220327193,0,65535,65535,2,0,255,0,0,0,0,0,0,10,0,192,0,3,3
RC_CHANNELS_RAW,118651,0,172,992,934,951,172,172,172,1811,255,118631141,131,79,16617,-45,66,-25,-99,33,-336,0,144,1,2,-2,1725,-1,-1,-1,-1,3,369603375,-1220327193,0,65535,65535,2,0,255,0,0,0,0,0,0,10,0,192,0,3,3
RAW_IMU,118651,0,172,992,934,951,172,172,172,1811,255,118651148,113,24,16564,-30,77,-23,-93,38,-323,0,208,1,2,-2,1725,-1,-1,-1,-1,3,369603375,-1220327193,0,65535,65535,2,0,255,0,0,0,0,0,0,10,0,192,0,3,3
RC_CHANNELS_SCALED,118651,1,172,992,934,951,172,172,172,1811,255,118651148,113,24,16564,-30,77,-23,-93,38,-323,0,208,3,-2,-3,1724,-1,-1,-1,-1,3,369603375,-1220327193,0,65535,65535,2,0,255,0,0,0,0,0,0,10,0,192,0,3,3
RC_CHANNELS_RAW,118671,0,172,992,934,951,172,172,172,1811,255,118651148,113,24,16564,-30,77,-23,-93,38,-323,0,208,3,-2,-3,1724,-1,-1,-1,-1,3,369603375,-1220327193,0,65535,65535,2,0,255,0,0,0,0,0,0,10,0,192,0,3,3
RAW_IMU,118671,0,172,992,934,951,172,172,172,1811,255,118671145,136,36,16628,-33,71,-14,-93,29,-331,0,208,3,-2,-3,1724,-1,-1,-1,-1,3,369603375,-1220327193,0,65535,65535,2,0,255,0,0,0,0,0,0,10,0,192,0,3,3
RC_CHANNELS_SCALED,118671,1,172,992,934,951,172,172,172,1811,255,118671145,136,36,16628,-33,71,-14,-93,29,-331,0,208,-2,2,0,1726,-1,-1,-1,-1,3,369603375,-1220327193,0,65535,65535,2,0,255,0,0,0,0,0,0,10,0,192,0,3,3
RC_CHANNELS_RAW,118691,0,172,992,934,951,172,172,172,1811,255,118671145,136,36,16628,-33,71,-14,-93,29,-331,0,208,-2,2,0,1726,-1,-1,-1,-1,3,369603375,-1220327193,0,65535,65535,2,0,255,0,0,0,0,0,0,10,0,192,0,3,3
RAW_IMU,118691,0,172,992,934,951,172,172,172,1811,255,118691143,25,25,16671,-38,68,-25,-92,27,-329,0,144,-2,2,0,1726,-1,-1,-1,-1,3,369603375,-1220327193,0,65535,65535,2,0,255,0,0,0,0,0,0,10,0,192,0,3,3
RC_CHANNELS_SCALED,118691,1,172,992,934,951,172,172,172,1811,255,118691143,25,25,16671,-38,68,-25,-92,27,-329,0,144,3,-1,-2,1724,-1,-1,-1,-1,3,369603375,-1220327193,0,65535,65535,2,0,255,0,0,0,0,0,0,10,0,192,0,3,3
RC_CHANNELS_RAW,118711,0,172,992,934,951,172,172,172,1811,255,118691143,25,25,16671,-38,68,-25,-92,27,-329,0,144,3,-1,-2,1724,-1,-1,-1,-1,3,369603375,-1220327193,0,65535,65535,2,0,255,0,0,0,0,0,0,10,0,192,0,3,3
RAW_IMU,118711,0,172,992,934,951,172,172,172,1811,255,118711149,75,50,16654,-31,70,-21,-99,33,-321,0,128,3,-1,-2,1724,-1,-1,-1,-1,3,369603375,-1220327193,0,65535,65535,2,0,255,0,0,0,0,0,0,10,0,192,0,3,3
RC_CHANNELS_SCALED,118711,1,172,992,934,951,172,172,172,1811,255,118711149,75,50,16654,-31,70,-21,-99,33,-321,0,128,1,-2,-2,1726,-1,-1,-1,-1,3,369603375,-1220327193,0,65535,65535,2,0,255,0,0,0,0,0,0,10,0,192,0,3,3
GPS_RAW_INT,118711,1,172,992,934,951,172,172,172,1811,255,118724007,75,50,16654,-31,70,-21,-99,33,-321,0,128,1,-2,-2,1726,-1,-1,-1,-1,3,369603376,-1220327195,0,65535,65535,8,0,255,0,0,0,0,0,0,10,0,192,0,3,3
RC_CHANNELS_RAW,118731,0,172,989,934,951,172,172,172,1811,255,118724007,75,50,16654,-31,70,-21,-99,33,-321,0,128,1,-2,-2,1726,-1,-1,-1,-1,3,369603376,-1220327195,0,65535,65535,8,0,255,0,0,0,0,0,0,10,0,192,0,3,3
RAW_IMU,118731,0,172,989,934,951,172,172,172,1811,255,118731141,45,89,16602,-38,72,-12,-90,49,-327,0,208,1,-2,-2,1726,-1,-1,-1,-1,3,369603376,-1220327195,0,65535,65535,8,0,255,0,0,0,0,0,0,10,0,192,0,3,3
RC_CHANNELS_SCALED,118731,1,172,989,934,951,172,172,172,1811,255,118731141,45,89,16602,-38,72,-12,-90,49,-327,0,208,0,-1,3,1727,-1,-1,-1,-1,3,369603376,-1220327195,0,65535,65535,8,0,255,0,0,0,0,0,0,10,0,192,0,3,3
RC_CHANNELS_RAW,118751,0,172,989,934,952,172,172,172,1811,255,118731141,45,89,16602,-38,72,-12,-90,49,-327,0,208,0,-1,3,1727,-1,-1,-1,-1,3,369603376,-1220327195,0,65535,65535,8,0,255,0,0,0,0,0,0,10,0,192,0,3,3
RAW_IMU,118751,0,172,989,934,952,172,172,172,1811,255,118751143,111,57,16630,-25,67,-14,-99,33,-333,0,128,0,-1,3,1727,-1,-1,-1,-1,3,369603376,-1220327195,0,65535,65535,8,0,255,0,0,0,0,0,0,10,0,192,0,3,3
RC_CHANNELS_SCALED,118751,1,172,989,934,952,172,172,172,1811,255,118751143,111,57,16630,-25,67,-14,-99,33,-333,0,128,0,4,-1,1726,-1,-1,-1,-1,3,369603376,-1220327195,0,65535,65535,8,0,255,0,0,0,0,0,0,10,0,192,0,3,3
RC_CHANNELS_RAW,118771,0,172,992,934,952,172,172,172,1811,255,118751143,111,57,16630,-25,67,-14,-99,33,-333,0,128,0,4,-1,1726,-1,-1,-1,-1,3,369603376,-1220327195,0,65535,65535,8,0,255,0,0,0,0,0,0,10,0,192,0,3,3
RAW_IMU,118771,0,172,992,934,952,172,172,172,1811,255,118771146,87,49,16705,-19,83,-14,-95,20,-327,0,240,0,4,-1,1726,-1,-1,-1,-1,3,369603376,-1220327195,0,65535,65535,8,0,255,0,0,0,0,0,0,10,0,192,0,3,3
RC_CHANNELS_SCALED,118771,1,172,992,934,952,172,172,172,1811,255,118771146,87,49,16705,-19,83,-14,-95,20,-327,0,240,-1,-1,-3,1724,-1,-1,-1,-1,3,369603376,-1220327195,0,65535,65535,8,0,255,0,0,0,0,0,0,10,0,192,0,3,3
RC_CHANNELS_RAW,118791,0,172,992,934,951,172,172,172,1811,255,118771146,87,49,16705,-19,83,-14,-95,20,-327,0,240,-1,-1,-3,1724,-1,-1,-1,-1,3,369603376,-1220327195,0,65535,65535,8,0,255,0,0,0,0,0,0,10,0,192,0,3,3
RAW_IMU,118791,0,172,992,934,951,172,172,172,1811,255,118791145,50,9,16615,-25,62,-24,-95,42,-325,0,144,-1,-1,-3,1724,-1,-1,-1,-1,3,369603376,-1220327195,0,65535,65535,8,0,255,0,0,0,0,0,0,10,0,192,0,3,3
RC_CHANNELS_SCALED,118791,1,172,992,934,951,172,172,172,1811,255,118791145,50,9,16615,-25,62,-24,-95,42,-325,0,144,0,-5,0,1727,-1,-1,-1,-1,3,369603376,-1220327195,0,65535,65535,8,0,255,0,0,0,0,0,0,10,0,192,0,3,3
RC_CHANNELS_RAW,118811,0,172,992,934,951,172,172,172,1811,255,118791145,50,9,16615,-25,62,-24,-95,42,-325,0,144,0,-5,0,1727,-1,-1,-1,-1,3,369603376,-1220327195,0,65535,65535,8,0,255,0,0,0,0,0,0,10,0,192,0,3,3
RAW_IMU,118811,0,172,992,934,951,172,172,172,1811,255,118811146,9,-5,16574,-31,66,-17,-96,36,-336,0,256,0,-5,0,1727,-1,-1,-1,-1,3,369603376,-1220327195,0,65535,65535,8,0,255,0,0,0,0,0,0,10,0,192,0,3,3
RC_CHANNELS_SCALED,118811,1,172,992,934,951,172,172,172,1811,255,118811146,9,-5,16574,-31,66,-17,-96,36,-336,0,256,-2,-3,0,1726,-1,-1,-1,-1,3,369603376,-1220327195,0,65535,65535,8,0,255,0,0,0,0,0,0,10,0,192,0,3,3
GPS_RAW_INT,118811,1,172,992,934,951,172,172,172,1811,255,118825007,9,-5,16574,-31,66,-17,-96,36,-336,0,256,-2,-3,0,1726,-1,-1,-1,-1,3,369603375,-1220327193,0,65535,65535,1,0,255,0,0,0,0,0,0,10,0,192,0,3,3
RC_CHANNELS_RAW,118831,0,172,992,934,952,172,172,172,1811,255,118825007,9,-5,16574,-31,66,-17,-96,36,-336,0,256,-2,-3,0,1726,-1,-1,-1,-1,3,369603375,-1220327193,0,65535,65535,1,0,255,0,0,0,0,0,0,10,0,192,0,3,3
RAW_IMU,118831,0,172,992,934,952,172,172,172,1811,255,118831145,99,-17,16614,-29,65,-16,-90,27,-329,0,192,-2,-3,0,1726,-1,-1,-1,-1,3,369603375,-1220327193,0,65535,65535,1,0,255,0,0,0,0,0,0,10,0,192,0,3,3
RC_CHANNELS_SCALED,118831,1,172,992,934,952,172,172,172,1811,255,118831145,99,-17,16614,-29,65,-16,-90,27,-329,0,192,-1,-1,1,1726,-1,-1,-1,-1,3,369603375,-1220327193,0,65535,65535,1,0,255,0,0,0,0,0,0,10,0,192,0,3,3
RC_CHANNELS_RAW,118851,0,172,992,934,951,172,172,172,1811,255,118831145,99,-17,16614,-29,65,-16,-90,27,-329,0,192,-1,-1,1,1726,-1,-1,-1,-1,3,369603375,-1220327193,0,65535,65535,1,0,255,0,0,0,0,0,0,10,0,192,0,3,3
RAW_IMU,118851,0,172,992,934,951,172,172,172,1811,255,118851141,143,-32,16744,-27,65,-21,-91,31,-323,0,240,-1,-1,1,1726,-1,-1,-1,-1,3,369603375,-1220327193,0,65535,65535,1,0,255,0,0,0,0,0,0,10,0,192,0,3,3
RC_CHANNELS_SCALED,118851,1,172,992,934,951,172,172,172,1811,255,118851141,143,-32,16744,-27,65,-21,-91,31,-323,0,240,-4,-3,-1,1726,-1,-1,-1,-1,3,369603375,-1220327193,0,65535,65535,1,0,255,0,0,0,0,0,0,10,0,192,0,3,3
RC_CHANNELS_RAW,118871,0,172,992,934,951,172,172,172,1811,255,118851141,143,-32,16744,-27,65,-21,-91,31,-323,0,240,-4,-3,-1,1726,-1,-1,-1,-1,3,369603375,-1220327193,0,65535,65535,1,0,255,0,0,0,0,0,0,10,0,192,0,3,3
RAW_IMU,118871,0,172,992,934,951,172,172,172,1811,255,118871143,50,37,16663,-41,66,-23,-93,31,-336,0,208,-4,-3,-1,1726,-1,-1,-1,-1,3,369603375,-1220327193,0,65535,65535,1,0,255,0,0,0,0,0,0,10,0,192,0,3,3
RC_CHANNELS_SCALED,118871,1,172,992,934,951,172,172,172,1811,255,118871143,50,37,16663,-41,66,-23,-93,31,-336,0,208,0,-1,0,1724,-1,-1,-1,-1,3,369603375,-1220327193,0,65535,65535,1,0,255,0,0,0,0,0,0,10,0,192,0,3,3
RC_CHANNELS_RAW,118891,0,172,992,934,952,172,172,172,1811,255,118871143,50,37,16663,-41,66,-23,-93,31,-336,0,208,0,-1,0,1724,-1,-1,-1,-1,3,369603375,-1220327193,0,65535,65535,1,0,255,0,0,0,0,0,0,10,0,192,0,3,3
RAW_IMU,118891,0,172,992,934,952,172,172,172,1811,255,118891145,151,23,16722,-24,68,-9,-99,26,-328,0,192,0,-1,0,1724,-1,-1,-1,-1,3,369603375,-1220327193,0,65535,65535,1,0,255,0,0,0,0,0,0,10,0,192,0,3,3
RC_CHANNELS_SCALED,118891,1,172,992,934,952,172,172,172,1811,255,118891145,151,23,16722,-24,68,-9,-99,26,-328,0,192,0,4,-1,1725,-1,-1,-1,-1,3,369603375,-1220327193,0,65535,65535,1,0,255,0,0,0,0,0,0,10,0,192,0,3,3
RC_CHANNELS_RAW,118911,0,172,992,934,951,172,172,172,1811,255,118891145,151,23,16722,-24,68,-9,-99,26,-328,0,192,0,4,-1,1725,-1,-1,-1,-1,3,369603375,-1220327193,0,65535,65535,1,0,255,0,0,0,0,0,0,10,0,192,0,3,3
RAW_IMU,118911,0,172,992,934,951,172,172,172,1811,255,118911143,48,32,16632,-33,76,-16,-100,30,-329,0,176,0,4,-1,1725,-1,-1,-1,-1,3,369603375,-1220327193,0,65535,65535,1,0,255,0,0,0,0,0,0,10,0,192,0,3,3
RC_CHANNELS_SCALED,118911,1,172,992,934,951,172,172,172,1811,255,118911143,48,32,16632,-33,76,-16,-100,30,-329,0,176,0,-1,0,1726,-1,-1,-1,-1,3,369603375,-1220327193,0,65535,65535,1,0,255,0,0,0,0,0,0,10,0,192,0,3,3
GPS_RAW_INT,118911,1,172,992,934,951,172,172,172,1811,255,118926008,48,32,16632,-33,76,-16,-100,30,-329,0,176,0,-1,0,1726,-1,-1,-1,-1,3,369603375,-1220327193,0,65535,65535,2,0,255,0,0,0,0,0,0,10,0,192,0,3,3
RC_CHANNELS_RAW,118931,0,172,992,934,951,172,172,172,1811,255,118926008,48,32,16632,-33,76,-16,-100,30,-329,0,176,0,-1,0,1726,-1,-1,-1,-1,3,369603375,-1220327193,0,65535,65535,2,0,255,0,0,0,0,0,0,10,0,192,0,3,3
RAW_IMU,118931,0,172,992,934,951,172,172,172,1811,255,118931144,136,-35,16621,-30,58,-15,-93,31,-326,0,208,0,-1,0,1726,-1,-1,-1,-1,3,369603375,-1220327193,0,65535,65535,2,0,255,0,0,0,0,0,0,10,0,192,0,3,3
RC_CHANNELS_SCALED,118931,1,172,992,934,951,172,172,172,1811,255,118931144,136,-35,16621,-30,58,-15,-93,31,-326,0,208,1,5,0,1725,-1,-1,-1,-1,3,369603375,-1220327193,0,65535,65535,2,0,255,0,0,0,0,0,0,10,0,192,0,3,3
RC_CHANNELS_RAW,118951,0,172,992,934,951,172,172,172,1811,255,118931144,136,-35,16621,-30,58,-15,-93,31,-326,0,208,1,5,0,1725,-1,-1,-1,-1,3,369603375,-1220327193,0,65535,65535,2,0,255,0,0,0,0,0,0,10,0,192,0,3,3
RAW_IMU,118951,0,172,992,934,951,172,172,172,1811,255,118951153,31,10,16658,-42,70,-27,-93,31,-343,0,240,1,5,0,1725,-1,-1,-1,-1,3,369603375,-1220327193,0,65535,65535,2,0,255,0,0,0,0,0,0,10,0,192,0,3,3
RC_CHANNELS_SCALED,118951,1,172,992,934,951,172,172,172,1811,255,118951153,31,10,16658,-42,70,-27,-93,31,-343,0,240,-5,0,1,1725,-1,-1,-1,-1,3,369603375,-1220327193,0,65535,65535,2,0,255,0,0,0,0,0,0,10,0,192,0,3,3
RC_CHANNELS_RAW,118971,0,172,989,934,952,172,172,172,1811,255,118951153,31,10,16658,-42,70,-27,-93,31,-343,0,240,-5,0,1,1725,-1,-1,-1,-1,3,369603375,-1220327193,0,65535,65535,2,0,255,0,0,0,0,0,0,10,0,192,0,3,3
RAW_IMU,118971,0,172,989,934,952,172,172,172,1811,255,118971143,69,22,16645,-25,58,-28,-96,31,-333,0,128,-5,0,1,1725,-1,-1,-1,-1,3,369603375,-1220327193,0,65535,65535,2,0,255,0,0,0,0,0,0,10,0,192,0,3,3
RC_CHANNELS_SCALED,118971,1,172,989,934,952,172,172,172,1811,255,118971143,69,22,16645,-25,58,-28,-96,31,-333,0,128,1,-1,0,1726,-1,-1,-1,-1,3,369603375,-1220327193,0,65535,65535,2,0,255,0,0,0,0,0,0,10,0,192,0,3,3
RC_CHANNELS_RAW,118991,0,172,992,934,951,172,172,172,1811,255,118971143,69,22,16645,-25,58,-28,-96,31,-333,0,128,1,-1,0,1726,-1,-1,-1,-1,3,369603375,-1220327193,0,65535,65535,2,0,255,0,0,0,0,0,0,10,0,192,0,3,3
RAW_IMU,118991,0,172,992,934,951,172,172,172,1811,255,118991141,88,-16,16672,-38,65,-28,-96,31,-326,0,256,1,-1,0,1726,-1,-1,-1,-1,3,369603375,-1220327193,0,65535,65535,2,0,255,0,0,0,0,0,0,10,0,192,0,3,3
RC_CHANNELS_SCALED,118991,1,172,992,934,951,172,172,172,1811,255,118991141,88,-16,16672,-38,65,-28,-96,31,-326,0,256,4,-3,0,1727,-1,-1,-1,-1,3,369603375,-1220327193,0,65535,65535,2,0,255,0,0,0,0,0,0,10,0,192,0,3,3
HEARTBEAT,118991,1,172,992,934,951,172,172,172,1811,255,118991141,88,-16,16672,-38,65,-28,-96,31,-326,0,256,4,-3,0,1727,-1,-1,-1,-1,3,369603375,-1220327193,0,65535,65535,2,0,255,0,0,0,0,0,0,10,0,192,0,3,3
RC_CHANNELS_RAW,119011,0,172,992,934,951,172,172,172,1811,255,118991141,88,-16,16672,-38,65,-28,-96,31,-326,0,256,4,-3,0,1727,-1,-1,-1,-1,3,369603375,-1220327193,0,65535,65535,2,0,255,0,0,0,0,0,0,10,0,192,0,3,3
RAW_IMU,119011,0,172,992,934,951,172,172,172,1811,255,119011141,86,11,16585,-28,63,-26,-96,31,-333,0,208,4,-3,0,1727,-1,-1,-1,-1,3,369603375,-1220327193,0,65535,65535,2,0,255,0,0,0,0,0,0,10,0,192,0,3,3
RC_CHANNELS_SCALED,119011,1,172,992,934,951,172,172,172,1811,255,119011141,86,11,16585,-28,63,-26,-96,31,-333,0,208,0,4,0,1727,-1,-1,-1,-1,3,369603375,-1220327193,0,65535,65535,2,0,255,0,0,0,0,0,0,10,0,192,0,3,3
GPS_RAW_INT,119011,1,172,992,934,951,172,172,172,1811,255,119027009,86,11,16585,-28,63,-26,-96,31,-333,0,208,0,4,0,1727,-1,-1,-1,-1,3,369603375,-1220327193,0,65535,65535,1,0,255,0,0,0,0,0,0,10,0,192,0,3,3
