mavpackettype,time_boot_ms,port,chan1_raw,chan2_raw,chan3_raw,chan4_raw,chan5_raw,chan6_raw,chan7_raw,chan8_raw,rssi,time_usec,xacc,yacc,zacc,xgyro,ygyro,zgyro,xmag,ymag,zmag,id,temperature,chan1_scaled,chan2_scaled,chan3_scaled,chan4_scaled,chan5_scaled,chan6_scaled,chan7_scaled,chan8_scaled,fix_type,lat,lon,alt,eph,epv,vel,cog,satellites_visible,alt_ellipsoid,h_acc,v_acc,vel_acc,hdg_acc,yaw,type,autopilot,base_mode,custom_mode,system_status,mavlink_version
RC_CHANNELS_SCALED,216051,1,172,992,934,973,172,172,172,1811,255,216051150,-207,-19,16654,-49,60,-16,-31,46,-358,0,2080,-2,-3,0,1688,-1,-1,-1,-1,3,369604103,-1220329473,0,65535,65535,8,0,255,0,0,0,0,0,0,10,0,192,0,3,3
RC_CHANNELS_RAW,216071,0,172,992,934,952,172,172,172,1811,255,216051150,-207,-19,16654,-49,60,-16,-31,46,-358,0,2080,-2,-3,0,1688,-1,-1,-1,-1,3,369604103,-1220329473,0,65535,65535,8,0,255,0,0,0,0,0,0,10,0,192,0,3,3
RAW_IMU,216071,0,172,992,934,952,172,172,172,1811,255,216071143,-216,-96,16673,-42,71,-16,-33,48,-353,0,2128,-2,-3,0,1688,-1,-1,-1,-1,3,369604103,-1220329473,0,65535,65535,8,0,255,0,0,0,0,0,0,10,0,192,0,3,3
RC_CHANNELS_SCALED,216071,1,172,992,934,952,172,172,172,1811,255,216071143,-216,-96,16673,-42,71,-16,-33,48,-353,0,2128,1,2,-2,1688,-1,-1,-1,-1,3,369604103,-1220329473,0,65535,65535,8,0,255,0,0,0,0,0,0,10,0,192,0,3,3
GPS_RAW_INT,216071,1,172,992,934,952,172,172,172,1811,255,216088006,-216,-96,16673,-42,71,-16,-33,48,-353,0,2128,1,2,-2,1688,-1,-1,-1,-1,3,369604106,-1220329473,0,65535,65535,9,0,255,0,0,0,0,0,0,10,0,192,0,3,3
RC_CHANNELS_RAW,216091,0,172,992,934,952,172,172,172,1811,255,216088006,-216,-96,16673,-42,71,-16,-33,48,-353,0,2128,1,2,-2,1688,-1,-1,-1,-1,3,369604106,-1220329473,0,65535,65535,9,0,255,0,0,0,0,0,0,10,0,192,0,3,3
RAW_IMU,216091,0,172,992,934,952,172,172,172,1811,255,216091143,-132,-33,16651,-42,59,-4,-24,44,-356,0,2112,1,2,-2,1688,-1,-1,-1,-1,3,369604106,-1220329473,0,65535,65535,9,0,255,0,0,0,0,0,0,10,0,192,0,3,3
RC_CHANNELS_SCALED,216091,1,172,992,934,952,172,172,172,1811,255,216091143,-132,-33,16651,-42,59,-4,-24,44,-356,0,2112,-2,1,1,1688,-1,-1,-1,-1,3,369604106,-1220329473,0,65535,65535,9,0,255,0,0,0,0,0,0,10,0,192,0,3,3
RC_CHANNELS_RAW,216111,0,172,992,934,952,172,172,172,1811,255,216091143,-132,-33,16651,-42,59,-4,-24,44,-356,0,2112,-2,1,1,1688,-1,-1,-1,-1,3,369604106,-1220329473,0,65535,65535,9,0,255,0,0,0,0,0,0,10,0,192,0,3,3
RAW_IMU,216111,0,172,992,934,952,172,172,172,1811,255,216111141,-184,-132,16592,-57,62,-28,-43,49,-364,0,2064,-2,1,1,1688,-1,-1,-1,-1,3,369604106,-1220329473,0,65535,65535,9,0,255,0,0,0,0,0,0,10,0,192,0,3,3
RC_CHANNELS_SCALED,216111,1,172,992,934,952,172,172,172,1811,255,216111141,-184,-132,16592,-57,62,-28,-43,49,-364,0,2064,4,-1,3,1690,-1,-1,-1,-1,3,369604106,-1220329473,0,65535,65535,9,0,255,0,0,0,0,0,0,10,0,192,0,3,3
RC_CHANNELS_RAW,216131,0,172,992,934,951,172,172,172,1811,255,216111141,-184,-132,16592,-57,62,-28,-43,49,-364,0,2064,4,-1,3,1690,-1,-1,-1,-1,3,369604106,-1220329473,0,65535,65535,9,0,255,0,0,0,0,0,0,10,0,192,0,3,3
RAW_IMU,216131,0,172,992,934,951,172,172,172,1811,255,216131144,-220,-164,16677,-55,52,-12,-32,47,-354,0,2112,4,-1,3,1690,-1,-1,-1,-1,3,369604106,-1220329473,0,65535,65535,9,0,255,0,0,0,0,0,0,10,0,192,0,3,3
RC_CHANNELS_SCALED,216131,1,172,992,934,951,172,172,172,1811,255,216131144,-220,-164,16677,-55,52,-12,-32,47,-354,0,2112,-3,0,-1,1687,-1,-1,-1,-1,3,369604106,-1220329473,0,65535,65535,9,0,255,0,0,0,0,0,0,10,0,192,0,3,3
RC_CHANNELS_RAW,216151,0,172,992,934,951,172,172,172,1811,255,216131144,-220,-164,16677,-55,52,-12,-32,47,-354,0,2112,-3,0,-1,1687,-1,-1,-1,-1,3,369604106,-1220329473,0,65535,65535,9,0,255,0,0,0,0,0,0,10,0,192,0,3,3
RAW_IMU,216151,0,172,992,934,951,172,172,172,1811,255,216151146,-160,-86,16655,-43,49,-21,-23,48,-355,0,2080,-3,0,-1,1687,-1,-1,-1,-1,3,369604106,-1220329473,0,65535,65535,9,0,255,0,0,0,0,0,0,10,0,192,0,3,3
RC_CHANNELS_SCALED,216151,1,172,992,934,951,172,172,172,1811,255,216151146,-160,-86,16655,-43,49,-21,-23,48,-355,0,2080,-2,1,1,1688,-1,-1,-1,-1,3,369604106,-1220329473,0,65535,65535,9,0,255,0,0,0,0,0,0,10,0,192,0,3,3
RC_CHANNELS_RAW,216171,0,172,992,933,951,172,172,172,1811,255,216151146,-160,-86,16655,-43,49,-21,-23,48,-355,0,2080,-2,1,1,1688,-1,-1,-1,-1,3,369604106,-1220329473,0,65535,65535,9,0,255,0,0,0,0,0,0,10,0,192,0,3,3
RAW_IMU,216171,0,172,992,933,951,172,172,172,1811,255,216171149,-157,-60,16642,-42,54,-5,-31,50,-355,0,2128,-2,1,1,1688,-1,-1,-1,-1,3,369604106,-1220329473,0,65535,65535,9,0,255,0,0,0,0,0,0,10,0,192,0,3,3
RC_CHANNELS_SCALED,216171,1,172,992,933,951,172,172,172,1811,255,216171149,-157,-60,16642,-42,54,-5,-31,50,-355,0,2128,-3,2,0,1686,-1,-1,-1,-1,3,369604106,-1220329473,0,65535,65535,9,0,255,0,0,0,0,0,0,10,0,192,0,3,3
GPS_RAW_INT,216171,1,172,992,933,951,172,172,172,1811,255,216189006,-157,-60,16642,-42,54,-5,-31,50,-355,0,2128,-3,2,0,1686,-1,-1,-1,-1,3,369604106,-1220329473,0,65535,65535,9,0,255,0,0,0,0,0,0,10,0,192,0,3,3
RC_CHANNELS_RAW,216191,0,172,992,933,951,172,172,172,1811,255,216189006,-157,-60,16642,-42,54,-5,-31,50,-355,0,2128,-3,2,0,1686,-1,-1,-1,-1,3,369604106,-1220329473,0,65535,65535,9,0,255,0,0,0,0,0,0,10,0,192,0,3,3
RAW_IMU,216191,0,172,992,933,951,172,172,172,1811,255,216191146,-170,-101,16697,-44,62,-17,-30,44,-349,0,2080,-3,2,0,1686,-1,-1,-1,-1,3,369604106,-1220329473,0,65535,65535,9,0,255,0,0,0,0,0,0,10,0,192,0,3,3
RC_CHANNELS_SCALED,216191,1,172,992,933,951,172,172,172,1811,255,216191146,-170,-101,16697,-44,62,-17,-30,44,-349,0,2080,0,3,0,1688,-1,-1,-1,-1,3,369604106,-1220329473,0,65535,65535,9,0,255,0,0,0,0,0,0,10,0,192,0,3,3
RC_CHANNELS_RAW,216211,0,172,992,933,951,172,172,172,1811,255,216191146,-170,-101,16697,-44,62,-17,-30,44,-349,0,2080,0,3,0,1688,-1,-1,-1,-1,3,369604106,-1220329473,0,65535,65535,9,0,255,0,0,0,0,0,0,10,0,192,0,3,3
RAW_IMU,216211,0,172,992,933,951,172,172,172,1811,255,216211141,-189,-73,16681,-50,63,-9,-39,48,-355,0,2128,0,3,0,1688,-1,-1,-1,-1,3,369604106,-1220329473,0,65535,65535,9,0,255,0,0,0,0,0,0,10,0,192,0,3,3
RC_CHANNELS_SCALED,216211,1,172,992,933,951,172,172,172,1811,255,216211141,-189,-73,16681,-50,63,-9,-39,48,-355,0,2128,0,-1,1,1688,-1,-1,-1,-1,3,369604106,-1220329473,0,65535,65535,9,0,255,0,0,0,0,0,0,10,0,192,0,3,3
RC_CHANNELS_RAW,216231,0,172,992,933,951,172,172,172,1811,255,216211141,-189,-73,16681,-50,63,-9,-39,48,-355,0,2128,0,-1,1,1688,-1,-1,-1,-1,3,369604106,-1220329473,0,65535,65535,9,0,255,0,0,0,0,0,0,10,0,192,0,3,3
RAW_IMU,216231,0,172,992,933,951,172,172,172,1811,255,216231144,-180,-54,16751,-34,61,-28,-39,55,-348,0,2128,0,-1,1,1688,-1,-1,-1,-1,3,369604106,-1220329473,0,65535,65535,9,0,255,0,0,0,0,0,0,10,0,192,0,3,3
RC_CHANNELS_SCALED,216231,1,172,992,933,951,172,172,172,1811,255,216231144,-180,-54,16751,-34,61,-28,-39,55,-348,0,2128,0,1,-1,1688,-1,-1,-1,-1,3,369604106,-1220329473,0,65535,65535,9,0,255,0,0,0,0,0,0,10,0,192,0,3,3
RC_CHANNELS_RAW,216251,0,172,992,933,950,172,172,172,1811,255,216231144,-180,-54,16751,-34,61,-28,-39,55,-348,0,2128,0,1,-1,1688,-1,-1,-1,-1,3,369604106,-1220329473,0,65535,65535,9,0,255,0,0,0,0,0,0,10,0,192,0,3,3
RAW_IMU,216251,0,172,992,933,950,172,172,172,1811,255,216251142,-156,-138,16656,-44,67,-9,-28,41,-355,0,2176,0,1,-1,1688,-1,-1,-1,-1,3,369604106,-1220329473,0,65535,65535,9,0,255,0,0,0,0,0,0,10,0,192,0,3,3
RC_CHANNELS_SCALED,216251,1,172,992,933,950,172,172,172,1811,255,216251142,-156,-138,16656,-44,67,-9,-28,41,-355,0,2176,-2,-2,-1,1688,-1,-1,-1,-1,3,369604106,-1220329473,0,65535,65535,9,0,255,0,0,0,0,0,0,10,0,192,0,3,3
RC_CHANNELS_RAW,216271,0,172,992,934,951,172,172,172,1811,255,216251142,-156,-138,16656,-44,67,-9,-28,41,-355,0,2176,-2,-2,-1,1688,-1,-1,-1,-1,3,369604106,-1220329473,0,65535,65535,9,0,255,0,0,0,0,0,0,10,0,192,0,3,3
RAW_IMU,216271,0,172,992,934,951,172,172,172,1811,255,216271144,-202,-79,16713,-35,55,5,-39,48,-363,0,2064,-2,-2,-1,1688,-1,-1,-1,-1,3,369604106,-1220329473,0,65535,65535,9,0,255,0,0,0,0,0,0,10,0,192,0,3,3
RC_CHANNELS_SCALED,216271,1,172,992,934,951,172,172,172,1811,255,216271144,-202,-79,16713,-35,55,5,-39,48,-363,0,2064,-1,-1,3,1688,-1,-1,-1,-1,3,369604106,-1220329473,0,65535,65535,9,0,255,0,0,0,0,0,0,10,0,192,0,3,3
GPS_RAW_INT,216271,1,172,992,934,951,172,172,172,1811,255,216290006,-202,-79,16713,-35,55,5,-39,48,-363,0,2064,-1,-1,3,1688,-1,-1,-1,-1,3,369604105,-1220329475,0,65535,65535,7,0,255,0,0,0,0,0,0,10,0,192,0,3,3
RC_CHANNELS_RAW,216291,0,172,992,933,950,172,172,172,1811,255,216290006,-202,-79,16713,-35,55,5,-39,48,-363,0,2064,-1,-1,3,1688,-1,-1,-1,-1,3,369604105,-1220329475,0,65535,65535,7,0,255,0,0,0,0,0,0,10,0,192,0,3,3
RAW_IMU,216291,0,172,992,933,950,172,172,172,1811,255,216291155,-239,-98,16669,-45,65,-22,-30,42,-352,0,2080,-1,-1,3,1688,-1,-1,-1,-1,3,369604105,-1220329475,0,65535,65535,7,0,255,0,0,0,0,0,0,10,0,192,0,3,3
RC_CHANNELS_SCALED,216291,1,172,992,933,950,172,172,172,1811,255,216291155,-239,-98,16669,-45,65,-22,-30,42,-352,0,2080,-1,-1,4,1690,-1,-1,-1,-1,3,369604105,-1220329475,0,65535,65535,7,0,255,0,0,0,0,0,0,10,0,192,0,3,3
RC_CHANNELS_RAW,216311,0,172,992,934,950,172,172,172,1811,255,216291155,-239,-98,16669,-45,65,-22,-30,42,-352,0,2080,-1,-1,4,1690,-1,-1,-1,-1,3,369604105,-1220329475,0,65535,65535,7,0,255,0,0,0,0,0,0,10,0,192,0,3,3
RAW_IMU,216311,0,172,992,934,950,172,172,172,1811,255,216311144,-142,-159,16666,-54,76,-18,-32,49,-354,0,2000,-1,-1,4,1690,-1,-1,-1,-1,3,369604105,-1220329475,0,65535,65535,7,0,255,0,0,0,0,0,0,10,0,192,0,3,3
RC_CHANNELS_SCALED,216311,1,172,992,934,950,172,172,172,1811,255,216311144,-142,-159,16666,-54,76,-18,-32,49,-354,0,2000,1,-1,-1,1686,-1,-1,-1,-1,3,369604105,-1220329475,0,65535,65535,7,0,255,0,0,0,0,0,0,10,0,192,0,3,3
RC_CHANNELS_RAW,216331,0,172,992,934,950,172,172,172,1811,255,216311144,-142,-159,16666,-54,76,-18,-32,49,-354,0,2000,1,-1,-1,1686,-1,-1,-1,-1,3,369604105,-1220329475,0,65535,65535,7,0,255,0,0,0,0,0,0,10,0,192,0,3,3
RAW_IMU,216331,0,172,992,934,950,172,172,172,1811,255,216331142,-150,-96,16589,-33,70,-23,-22,52,-356,0,2128,1,-1,-1,1686,-1,-1,-1,-1,3,369604105,-1220329475,0,65535,65535,7,0,255,0,0,0,0,0,0,10,0,192,0,3,3
RC_CHANNELS_SCALED,216331,1,172,992,934,950,172,172,172,1811,255,216331142,-150,-96,16589,-33,70,-23,-22,52,-356,0,2128,-3,-1,2,1688,-1,-1,-1,-1,3,369604105,-1220329475,0,65535,65535,7,0,255,0,0,0,0,0,0,10,0,192,0,3,3
RC_CHANNELS_RAW,216351,0,172,992,934,950,172,172,172,1811,255,216331142,-150,-96,16589,-33,70,-23,-22,52,-356,0,2128,-3,-1,2,1688,-1,-1,-1,-1,3,369604105,-1220329475,0,65535,65535,7,0,255,0,0,0,0,0,0,10,0,192,0,3,3
RAW_IMU,216351,0,172,992,934,950,172,172,172,1811,255,216351144,-114,-117,16694,-43,51,-17,-27,49,-354,0,2064,-3,-1,2,1688,-1,-1,-1,-1,3,369604105,-1220329475,0,65535,65535,7,0,255,0,0,0,0,0,0,10,0,192,0,3,3
RC_CHANNELS_SCALED,216351,1,172,992,934,950,172,172,172,1811,255,216351144,-114,-117,16694,-43,51,-17,-27,49,-354,0,2064,1,3,-3,1687,-1,-1,-1,-1,3,369604105,-1220329475,0,65535,65535,7,0,255,0,0,0,0,0,0,10,0,192,0,3,3
RC_CHANNELS_RAW,216371,0,172,992,934,963,172,172,172,1811,255,216351144,-114,-117,16694,-43,51,-17,-27,49,-354,0,2064,1,3,-3,1687,-1,-1,-1,-1,3,369604105,-1220329475,0,65535,65535,7,0,255,0,0,0,0,0,0,10,0,192,0,3,3
RAW_IMU,216371,0,172,992,934,963,172,172,172,1811,255,216371142,-204,-89,16688,-38,71,-15,-31,43,-353,0,2112,1,3,-3,1687,-1,-1,-1,-1,3,369604105,-1220329475,0,65535,65535,7,0,255,0,0,0,0,0,0,10,0,192,0,3,3
RC_CHANNELS_SCALED,216371,1,172,992,934,963,172,172,172,1811,255,216371142,-204,-89,16688,-38,71,-15,-31,43,-353,0,2112,1,-1,0,1689,-1,-1,-1,-1,3,369604105,-1220329475,0,65535,65535,7,0,255,0,0,0,0,0,0,10,0,192,0,3,3
RC_CHANNELS_RAW,216391,0,172,992,934,978,172,172,172,1811,255,216371142,-204,-89,16688,-38,71,-15,-31,43,-353,0,2112,1,-1,0,1689,-1,-1,-1,-1,3,369604105,-1220329475,0,65535,65535,7,0,255,0,0,0,0,0,0,10,0,192,0,3,3
RAW_IMU,216391,0,172,992,934,978,172,172,172,1811,255,216391146,-184,-49,16636,-59,68,-16,-40,39,-356,0,2064,1,-1,0,1689,-1,-1,-1,-1,3,369604105,-1220329475,0,65535,65535,7,0,255,0,0,0,0,0,0,10,0,192,0,3,3
RC_CHANNELS_SCALED,216391,1,172,992,934,978,172,172,172,1811,255,216391146,-184,-49,16636,-59,68,-16,-40,39,-356,0,2064,-3,-2,3,1689,-1,-1,-1,-1,3,369604105,-1220329475,0,65535,65535,7,0,255,0,0,0,0,0,0,10,0,192,0,3,3
GPS_RAW_INT,216391,1,172,992,934,978,172,172,172,1811,255,216391431,-184,-49,16636,-59,68,-16,-40,39,-356,0,2064,-3,-2,3,1689,-1,-1,-1,-1,3,369604105,-1220329475,0,65535,65535,7,0,255,0,0,0,0,0,0,10,0,192,0,3,3
RC_CHANNELS_RAW,216411,0,172,992,934,995,172,172,172,1811,255,216391431,-184,-49,16636,-59,68,-16,-40,39,-356,0,2064,-3,-2,3,1689,-1,-1,-1,-1,3,369604105,-1220329475,0,65535,65535,7,0,255,0,0,0,0,0,0,10,0,192,0,3,3
RAW_IMU,216411,0,172,992,934,995,172,172,172,1811,255,216411180,-197,-88,16698,-52,58,-23,-32,52,-352,0,2128,-3,-2,3,1689,-1,-1,-1,-1,3,369604105,-1220329475,0,65535,65535,7,0,255,0,0,0,0,0,0,10,0,192,0,3,3
RC_CHANNELS_SCALED,216411,1,172,992,934,995,172,172,172,1811,255,216411180,-197,-88,16698,-52,58,-23,-32,52,-352,0,2128,0,0,3,1690,-1,-1,-1,-1,3,369604105,-1220329475,0,65535,65535,7,0,255,0,0,0,0,0,0,10,0,192,0,3,3
RC_CHANNELS_RAW,216431,0,172,992,933,1013,172,172,172,1811,255,216411180,-197,-88,16698,-52,58,-23,-32,52,-352,0,2128,0,0,3,1690,-1,-1,-1,-1,3,369604105,-1220329475,0,65535,65535,7,0,255,0,0,0,0,0,0,10,0,192,0,3,3
RAW_IMU,216431,0,172,992,933,1013,172,172,172,1811,255,216431149,-238,-96,16674,-33,59,-6,-31,48,-360,0,2016,0,0,3,1690,-1,-1,-1,-1,3,369604105,-1220329475,0,65535,65535,7,0,255,0,0,0,0,0,0,10,0,192,0,3,3
RC_CHANNELS_SCALED,216431,1,172,992,933,1013,172,172,172,1811,255,216431149,-238,-96,16674,-33,59,-6,-31,48,-360,0,2016,3,-2,-4,1685,-1,-1,-1,-1,3,369604105,-1220329475,0,65535,65535,7,0,255,0,0,0,0,0,0,10,0,192,0,3,3
RC_CHANNELS_RAW,216451,0,172,992,933,1050,172,172,172,1811,255,216431149,-238,-96,16674,-33,59,-6,-31,48,-360,0,2016,3,-2,-4,1685,-1,-1,-1,-1,3,369604105,-1220329475,0,65535,65535,7,0,255,0,0,0,0,0,0,10,0,192,0,3,3
RAW_IMU,216451,0,172,992,933,1050,172,172,172,1811,255,216451143,-162,-126,16674,-25,79,-6,-31,41,-345,0,2032,3,-2,-4,1685,-1,-1,-1,-1,3,369604105,-1220329475,0,65535,65535,7,0,255,0,0,0,0,0,0,10,0,192,0,3,3
RC_CHANNELS_SCALED,216451,1,172,992,933,1050,172,172,172,1811,255,216451143,-162,-126,16674,-25,79,-6,-31,41,-345,0,2032,-4,-2,-1,1687,-1,-1,-1,-1,3,369604105,-1220329475,0,65535,65535,7,0,255,0,0,0,0,0,0,10,0,192,0,3,3
RC_CHANNELS_RAW,216471,0,172,992,934,1097,172,172,172,1811,255,216451143,-162,-126,16674,-25,79,-6,-31,41,-345,0,2032,-4,-2,-1,1687,-1,-1,-1,-1,3,369604105,-1220329475,0,65535,65535,7,0,255,0,0,0,0,0,0,10,0,192,0,3,3
RAW_IMU,216471,0,172,992,934,1097,172,172,172,1811,255,216471146,-160,-57,16663,-33,60,-10,-22,37,-361,0,2112,-4,-2,-1,1687,-1,-1,-1,-1,3,369604105,-1220329475,0,65535,65535,7,0,255,0,0,0,0,0,0,10,0,192,0,3,3
RC_CHANNELS_SCALED,216471,1,172,992,934,1097,172,172,172,1811,255,216471146,-160,-57,16663,-33,60,-10,-22,37,-361,0,2112,1,1,-2,1687,-1,-1,-1,-1,3,369604105,-1220329475,0,65535,65535,7,0,255,0,0,0,0,0,0,10,0,192,0,3,3
RC_CHANNELS_RAW,216491,0,172,992,934,1142,172,172,172,1811,255,216471146,-160,-57,16663,-33,60,-10,-22,37,-361,0,2112,1,1,-2,1687,-1,-1,-1,-1,3,369604105,-1220329475,0,65535,65535,7,0,255,0,0,0,0,0,0,10,0,192,0,3,3
RAW_IMU,216491,0,172,992,934,1142,172,172,172,1811,255,216491144,-209,-126,16645,-45,61,-15,-28,46,-370,0,2000,1,1,-2,1687,-1,-1,-1,-1,3,369604105,-1220329475,0,65535,65535,7,0,255,0,0,0,0,0,0,10,0,192,0,3,3
RC_CHANNELS_SCALED,216491,1,172,992,934,1142,172,172,172,1811,255,216491144,-209,-126,16645,-45,61,-15,-28,46,-370,0,2000,1,4,2,1690,-1,-1,-1,-1,3,369604105,-1220329475,0,65535,65535,7,0,255,0,0,0,0,0,0,10,0,192,0,3,3
GPS_RAW_INT,216491,1,172,992,934,1142,172,172,172,1811,255,216492007,-209,-126,16645,-45,61,-15,-28,46,-370,0,2000,1,4,2,1690,-1,-1,-1,-1,3,369604105,-1220329475,0,65535,65535,8,0,255,0,0,0,0,0,0,10,0,192,0,3,3
RC_CHANNELS_RAW,216511,0,172,992,934,1158,172,172,172,1811,255,216492007,-209,-126,16645,-45,61,-15,-28,46,-370,0,2000,1,4,2,1690,-1,-1,-1,-1,3,369604105,-1220329475,0,65535,65535,8,0,255,0,0,0,0,0,0,10,0,192,0,3,3
RAW_IMU,216511,0,172,992,934,1158,172,172,172,1811,255,216511145,-187,-112,16681,-38,62,-24,-30,44,-359,0,2128,1,4,2,1690,-1,-1,-1,-1,3,369604105,-1220329475,0,65535,65535,8,0,255,0,0,0,0,0,0,10,0,192,0,3,3
RC_CHANNELS_SCALED,216511,1,172,992,934,1158,172,172,172,1811,255,216511145,-187,-112,16681,-38,62,-24,-30,44,-359,0,2128,-2,10,11,1705,-1,-1,-1,-1,3,369604105,-1220329475,0,65535,65535,8,0,255,0,0,0,0,0,0,10,0,192,0,3,3
RC_CHANNELS_RAW,216531,0,172,992,933,1212,172,172,172,1811,255,216511145,-187,-112,16681,-38,62,-24,-30,44,-359,0,2128,-2,10,11,1705,-1,-1,-1,-1,3,369604105,-1220329475,0,65535,65535,8,0,255,0,0,0,0,0,0,10,0,192,0,3,3
RAW_IMU,216531,0,172,992,933,1212,172,172,172,1811,255,216531144,-188,-21,16705,-52,52,-28,-31,41,-358,0,2080,-2,10,11,1705,-1,-1,-1,-1,3,369604105,-1220329475,0,65535,65535,8,0,255,0,0,0,0,0,0,10,0,192,0,3,3
RC_CHANNELS_SCALED,216531,1,172,992,933,1212,172,172,172,1811,255,216531144,-188,-21,16705,-52,52,-28,-31,41,-358,0,2080,1,-1,14,1729,-1,-1,-1,-1,3,369604105,-1220329475,0,65535,65535,8,0,255,0,0,0,0,0,0,10,0,192,0,3,3
RC_CHANNELS_RAW,216551,0,172,992,933,1260,172,172,172,1811,255,216531144,-188,-21,16705,-52,52,-28,-31,41,-358,0,2080,1,-1,14,1729,-1,-1,-1,-1,3,369604105,-1220329475,0,65535,65535,8,0,255,0,0,0,0,0,0,10,0,192,0,3,3
RAW_IMU,216551,0,172,992,933,1260,172,172,172,1811,255,216551146,-95,115,16643,-43,68,-24,-33,53,-363,0,2064,1,-1,14,1729,-1,-1,-1,-1,3,369604105,-1220329475,0,65535,65535,8,0,255,0,0,0,0,0,0,10,0,192,0,3,3
RC_CHANNELS_SCALED,216551,1,172,992,933,1260,172,172,172,1811,255,216551146,-95,115,16643,-43,68,-24,-33,53,-363,0,2064,0,5,22,1768,-1,-1,-1,-1,3,369604105,-1220329475,0,65535,65535,8,0,255,0,0,0,0,0,0,10,0,192,0,3,3
RC_CHANNELS_RAW,216571,0,172,992,934,1290,172,172,172,1811,255,216551146,-95,115,16643,-43,68,-24,-33,53,-363,0,2064,0,5,22,1768,-1,-1,-1,-1,3,369604105,-1220329475,0,65535,65535,8,0,255,0,0,0,0,0,0,10,0,192,0,3,3
RAW_IMU,216571,0,172,992,934,1290,172,172,172,1811,255,216571142,-318,299,16707,-33,79,-12,-31,46,-355,0,2144,0,5,22,1768,-1,-1,-1,-1,3,369604105,-1220329475,0,65535,65535,8,0,255,0,0,0,0,0,0,10,0,192,0,3,3
RC_CHANNELS_SCALED,216571,1,172,992,934,1290,172,172,172,1811,255,216571142,-318,299,16707,-33,79,-12,-31,46,-355,0,2144,-1,3,24,1817,-1,-1,-1,-1,3,369604105,-1220329475,0,65535,65535,8,0,255,0,0,0,0,0,0,10,0,192,0,3,3
RC_CHANNELS_RAW,216591,0,172,992,934,1341,172,172,172,1811,255,216571142,-318,299,16707,-33,79,-12,-31,46,-355,0,2144,-1,3,24,1817,-1,-1,-1,-1,3,369604105,-1220329475,0,65535,65535,8,0,255,0,0,0,0,0,0,10,0,192,0,3,3
RAW_IMU,216591,0,172,992,934,1341,172,172,172,1811,255,216591143,-319,-20,16599,-47,65,5,-31,50,-350,0,2064,-1,3,24,1817,-1,-1,-1,-1,3,369604105,-1220329475,0,65535,65535,8,0,255,0,0,0,0,0,0,10,0,192,0,3,3
RC_CHANNELS_SCALED,216591,1,172,992,934,1341,172,172,172,1811,255,216591143,-319,-20,16599,-47,65,5,-31,50,-350,0,2064,0,1,31,1871,-1,-1,-1,-1,3,369604105,-1220329475,0,65535,65535,8,0,255,0,0,0,0,0,0,10,0,192,0,3,3
GPS_RAW_INT,216591,1,172,992,934,1341,172,172,172,1811,255,216593008,-319,-20,16599,-47,65,5,-31,50,-350,0,2064,0,1,31,1871,-1,-1,-1,-1,3,369604105,-1220329475,0,65535,65535,2,0,255,0,0,0,0,0,0,10,0,192,0,3,3
RC_CHANNELS_RAW,216611,0,172,992,934,1388,172,172,172,1811,255,216593008,-319,-20,16599,-47,65,5,-31,50,-350,0,2064,0,1,31,1871,-1,-1,-1,-1,3,369604105,-1220329475,0,65535,65535,2,0,255,0,0,0,0,0,0,10,0,192,0,3,3
RAW_IMU,216611,0,172,992,934,1388,172,172,172,1811,255,216611144,-184,-305,16681,-49,61,-8,-37,44,-356,0,2128,0,1,31,1871,-1,-1,-1,-1,3,369604105,-1220329475,0,65535,65535,2,0,255,0,0,0,0,0,0,10,0,192,0,3,3
RC_CHANNELS_SCALED,216611,1,172,992,934,1388,172,172,172,1811,255,216611144,-184,-305,16681,-49,61,-8,-37,44,-356,0,2128,0,0,24,1919,-1,-1,-1,-1,3,369604105,-1220329475,0,65535,65535,2,0,255,0,0,0,0,0,0,10,0,192,0,3,3
RC_CHANNELS_RAW,216631,0,172,992,934,1418,172,172,172,1811,255,216611144,-184,-305,16681,-49,61,-8,-37,44,-356,0,2128,0,0,24,1919,-1,-1,-1,-1,3,369604105,-1220329475,0,65535,65535,2,0,255,0,0,0,0,0,0,10,0,192,0,3,3
RAW_IMU,216631,0,172,992,934,1418,172,172,172,1811,255,216631145,-212,-155,16625,-46,70,-12,-20,46,-353,0,2032,0,0,24,1919,-1,-1,-1,-1,3,369604105,-1220329475,0,65535,65535,2,0,255,0,0,0,0,0,0,10,0,192,0,3,3
RC_CHANNELS_SCALED,216631,1,172,992,934,1418,172,172,172,1811,255,216631145,-212,-155,16625,-46,70,-12,-20,46,-353,0,2032,-2,1,31,1975,-1,-1,-1,-1,3,369604105,-1220329475,0,65535,65535,2,0,255,0,0,0,0,0,0,10,0,192,0,3,3
RC_CHANNELS_RAW,216651,0,172,992,934,1447,172,172,172,1811,255,216631145,-212,-155,16625,-46,70,-12,-20,46,-353,0,2032,-2,1,31,1975,-1,-1,-1,-1,3,369604105,-1220329475,0,65535,65535,2,0,255,0,0,0,0,0,0,10,0,192,0,3,3
RAW_IMU,216651,0,172,992,934,1447,172,172,172,1811,255,216651143,-76,434,16504,-44,83,5,-37,52,-356,0,2128,-2,1,31,1975,-1,-1,-1,-1,3,369604105,-1220329475,0,65535,65535,2,0,255,0,0,0,0,0,0,10,0,192,0,3,3
RC_CHANNELS_SCALED,216651,1,172,992,934,1447,172,172,172,1811,255,216651143,-76,434,16504,-44,83,5,-37,52,-356,0,2128,4,-3,39,2042,-1,-1,-1,-1,3,369604105,-1220329475,0,65535,65535,2,0,255,0,0,0,0,0,0,10,0,192,0,3,3
RC_CHANNELS_RAW,216671,0,172,992,934,1485,172,172,172,1811,255,216651143,-76,434,16504,-44,83,5,-37,52,-356,0,2128,4,-3,39,2042,-1,-1,-1,-1,3,369604105,-1220329475,0,65535,65535,2,0,255,0,0,0,0,0,0,10,0,192,0,3,3
RAW_IMU,216671,0,172,992,934,1485,172,172,172,1811,255,216671145,-316,-219,16627,-44,80,-30,-23,43,-358,0,2064,4,-3,39,2042,-1,-1,-1,-1,3,369604105,-1220329475,0,65535,65535,2,0,255,0,0,0,0,0,0,10,0,192,0,3,3
RC_CHANNELS_SCALED,216671,1,172,992,934,1485,172,172,172,1811,255,216671145,-316,-219,16627,-44,80,-30,-23,43,-358,0,2064,0,1,42,2118,-1,-1,-1,-1,3,369604105,-1220329475,0,65535,65535,2,0,255,0,0,0,0,0,0,10,0,192,0,3,3
RC_CHANNELS_RAW,216691,0,172,992,934,1527,172,172,172,1811,255,216671145,-316,-219,16627,-44,80,-30,-23,43,-358,0,2064,0,1,42,2118,-1,-1,-1,-1,3,369604105,-1220329475,0,65535,65535,2,0,255,0,0,0,0,0,0,10,0,192,0,3,3
RAW_IMU,216691,0,172,992,934,1527,172,172,172,1811,255,216691142,-531,-867,16585,-38,64,-24,-33,53,-355,0,2128,0,1,42,2118,-1,-1,-1,-1,3,369604105,-1220329475,0,65535,65535,2,0,255,0,0,0,0,0,0,10,0,192,0,3,3
RC_CHANNELS_SCALED,216691,1,172,992,934,1527,172,172,172,1811,255,216691142,-531,-867,16585,-38,64,-24,-33,53,-355,0,2128,-3,3,39,2193,-1,-1,-1,-1,3,369604105,-1220329475,0,65535,65535,2,0,255,0,0,0,0,0,0,10,0,192,0,3,3
GPS_RAW_INT,216691,1,172,992,934,1527,172,172,172,1811,255,216694006,-531,-867,16585,-38,64,-24,-33,53,-355,0,2128,-3,3,39,2193,-1,-1,-1,-1,3,369604105,-1220329475,0,65535,65535,2,0,255,0,0,0,0,0,0,10,0,192,0,3,3
RC_CHANNELS_RAW,216711,0,172,992,934,1562,172,172,172,1811,255,216694006,-531,-867,16585,-38,64,-24,-33,53,-355,0,2128,-3,3,39,2193,-1,-1,-1,-1,3,369604105,-1220329475,0,65535,65535,2,0,255,0,0,0,0,0,0,10,0,192,0,3,3
RAW_IMU,216711,0,172,992,934,1562,172,172,172,1811,255,216711143,246,407,16697,-50,53,-44,-36,53,-353,0,2112,-3,3,39,2193,-1,-1,-1,-1,3,369604105,-1220329475,0,65535,65535,2,0,255,0,0,0,0,0,0,10,0,192,0,3,3
RC_CHANNELS_SCALED,216711,1,172,992,934,1562,172,172,172,1811,255,216711143,246,407,16697,-50,53,-44,-36,53,-353,0,2112,1,-1,36,2270,-1,-1,-1,-1,3,369604105,-1220329475,0,65535,65535,2,0,255,0,0,0,0,0,0,10,0,192,0,3,3
RC_CHANNELS_RAW,216731,0,172,992,934,1610,172,172,172,1811,255,216711143,246,407,16697,-50,53,-44,-36,53,-353,0,2112,1,-1,36,2270,-1,-1,-1,-1,3,369604105,-1220329475,0,65535,65535,2,0,255,0,0,0,0,0,0,10,0,192,0,3,3
RAW_IMU,216731,0,172,992,934,1610,172,172,172,1811,255,216731144,-541,-337,16608,-57,99,-27,-28,50,-350,0,2016,1,-1,36,2270,-1,-1,-1,-1,3,369604105,-1220329475,0,65535,65535,2,0,255,0,0,0,0,0,0,10,0,192,0,3,3
RC_CHANNELS_SCALED,216731,1,172,992,934,1610,172,172,172,1811,255,216731144,-541,-337,16608,-57,99,-27,-28,50,-350,0,2016,1,0,39,2349,-1,-1,-1,-1,3,369604105,-1220329475,0,65535,65535,2,0,255,0,0,0,0,0,0,10,0,192,0,3,3
RC_CHANNELS_RAW,216751,0,172,992,934,1654,172,172,172,1811,255,216731144,-541,-337,16608,-57,99,-27,-28,50,-350,0,2016,1,0,39,2349,-1,-1,-1,-1,3,369604105,-1220329475,0,65535,65535,2,0,255,0,0,0,0,0,0,10,0,192,0,3,3
RAW_IMU,216751,0,172,992,934,1654,172,172,172,1811,255,216751143,-539,-136,16632,-26,40,-20,-35,42,-352,0,2112,1,0,39,2349,-1,-1,-1,-1,3,369604105,-1220329475,0,65535,65535,2,0,255,0,0,0,0,0,0,10,0,192,0,3,3
RC_CHANNELS_SCALED,216751,1,172,992,934,1654,172,172,172,1811,255,216751143,-539,-136,16632,-26,40,-20,-35,42,-352,0,2112,1,3,39,2425,-1,-1,-1,-1,3,369604105,-1220329475,0,65535,65535,2,0,255,0,0,0,0,0,0,10,0,192,0,3,3
RC_CHANNELS_RAW,216771,0,172,992,934,1673,172,172,172,1811,255,216751143,-539,-136,16632,-26,40,-20,-35,42,-352,0,2112,1,3,39,2425,-1,-1,-1,-1,3,369604105,-1220329475,0,65535,65535,2,0,255,0,0,0,0,0,0,10,0,192,0,3,3
RAW_IMU,216771,0,172,992,934,1673,172,172,172,1811,255,216771143,533,857,16866,-45,72,-13,-35,44,-356,0,2000,1,3,39,2425,-1,-1,-1,-1,3,369604105,-1220329475,0,65535,65535,2,0,255,0,0,0,0,0,0,10,0,192,0,3,3
RC_CHANNELS_SCALED,216771,1,172,992,934,1673,172,172,172,1811,255,216771143,533,857,16866,-45,72,-13,-35,44,-356,0,2000,-1,3,32,2498,-1,-1,-1,-1,3,369604105,-1220329475,0,65535,65535,2,0,255,0,0,0,0,0,0,10,0,192,0,3,3
RC_CHANNELS_RAW,216791,0,172,992,934,1726,172,172,172,1811,255,216771143,533,857,16866,-45,72,-13,-35,44,-356,0,2000,-1,3,32,2498,-1,-1,-1,-1,3,369604105,-1220329475,0,65535,65535,2,0,255,0,0,0,0,0,0,10,0,192,0,3,3
RAW_IMU,216791,0,172,992,934,1726,172,172,172,1811,255,216791146,-736,-291,16685,-43,83,-8,-27,47,-354,0,2128,-1,3,32,2498,-1,-1,-1,-1,3,369604105,-1220329475,0,65535,65535,2,0,255,0,0,0,0,0,0,10,0,192,0,3,3
RC_CHANNELS_SCALED,216791,1,172,992,934,1726,172,172,172,1811,255,216791146,-736,-291,16685,-43,83,-8,-27,47,-354,0,2128,-3,0,38,2570,-1,-1,-1,-1,3,369604105,-1220329475,0,65535,65535,2,0,255,0,0,0,0,0,0,10,0,192,0,3,3
GPS_RAW_INT,216791,1,172,992,934,1726,172,172,172,1811,255,216795009,-736,-291,16685,-43,83,-8,-27,47,-354,0,2128,-3,0,38,2570,-1,-1,-1,-1,3,369604106,-1220329473,0,65535,65535,3,0,255,0,0,0,0,0,0,10,0,192,0,3,3
RC_CHANNELS_RAW,216811,0,1257,439,43,43,1579,452,43,243,255,216795009,-736,-291,16685,-43,83,-8,-27,47,-354,0,2128,-3,0,38,2570,-1,-1,-1,-1,3,369604106,-1220329473,0,65535,65535,3,0,255,0,0,0,0,0,0,10,0,192,0,3,3
RAW_IMU,216811,0,1257,439,43,43,1579,452,43,243,255,216811144,-320,-58,16724,-35,42,-17,-33,50,-350,0,2080,-3,0,38,2570,-1,-1,-1,-1,3,369604106,-1220329473,0,65535,65535,3,0,255,0,0,0,0,0,0,10,0,192,0,3,3
RC_CHANNELS_SCALED,216811,1,1257,439,43,43,1579,452,43,243,255,216811144,-320,-58,16724,-35,42,-17,-33,50,-350,0,2080,-1,1,37,2647,-1,-1,-1,-1,3,369604106,-1220329473,0,65535,65535,3,0,255,0,0,0,0,0,0,10,0,192,0,3,3
RC_CHANNELS_RAW,216831,0,172,992,934,1779,172,172,172,1811,255,216811144,-320,-58,16724,-35,42,-17,-33,50,-350,0,2080,-1,1,37,2647,-1,-1,-1,-1,3,369604106,-1220329473,0,65535,65535,3,0,255,0,0,0,0,0,0,10,0,192,0,3,3
RAW_IMU,216831,0,172,992,934,1779,172,172,172,1811,255,216831142,204,387,16710,-57,70,-19,-36,46,-353,0,2080,-1,1,37,2647,-1,-1,-1,-1,3,369604106,-1220329473,0,65535,65535,3,0,255,0,0,0,0,0,0,10,0,192,0,3,3
RC_CHANNELS_SCALED,216831,1,172,992,934,1779,172,172,172,1811,255,216831142,204,387,16710,-57,70,-19,-36,46,-353,0,2080,1,2,39,2726,-1,-1,-1,-1,3,369604106,-1220329473,0,65535,65535,3,0,255,0,0,0,0,0,0,10,0,192,0,3,3
RC_CHANNELS_RAW,216851,0,172,992,933,1779,172,172,172,1811,255,216831142,204,387,16710,-57,70,-19,-36,46,-353,0,2080,1,2,39,2726,-1,-1,-1,-1,3,369604106,-1220329473,0,65535,65535,3,0,255,0,0,0,0,0,0,10,0,192,0,3,3
RAW_IMU,216851,0,172,992,933,1779,172,172,172,1811,255,216851145,-731,-284,16502,-33,99,19,-33,50,-360,0,2112,1,2,39,2726,-1,-1,-1,-1,3,369604106,-1220329473,0,65535,65535,3,0,255,0,0,0,0,0,0,10,0,192,0,3,3
RC_CHANNELS_SCALED,216851,1,172,992,933,1779,172,172,172,1811,255,216851145,-731,-284,16502,-33,99,19,-33,50,-360,0,2112,1,3,36,2800,-1,-1,-1,-1,3,369604106,-1220329473,0,65535,65535,3,0,255,0,0,0,0,0,0,10,0,192,0,3,3
RC_CHANNELS_RAW,216871,0,172,992,934,1779,172,172,172,1811,255,216851145,-731,-284,16502,-33,99,19,-33,50,-360,0,2112,1,3,36,2800,-1,-1,-1,-1,3,369604106,-1220329473,0,65535,65535,3,0,255,0,0,0,0,0,0,10,0,192,0,3,3
RAW_IMU,216871,0,172,992,934,1779,172,172,172,1811,255,216871143,115,458,16702,-46,40,-9,-33,46,-350,0,2080,1,3,36,2800,-1,-1,-1,-1,3,369604106,-1220329473,0,65535,65535,3,0,255,0,0,0,0,0,0,10,0,192,0,3,3
RC_CHANNELS_SCALED,216871,1,172,992,934,1779,172,172,172,1811,255,216871143,115,458,16702,-46,40,-9,-33,46,-350,0,2080,1,-1,37,2874,-1,-1,-1,-1,3,369604106,-1220329473,0,65535,65535,3,0,255,0,0,0,0,0,0,10,0,192,0,3,3
RC_CHANNELS_RAW,216891,0,172,992,934,1779,172,172,172,1811,255,216871143,115,458,16702,-46,40,-9,-33,46,-350,0,2080,1,-1,37,2874,-1,-1,-1,-1,3,369604106,-1220329473,0,65535,65535,3,0,255,0,0,0,0,0,0,10,0,192,0,3,3
RAW_IMU,216891,0,172,992,934,1779,172,172,172,1811,255,216891146,1,107,16696,-38,99,13,-31,46,-353,0,2112,1,-1,37,2874,-1,-1,-1,-1,3,369604106,-1220329473,0,65535,65535,3,0,255,0,0,0,0,0,0,10,0,192,0,3,3
RC_CHANNELS_SCALED,216891,1,172,992,934,1779,172,172,172,1811,255,216891146,1,107,16696,-38,99,13,-31,46,-353,0,2112,2,3,38,2954,-1,-1,-1,-1,3,369604106,-1220329473,0,65535,65535,3,0,255,0,0,0,0,0,0,10,0,192,0,3,3
GPS_RAW_INT,216891,1,172,992,934,1779,172,172,172,1811,255,216896009,1,107,16696,-38,99,13,-31,46,-353,0,2112,2,3,38,2954,-1,-1,-1,-1,3,369604106,-1220329473,0,65535,65535,3,0,255,0,0,0,0,0,0,10,0,192,0,3,3
RC_CHANNELS_RAW,216911,0,172,992,934,1779,172,172,172,1811,255,216896009,1,107,16696,-38,99,13,-31,46,-353,0,2112,2,3,38,2954,-1,-1,-1,-1,3,369604106,-1220329473,0,65535,65535,3,0,255,0,0,0,0,0,0,10,0,192,0,3,3
RAW_IMU,216911,0,172,992,934,1779,172,172,172,1811,255,216911152,-754,-439,16494,-53,60,-10,-16,54,-349,0,2032,2,3,38,2954,-1,-1,-1,-1,3,369604106,-1220329473,0,65535,65535,3,0,255,0,0,0,0,0,0,10,0,192,0,3,3
RC_CHANNELS_SCALED,216911,1,172,992,934,1779,172,172,172,1811,255,216911152,-754,-439,16494,-53,60,-10,-16,54,-349,0,2032,0,-2,33,3025,-1,-1,-1,-1,3,369604106,-1220329473,0,65535,65535,3,0,255,0,0,0,0,0,0,10,0,192,0,3,3
RC_CHANNELS_RAW,216931,0,172,992,934,1779,172,172,172,1811,255,216911152,-754,-439,16494,-53,60,-10,-16,54,-349,0,2032,0,-2,33,3025,-1,-1,-1,-1,3,369604106,-1220329473,0,65535,65535,3,0,255,0,0,0,0,0,0,10,0,192,0,3,3
RAW_IMU,216931,0,172,992,934,1779,172,172,172,1811,255,216931142,326,327,16802,-35,50,-30,-40,49,-359,0,2080,0,-2,33,3025,-1,-1,-1,-1,3,369604106,-1220329473,0,65535,65535,3,0,255,0,0,0,0,0,0,10,0,192,0,3,3
RC_CHANNELS_SCALED,216931,1,172,992,934,1779,172,172,172,1811,255,216931142,326,327,16802,-35,50,-30,-40,49,-359,0,2080,1,-1,29,3084,-1,-1,-1,-1,3,369604106,-1220329473,0,65535,65535,3,0,255,0,0,0,0,0,0,10,0,192,0,3,3
RC_CHANNELS_RAW,216951,0,172,992,933,1779,172,172,172,1811,255,216931142,326,327,16802,-35,50,-30,-40,49,-359,0,2080,1,-1,29,3084,-1,-1,-1,-1,3,369604106,-1220329473,0,65535,65535,3,0,255,0,0,0,0,0,0,10,0,192,0,3,3
RAW_IMU,216951,0,172,992,933,1779,172,172,172,1811,255,216951144,-180,634,16736,-47,83,-12,-37,47,-359,0,2016,1,-1,29,3084,-1,-1,-1,-1,3,369604106,-1220329473,0,65535,65535,3,0,255,0,0,0,0,0,0,10,0,192,0,3,3
RC_CHANNELS_SCALED,216951,1,172,992,933,1779,172,172,172,1811,255,216951144,-180,634,16736,-47,83,-12,-37,47,-359,0,2016,-1,1,31,3150,-1,-1,-1,-1,3,369604106,-1220329473,0,65535,65535,3,0,255,0,0,0,0,0,0,10,0,192,0,3,3
RC_CHANNELS_RAW,216971,0,172,992,933,1779,172,172,172,1811,255,216951144,-180,634,16736,-47,83,-12,-37,47,-359,0,2016,-1,1,31,3150,-1,-1,-1,-1,3,369604106,-1220329473,0,65535,65535,3,0,255,0,0,0,0,0,0,10,0,192,0,3,3
RAW_IMU,216971,0,172,992,933,1779,172,172,172,1811,255,216971142,-172,-682,16678,-44,50,-16,-37,52,-354,0,2064,-1,1,31,3150,-1,-1,-1,-1,3,369604106,-1220329473,0,65535,65535,3,0,255,0,0,0,0,0,0,10,0,192,0,3,3
RC_CHANNELS_SCALED,216971,1,172,992,933,1779,172,172,172,1811,255,216971142,-172,-682,16678,-44,50,-16,-37,52,-354,0,2064,-1,-3,26,3210,-1,-1,-1,-1,3,369604106,-1220329473,0,65535,65535,3,0,255,0,0,0,0,0,0,10,0,192,0,3,3
RC_CHANNELS_RAW,216991,0,172,992,934,1779,172,172,172,1811,255,216971142,-172,-682,16678,-44,50,-16,-37,52,-354,0,2064,-1,-3,26,3210,-1,-1,-1,-1,3,369604106,-1220329473,0,65535,65535,3,0,255,0,0,0,0,0,0,10,0,192,0,3,3
RAW_IMU,216991,0,172,992,934,1779,172,172,172,1811,255,216991145,-222,-457,16625,-47,90,-6,-31,55,-345,0,2080,-1,-3,26,3210,-1,-1,-1,-1,3,369604106,-1220329473,0,65535,65535,3,0,255,0,0,0,0,0,0,10,0,192,0,3,3
RC_CHANNELS_SCALED,216991,1,172,992,934,1779,172,172,172,1811,255,216991145,-222,-457,16625,-47,90,-6,-31,55,-345,0,2080,1,2,17,3249,-1,-1,-1,-1,3,369604106,-1220329473,0,65535,65535,3,0,255,0,0,0,0,0,0,10,0,192,0,3,3
GPS_RAW_INT,216991,1,172,992,934,1779,172,172,172,1811,255,216997009,-222,-457,16625,-47,90,-6,-31,55,-345,0,2080,1,2,17,3249,-1,-1,-1,-1,3,369604105,-1220329473,0,65535,65535,9,0,255,0,0,0,0,0,0,10,0,192,0,3,3
HEARTBEAT,216991,1,172,992,934,1779,172,172,172,1811,255,216997009,-222,-457,16625,-47,90,-6,-31,55,-345,0,2080,1,2,17,3249,-1,-1,-1,-1,3,369604105,-1220329473,0,65535,65535,9,0,255,0,0,0,0,0,0,10,0,192,0,3,3
RC_CHANNELS_RAW,217011,0,172,992,934,1779,172,172,172,1811,255,216997009,-222,-457,16625,-47,90,-6,-31,55,-345,0,2080,1,2,17,3249,-1,-1,-1,-1,3,369604105,-1220329473,0,65535,65535,9,0,255,0,0,0,0,0,0,10,0,192,0,3,3
RAW_IMU,217011,0,172,992,934,1779,172,172,172,1811,255,217011146,-273,-564,16589,-51,64,-29,-33,43,-348,0,2128,1,2,17,3249,-1,-1,-1,-1,3,369604105,-1220329473,0,65535,65535,9,0,255,0,0,0,0,0,0,10,0,192,0,3,3
RC_CHANNELS_SCALED,217011,1,172,992,934,1779,172,172,172,1811,255,217011146,-273,-564,16589,-51,64,-29,-33,43,-348,0,2128,3,-1,7,3272,-1,-1,-1,-1,3,369604105,-1220329473,0,65535,65535,9,0,255,0,0,0,0,0,0,10,0,192,0,3,3
RC_CHANNELS_RAW,217031,0,172,992,934,1779,172,172,172,1811,255,217011146,-273,-564,16589,-51,64,-29,-33,43,-348,0,2128,3,-1,7,3272,-1,-1,-1,-1,3,369604105,-1220329473,0,65535,65535,9,0,255,0,0,0,0,0,0,10,0,192,0,3,3
RAW_IMU,217031,0,172,992,934,1779,172,172,172,1811,255,217031143,-74,123,16703,-24,69,-28,-32,52,-356,0,2112,3,-1,7,3272,-1,-1,-1,-1,3,369604105,-1220329473,0,65535,65535,9,0,255,0,0,0,0,0,0,10,0,192,0,3,3
RC_CHANNELS_SCALED,217031,1,172,992,934,1779,172,172,172,1811,255,217031143,-74,123,16703,-24,69,-28,-32,52,-356,0,2112,1,2,9,3291,-1,-1,-1,-1,3,369604105,-1220329473,0,65535,65535,9,0,255,0,0,0,0,0,0,10,0,192,0,3,3
RC_CHANNELS_RAW,217051,0,172,992,933,1756,172,172,172,1811,255,217031143,-74,123,16703,-24,69,-28,-32,52,-356,0,2112,1,2,9,3291,-1,-1,-1,-1,3,369604105,-1220329473,0,65535,65535,9,0,255,0,0,0,0,0,0,10,0,192,0,3,3
RAW_IMU,217051,0,172,992,933,1756,172,172,172,1811,255,217051144,-323,111,16631,-54,74,-5,-33,53,-350,0,2080,1,2,9,3291,-1,-1,-1,-1,3,369604105,-1220329473,0,65535,65535,9,0,255,0,0,0,0,0,0,10,0,192,0,3,3
RC_CHANNELS_SCALED,217051,1,172,992,933,1756,172,172,172,1811,255,217051144,-323,111,16631,-54,74,-5,-33,53,-350,0,2080,1,-3,7,3304,-1,-1,-1,-1,3,369604105,-1220329473,0,65535,65535,9,0,255,0,0,0,0,0,0,10,0,192,0,3,3
RC_CHANNELS_RAW,217071,0,172,992,934,1703,172,172,172,1811,255,217051144,-323,111,16631,-54,74,-5,-33,53,-350,0,2080,1,-3,7,3304,-1,-1,-1,-1,3,369604105,-1220329473,0,65535,65535,9,0,255,0,0,0,0,0,0,10,0,192,0,3,3
RAW_IMU,217071,0,172,992,934,1703,172,172,172,1811,255,217071146,-247,-37,16651,-50,59,-27,-39,41,-348,0,2080,1,-3,7,3304,-1,-1,-1,-1,3,369604105,-1220329473,0,65535,65535,9,0,255,0,0,0,0,0,0,10,0,192,0,3,3
RC_CHANNELS_SCALED,217071,1,172,992,934,1703,172,172,172,1811,255,217071146,-247,-37,16651,-50,59,-27,-39,41,-348,0,2080,1,-4,7,3317,-1,-1,-1,-1,3,369604105,-1220329473,0,65535,65535,9,0,255,0,0,0,0,0,0,10,0,192,0,3,3
RC_CHANNELS_RAW,217091,0,172,992,934,1637,172,172,172,1811,255,217071146,-247,-37,16651,-50,59,-27,-39,41,-348,0,2080,1,-4,7,3317,-1,-1,-1,-1,3,369604105,-1220329473,0,65535,65535,9,0,255,0,0,0,0,0,0,10,0,192,0,3,3
RAW_IMU,217091,0,172,992,934,1637,172,172,172,1811,255,217091144,-96,-106,16766,-54,68,-9,-30,44,-352,0,2064,1,-4,7,3317,-1,-1,-1,-1,3,369604105,-1220329473,0,65535,65535,9,0,255,0,0,0,0,0,0,10,0,192,0,3,3
RC_CHANNELS_SCALED,217091,1,172,992,934,1637,172,172,172,1811,255,217091144,-96,-106,16766,-54,68,-9,-30,44,-352,0,2064,-1,-2,6,3329,-1,-1,-1,-1,3,369604105,-1220329473,0,65535,65535,9,0,255,0,0,0,0,0,0,10,0,192,0,3,3
GPS_RAW_INT,217091,1,172,992,934,1637,172,172,172,1811,255,217098005,-96,-106,16766,-54,68,-9,-30,44,-352,0,2064,-1,-2,6,3329,-1,-1,-1,-1,3,369604105,-1220329473,0,65535,65535,2,0,255,0,0,0,0,0,0,10,0,192,0,3,3
RC_CHANNELS_RAW,217111,0,172,992,933,1548,172,172,172,1811,255,217098005,-96,-106,16766,-54,68,-9,-30,44,-352,0,2064,-1,-2,6,3329,-1,-1,-1,-1,3,369604105,-1220329473,0,65535,65535,2,0,255,0,0,0,0,0,0,10,0,192,0,3,3
RAW_IMU,217111,0,172,992,933,1548,172,172,172,1811,255,217111149,-309,-140,16624,-48,72,-24,-35,47,-354,0,2080,-1,-2,6,3329,-1,-1,-1,-1,3,369604105,-1220329473,0,65535,65535,2,0,255,0,0,0,0,0,0,10,0,192,0,3,3
RC_CHANNELS_SCALED,217111,1,172,992,933,1548,172,172,172,1811,255,217111149,-309,-140,16624,-48,72,-24,-35,47,-354,0,2080,-6,3,2,3335,-1,-1,-1,-1,3,369604105,-1220329473,0,65535,65535,2,0,255,0,0,0,0,0,0,10,0,192,0,3,3
RC_CHANNELS_RAW,217131,0,172,992,934,1500,172,172,172,1811,255,217111149,-309,-140,16624,-48,72,-24,-35,47,-354,0,2080,-6,3,2,3335,-1,-1,-1,-1,3,369604105,-1220329473,0,65535,65535,2,0,255,0,0,0,0,0,0,10,0,192,0,3,3
RAW_IMU,217131,0,172,992,934,1500,172,172,172,1811,255,217131145,-112,-226,16703,-38,61,-25,-26,43,-350,0,2080,-6,3,2,3335,-1,-1,-1,-1,3,369604105,-1220329473,0,65535,65535,2,0,255,0,0,0,0,0,0,10,0,192,0,3,3
RC_CHANNELS_SCALED,217131,1,172,992,934,1500,172,172,172,1811,255,217131145,-112,-226,16703,-38,61,-25,-26,43,-350,0,2080,1,3,1,3335,-1,-1,-1,-1,3,369604105,-1220329473,0,65535,65535,2,0,255,0,0,0,0,0,0,10,0,192,0,3,3
RC_CHANNELS_RAW,217151,0,172,992,934,1483,172,172,172,1811,255,217131145,-112,-226,16703,-38,61,-25,-26,43,-350,0,2080,1,3,1,3335,-1,-1,-1,-1,3,369604105,-1220329473,0,65535,65535,2,0,255,0,0,0,0,0,0,10,0,192,0,3,3
RAW_IMU,217151,0,172,992,934,1483,172,172,172,1811,255,217151146,-156,56,16717,-38,83,-23,-43,49,-352,0,2064,1,3,1,3335,-1,-1,-1,-1,3,369604105,-1220329473,0,65535,65535,2,0,255,0,0,0,0,0,0,10,0,192,0,3,3
RC_CHANNELS_SCALED,217151,1,172,992,934,1483,172,172,172,1811,255,217151146,-156,56,16717,-38,83,-23,-43,49,-352,0,2064,1,0,-7,3323,-1,-1,-1,-1,3,369604105,-1220329473,0,65535,65535,2,0,255,0,0,0,0,0,0,10,0,192,0,3,3
RC_CHANNELS_RAW,217171,0,172,992,934,1437,172,172,172,1811,255,217151146,-156,56,16717,-38,83,-23,-43,49,-352,0,2064,1,0,-7,3323,-1,-1,-1,-1,3,369604105,-1220329473,0,65535,65535,2,0,255,0,0,0,0,0,0,10,0,192,0,3,3
RAW_IMU,217171,0,172,992,934,1437,172,172,172,1811,255,217171143,-75,156,16624,-47,56,-13,-37,47,-349,0,2192,1,0,-7,3323,-1,-1,-1,-1,3,369604105,-1220329473,0,65535,65535,2,0,255,0,0,0,0,0,0,10,0,192,0,3,3
RC_CHANNELS_SCALED,217171,1,172,992,934,1437,172,172,172,1811,255,217171143,-75,156,16624,-47,56,-13,-37,47,-349,0,2192,-1,0,-1,3315,-1,-1,-1,-1,3,369604105,-1220329473,0,65535,65535,2,0,255,0,0,0,0,0,0,10,0,192,0,3,3
RC_CHANNELS_RAW,217191,0,172,992,933,1409,172,172,172,1811,255,217171143,-75,156,16624,-47,56,-13,-37,47,-349,0,2192,-1,0,-1,3315,-1,-1,-1,-1,3,369604105,-1220329473,0,65535,65535,2,0,255,0,0,0,0,0,0,10,0,192,0,3,3
RAW_IMU,217191,0,172,992,933,1409,172,172,172,1811,255,217191148,-434,63,16653,-59,68,7,-33,50,-355,0,2064,-1,0,-1,3315,-1,-1,-1,-1,3,369604105,-1220329473,0,65535,65535,2,0,255,0,0,0,0,0,0,10,0,192,0,3,3
RC_CHANNELS_SCALED,217191,1,172,992,933,1409,172,172,172,1811,255,217191148,-434,63,16653,-59,68,7,-33,50,-355,0,2064,-1,0,-32,3256,-1,-1,-1,-1,3,369604105,-1220329473,0,65535,65535,2,0,255,0,0,0,0,0,0,10,0,192,0,3,3
GPS_RAW_INT,217191,1,172,992,933,1409,172,172,172,1811,255,217199009,-434,63,16653,-59,68,7,-33,50,-355,0,2064,-1,0,-32,3256,-1,-1,-1,-1,3,369604105,-1220329471,0,65535,65535,4,0,255,0,0,0,0,0,0,10,0,192,0,3,3
RC_CHANNELS_RAW,217211,0,172,992,934,1354,172,172,172,1811,255,217199009,-434,63,16653,-59,68,7,-33,50,-355,0,2064,-1,0,-32,3256,-1,-1,-1,-1,3,369604105,-1220329471,0,65535,65535,4,0,255,0,0,0,0,0,0,10,0,192,0,3,3
RAW_IMU,217211,0,172,992,934,1354,172,172,172,1811,255,217211146,-301,-365,16614,-46,61,-34,-33,48,-343,0,2128,-1,0,-32,3256,-1,-1,-1,-1,3,369604105,-1220329471,0,65535,65535,4,0,255,0,0,0,0,0,0,10,0,192,0,3,3
RC_CHANNELS_SCALED,217211,1,172,992,934,1354,172,172,172,1811,255,217211146,-301,-365,16614,-46,61,-34,-33,48,-343,0,2128,2,-1,-53,3160,-1,-1,-1,-1,3,369604105,-1220329471,0,65535,65535,4,0,255,0,0,0,0,0,0,10,0,192,0,3,3
RC_CHANNELS_RAW,217231,0,172,992,933,1288,172,172,172,1811,255,217211146,-301,-365,16614,-46,61,-34,-33,48,-343,0,2128,2,-1,-53,3160,-1,-1,-1,-1,3,369604105,-1220329471,0,65535,65535,4,0,255,0,0,0,0,0,0,10,0,192,0,3,3
RAW_IMU,217231,0,172,992,933,1288,172,172,172,1811,255,217231144,1222,-1016,16986,-53,30,-24,-27,44,-352,0,2016,2,-1,-53,3160,-1,-1,-1,-1,3,369604105,-1220329471,0,65535,65535,4,0,255,0,0,0,0,0,0,10,0,192,0,3,3
RC_CHANNELS_SCALED,217231,1,172,992,933,1288,172,172,172,1811,255,217231144,1222,-1016,16986,-53,30,-24,-27,44,-352,0,2016,0,3,-40,3079,-1,-1,-1,-1,3,369604105,-1220329471,0,65535,65535,4,0,255,0,0,0,0,0,0,10,0,192,0,3,3
RC_CHANNELS_RAW,217251,0,172,992,934,1257,172,172,172,1811,255,217231144,1222,-1016,16986,-53,30,-24,-27,44,-352,0,2016,0,3,-40,3079,-1,-1,-1,-1,3,369604105,-1220329471,0,65535,65535,4,0,255,0,0,0,0,0,0,10,0,192,0,3,3
RAW_IMU,217251,0,172,992,934,1257,172,172,172,1811,255,217251143,265,-706,16934,-62,93,-49,-26,41,-350,0,2000,0,3,-40,3079,-1,-1,-1,-1,3,369604105,-1220329471,0,65535,65535,4,0,255,0,0,0,0,0,0,10,0,192,0,3,3
RC_CHANNELS_SCALED,217251,1,172,992,934,1257,172,172,172,1811,255,217251143,265,-706,16934,-62,93,-49,-26,41,-350,0,2000,-3,3,-38,3003,-1,-1,-1,-1,3,369604105,-1220329471,0,65535,65535,4,0,255,0,0,0,0,0,0,10,0,192,0,3,3
RC_CHANNELS_RAW,217271,0,172,992,933,1241,172,172,172,1811,255,217251143,265,-706,16934,-62,93,-49,-26,41,-350,0,2000,-3,3,-38,3003,-1,-1,-1,-1,3,369604105,-1220329471,0,65535,65535,4,0,255,0,0,0,0,0,0,10,0,192,0,3,3
RAW_IMU,217271,0,172,992,933,1241,172,172,172,1811,255,217271147,-515,-784,16805,-39,50,-21,-37,47,-352,0,2112,-3,3,-38,3003,-1,-1,-1,-1,3,369604105,-1220329471,0,65535,65535,4,0,255,0,0,0,0,0,0,10,0,192,0,3,3
RC_CHANNELS_SCALED,217271,1,172,992,933,1241,172,172,172,1811,255,217271147,-515,-784,16805,-39,50,-21,-37,47,-352,0,2112,-1,0,-43,2919,-1,-1,-1,-1,3,369604105,-1220329471,0,65535,65535,4,0,255,0,0,0,0,0,0,10,0,192,0,3,3
RC_CHANNELS_RAW,217291,0,172,992,934,1225,172,172,172,1811,255,217271147,-515,-784,16805,-39,50,-21,-37,47,-352,0,2112,-1,0,-43,2919,-1,-1,-1,-1,3,369604105,-1220329471,0,65535,65535,4,0,255,0,0,0,0,0,0,10,0,192,0,3,3
RAW_IMU,217291,0,172,992,934,1225,172,172,172,1811,255,217291150,548,380,16887,-44,89,-27,-37,52,-352,0,2080,-1,0,-43,2919,-1,-1,-1,-1,3,369604105,-1220329471,0,65535,65535,4,0,255,0,0,0,0,0,0,10,0,192,0,3,3
RC_CHANNELS_SCALED,217291,1,172,992,934,1225,172,172,172,1811,255,217291150,548,380,16887,-44,89,-27,-37,52,-352,0,2080,1,-6,-44,2834,-1,-1,-1,-1,3,369604105,-1220329471,0,65535,65535,4,0,255,0,0,0,0,0,0,10,0,192,0,3,3
GPS_RAW_INT,217291,1,172,992,934,1225,172,172,172,1811,255,217300008,548,380,16887,-44,89,-27,-37,52,-352,0,2080,1,-6,-44,2834,-1,-1,-1,-1,3,369604106,-1220329471,0,65535,65535,2,0,255,0,0,0,0,0,0,10,0,192,0,3,3
RC_CHANNELS_RAW,217311,0,172,992,933,1188,172,172,172,1811,255,217300008,548,380,16887,-44,89,-27,-37,52,-352,0,2080,1,-6,-44,2834,-1,-1,-1,-1,3,369604106,-1220329471,0,65535,65535,2,0,255,0,0,0,0,0,0,10,0,192,0,3,3
RAW_IMU,217311,0,172,992,933,1188,172,172,172,1811,255,217311147,-490,-352,16683,-26,59,-36,-36,41,-355,0,2080,1,-6,-44,2834,-1,-1,-1,-1,3,369604106,-1220329471,0,65535,65535,2,0,255,0,0,0,0,0,0,10,0,192,0,3,3
RC_CHANNELS_SCALED,217311,1,172,992,933,1188,172,172,172,1811,255,217311147,-490,-352,16683,-26,59,-36,-36,41,-355,0,2080,-1,-4,-42,2749,-1,-1,-1,-1,3,369604106,-1220329471,0,65535,65535,2,0,255,0,0,0,0,0,0,10,0,192,0,3,3
RC_CHANNELS_RAW,217331,0,172,992,933,1174,172,172,172,1811,255,217311147,-490,-352,16683,-26,59,-36,-36,41,-355,0,2080,-1,-4,-42,2749,-1,-1,-1,-1,3,369604106,-1220329471,0,65535,65535,2,0,255,0,0,0,0,0,0,10,0,192,0,3,3
RAW_IMU,217331,0,172,992,933,1174,172,172,172,1811,255,217331143,76,-65,16672,-39,79,20,-41,48,-353,0,2112,-1,-4,-42,2749,-1,-1,-1,-1,3,369604106,-1220329471,0,65535,65535,2,0,255,0,0,0,0,0,0,10,0,192,0,3,3
RC_CHANNELS_SCALED,217331,1,172,992,933,1174,172,172,172,1811,255,217331143,76,-65,16672,-39,79,20,-41,48,-353,0,2112,1,-2,-46,2667,-1,-1,-1,-1,3,369604106,-1220329471,0,65535,65535,2,0,255,0,0,0,0,0,0,10,0,192,0,3,3
RC_CHANNELS_RAW,217351,0,172,992,934,1145,172,172,172,1811,255,217331143,76,-65,16672,-39,79,20,-41,48,-353,0,2112,1,-2,-46,2667,-1,-1,-1,-1,3,369604106,-1220329471,0,65535,65535,2,0,255,0,0,0,0,0,0,10,0,192,0,3,3
RAW_IMU,217351,0,172,992,934,1145,172,172,172,1811,255,217351142,-43,-216,16848,-38,56,-34,-33,55,-343,0,2080,1,-2,-46,2667,-1,-1,-1,-1,3,369604106,-1220329471,0,65535,65535,2,0,255,0,0,0,0,0,0,10,0,192,0,3,3
RC_CHANNELS_SCALED,217351,1,172,992,934,1145,172,172,172,1811,255,217351142,-43,-216,16848,-38,56,-34,-33,55,-343,0,2080,1,-1,-49,2573,-1,-1,-1,-1,3,369604106,-1220329471,0,65535,65535,2,0,255,0,0,0,0,0,0,10,0,192,0,3,3
RC_CHANNELS_RAW,217371,0,172,992,934,1127,172,172,172,1811,255,217351142,-43,-216,16848,-38,56,-34,-33,55,-343,0,2080,1,-1,-49,2573,-1,-1,-1,-1,3,369604106,-1220329471,0,65535,65535,2,0,255,0,0,0,0,0,0,10,0,192,0,3,3
RAW_IMU,217371,0,172,992,934,1127,172,172,172,1811,255,217371144,-838,-256,16548,-60,70,-1,-31,41,-355,0,2064,1,-1,-49,2573,-1,-1,-1,-1,3,369604106,-1220329471,0,65535,65535,2,0,255,0,0,0,0,0,0,10,0,192,0,3,3
RC_CHANNELS_SCALED,217371,1,172,992,934,1127,172,172,172,1811,255,217371144,-838,-256,16548,-60,70,-1,-31,41,-355,0,2064,0,-1,-40,2487,-1,-1,-1,-1,3,369604106,-1220329471,0,65535,65535,2,0,255,0,0,0,0,0,0,10,0,192,0,3,3
RC_CHANNELS_RAW,217391,0,172,992,934,1099,172,172,172,1811,255,217371144,-838,-256,16548,-60,70,-1,-31,41,-355,0,2064,0,-1,-40,2487,-1,-1,-1,-1,3,369604106,-1220329471,0,65535,65535,2,0,255,0,0,0,0,0,0,10,0,192,0,3,3
RAW_IMU,217391,0,172,992,934,1099,172,172,172,1811,255,217391143,434,-106,16748,-57,72,-19,-39,50,-355,0,2144,0,-1,-40,2487,-1,-1,-1,-1,3,369604106,-1220329471,0,65535,65535,2,0,255,0,0,0,0,0,0,10,0,192,0,3,3
RC_CHANNELS_SCALED,217391,1,172,992,934,1099,172,172,172,1811,255,217391143,434,-106,16748,-57,72,-19,-39,50,-355,0,2144,4,1,-24,2421,-1,-1,-1,-1,3,369604106,-1220329471,0,65535,65535,2,0,255,0,0,0,0,0,0,10,0,192,0,3,3
GPS_RAW_INT,217391,1,172,992,934,1099,172,172,172,1811,255,217401008,434,-106,16748,-57,72,-19,-39,50,-355,0,2144,4,1,-24,2421,-1,-1,-1,-1,3,369604106,-1220329471,0,65535,65535,2,0,255,0,0,0,0,0,0,10,0,192,0,3,3
RC_CHANNELS_RAW,217411,0,172,992,933,1083,172,172,172,1811,255,217401008,434,-106,16748,-57,72,-19,-39,50,-355,0,2144,4,1,-24,2421,-1,-1,-1,-1,3,369604106,-1220329471,0,65535,65535,2,0,255,0,0,0,0,0,0,10,0,192,0,3,3
RAW_IMU,217411,0,172,992,933,1083,172,172,172,1811,255,217411150,-547,391,16558,-43,90,-16,-24,47,-337,0,2032,4,1,-24,2421,-1,-1,-1,-1,3,369604106,-1220329471,0,65535,65535,2,0,255,0,0,0,0,0,0,10,0,192,0,3,3
RC_CHANNELS_SCALED,217411,1,172,992,933,1083,172,172,172,1811,255,217411150,-547,391,16558,-43,90,-16,-24,47,-337,0,2032,-4,2,-35,2349,-1,-1,-1,-1,3,369604106,-1220329471,0,65535,65535,2,0,255,0,0,0,0,0,0,10,0,192,0,3,3
RC_CHANNELS_RAW,217431,0,172,992,934,1068,172,172,172,1811,255,217411150,-547,391,16558,-43,90,-16,-24,47,-337,0,2032,-4,2,-35,2349,-1,-1,-1,-1,3,369604106,-1220329471,0,65535,65535,2,0,255,0,0,0,0,0,0,10,0,192,0,3,3
RAW_IMU,217431,0,172,992,934,1068,172,172,172,1811,255,217431146,-121,-672,16658,-51,28,-2,-26,46,-355,0,2064,-4,2,-35,2349,-1,-1,-1,-1,3,369604106,-1220329471,0,65535,65535,2,0,255,0,0,0,0,0,0,10,0,192,0,3,3
RC_CHANNELS_SCALED,217431,1,172,992,934,1068,172,172,172,1811,255,217431146,-121,-672,16658,-51,28,-2,-26,46,-355,0,2064,3,1,-36,2280,-1,-1,-1,-1,3,369604106,-1220329471,0,65535,65535,2,0,255,0,0,0,0,0,0,10,0,192,0,3,3
RC_CHANNELS_RAW,217451,0,172,992,934,1050,172,172,172,1811,255,217431146,-121,-672,16658,-51,28,-2,-26,46,-355,0,2064,3,1,-36,2280,-1,-1,-1,-1,3,369604106,-1220329471,0,65535,65535,2,0,255,0,0,0,0,0,0,10,0,192,0,3,3
RAW_IMU,217451,0,172,992,934,1050,172,172,172,1811,255,217451145,53,-216,16571,-30,107,-24,-30,39,-352,0,2080,3,1,-36,2280,-1,-1,-1,-1,3,369604106,-1220329471,0,65535,65535,2,0,255,0,0,0,0,0,0,10,0,192,0,3,3
RC_CHANNELS_SCALED,217451,1,172,992,934,1050,172,172,172,1811,255,217451145,53,-216,16571,-30,107,-24,-30,39,-352,0,2080,4,1,-33,2218,-1,-1,-1,-1,3,369604106,-1220329471,0,65535,65535,2,0,255,0,0,0,0,0,0,10,0,192,0,3,3
RC_CHANNELS_RAW,217471,0,172,992,934,1033,172,172,172,1811,255,217451145,53,-216,16571,-30,107,-24,-30,39,-352,0,2080,4,1,-33,2218,-1,-1,-1,-1,3,369604106,-1220329471,0,65535,65535,2,0,255,0,0,0,0,0,0,10,0,192,0,3,3
RAW_IMU,217471,0,172,992,934,1033,172,172,172,1811,255,217471143,-527,343,16658,-37,76,-36,-41,46,-353,0,2080,4,1,-33,2218,-1,-1,-1,-1,3,369604106,-1220329471,0,65535,65535,2,0,255,0,0,0,0,0,0,10,0,192,0,3,3
RC_CHANNELS_SCALED,217471,1,172,992,934,1033,172,172,172,1811,255,217471143,-527,343,16658,-37,76,-36,-41,46,-353,0,2080,0,4,-29,2161,-1,-1,-1,-1,3,369604106,-1220329471,0,65535,65535,2,0,255,0,0,0,0,0,0,10,0,192,0,3,3
RC_CHANNELS_RAW,217491,0,172,992,934,1015,172,172,172,1811,255,217471143,-527,343,16658,-37,76,-36,-41,46,-353,0,2080,0,4,-29,2161,-1,-1,-1,-1,3,369604106,-1220329471,0,65535,65535,2,0,255,0,0,0,0,0,0,10,0,192,0,3,3
RAW_IMU,217491,0,172,992,934,1015,172,172,172,1811,255,217491145,127,214,16616,-25,53,-22,-32,47,-344,0,2176,0,4,-29,2161,-1,-1,-1,-1,3,369604106,-1220329471,0,65535,65535,2,0,255,0,0,0,0,0,0,10,0,192,0,3,3
RC_CHANNELS_SCALED,217491,1,172,992,934,1015,172,172,172,1811,255,217491145,127,214,16616,-25,53,-22,-32,47,-344,0,2176,-1,1,-24,2109,-1,-1,-1,-1,3,369604106,-1220329471,0,65535,65535,2,0,255,0,0,0,0,0,0,10,0,192,0,3,3
GPS_RAW_INT,217491,1,172,992,934,1015,172,172,172,1811,255,217502012,127,214,16616,-25,53,-22,-32,47,-344,0,2176,-1,1,-24,2109,-1,-1,-1,-1,3,369604106,-1220329471,0,65535,65535,2,0,255,0,0,0,0,0,0,10,0,192,0,3,3
RC_CHANNELS_RAW,217511,0,172,992,934,1000,172,172,172,1811,255,217502012,127,214,16616,-25,53,-22,-32,47,-344,0,2176,-1,1,-24,2109,-1,-1,-1,-1,3,369604106,-1220329471,0,65535,65535,2,0,255,0,0,0,0,0,0,10,0,192,0,3,3
RAW_IMU,217511,0,172,992,934,1000,172,172,172,1811,255,217511159,-318,-129,16652,-22,85,-27,-26,46,-355,0,2000,-1,1,-24,2109,-1,-1,-1,-1,3,369604106,-1220329471,0,65535,65535,2,0,255,0,0,0,0,0,0,10,0,192,0,3,3
RC_CHANNELS_SCALED,217511,1,172,992,934,1000,172,172,172,1811,255,217511159,-318,-129,16652,-22,85,-27,-26,46,-355,0,2000,1,2,-25,2060,-1,-1,-1,-1,3,369604106,-1220329471,0,65535,65535,2,0,255,0,0,0,0,0,0,10,0,192,0,3,3
RC_CHANNELS_RAW,217531,0,172,992,934,982,172,172,172,1811,255,217511159,-318,-129,16652,-22,85,-27,-26,46,-355,0,2000,1,2,-25,2060,-1,-1,-1,-1,3,369604106,-1220329471,0,65535,65535,2,0,255,0,0,0,0,0,0,10,0,192,0,3,3
RAW_IMU,217531,0,172,992,934,982,172,172,172,1811,255,217531147,-463,58,16618,-42,67,-25,-26,48,-355,0,2032,1,2,-25,2060,-1,-1,-1,-1,3,369604106,-1220329471,0,65535,65535,2,0,255,0,0,0,0,0,0,10,0,192,0,3,3
RC_CHANNELS_SCALED,217531,1,172,992,934,982,172,172,172,1811,255,217531147,-463,58,16618,-42,67,-25,-26,48,-355,0,2032,-1,5,-21,2021,-1,-1,-1,-1,3,369604106,-1220329471,0,65535,65535,2,0,255,0,0,0,0,0,0,10,0,192,0,3,3
RC_CHANNELS_RAW,217551,0,172,992,934,960,172,172,172,1811,255,217531147,-463,58,16618,-42,67,-25,-26,48,-355,0,2032,-1,5,-21,2021,-1,-1,-1,-1,3,369604106,-1220329471,0,65535,65535,2,0,255,0,0,0,0,0,0,10,0,192,0,3,3
RAW_IMU,217551,0,172,992,934,960,172,172,172,1811,255,217551143,-123,-149,16656,-54,63,-15,-32,52,-352,0,1952,-1,5,-21,2021,-1,-1,-1,-1,3,369604106,-1220329471,0,65535,65535,2,0,255,0,0,0,0,0,0,10,0,192,0,3,3
RC_CHANNELS_SCALED,217551,1,172,992,934,960,172,172,172,1811,255,217551143,-123,-149,16656,-54,63,-15,-32,52,-352,0,1952,-3,1,-18,1984,-1,-1,-1,-1,3,369604106,-1220329471,0,65535,65535,2,0,255,0,0,0,0,0,0,10,0,192,0,3,3
RC_CHANNELS_RAW,217571,0,172,992,934,957,172,172,172,1811,255,217551143,-123,-149,16656,-54,63,-15,-32,52,-352,0,1952,-3,1,-18,1984,-1,-1,-1,-1,3,369604106,-1220329471,0,65535,65535,2,0,255,0,0,0,0,0,0,10,0,192,0,3,3
RAW_IMU,217571,0,172,992,934,957,172,172,172,1811,255,217571144,-431,-238,16622,-52,70,-23,-43,61,-361,0,2016,-3,1,-18,1984,-1,-1,-1,-1,3,369604106,-1220329471,0,65535,65535,2,0,255,0,0,0,0,0,0,10,0,192,0,3,3
RC_CHANNELS_SCALED,217571,1,172,992,934,957,172,172,172,1811,255,217571144,-431,-238,16622,-52,70,-23,-43,61,-361,0,2016,-1,3,-17,1952,-1,-1,-1,-1,3,369604106,-1220329471,0,65535,65535,2,0,255,0,0,0,0,0,0,10,0,192,0,3,3
RC_CHANNELS_RAW,217591,0,172,992,934,955,172,172,172,1811,255,217571144,-431,-238,16622,-52,70,-23,-43,61,-361,0,2016,-1,3,-17,1952,-1,-1,-1,-1,3,369604106,-1220329471,0,65535,65535,2,0,255,0,0,0,0,0,0,10,0,192,0,3,3
RAW_IMU,217591,0,172,992,934,955,172,172,172,1811,255,217591144,-290,-189,16706,-47,62,-17,-30,47,-354,0,2080,-1,3,-17,1952,-1,-1,-1,-1,3,369604106,-1220329471,0,65535,65535,2,0,255,0,0,0,0,0,0,10,0,192,0,3,3
RC_CHANNELS_SCALED,217591,1,172,992,934,955,172,172,172,1811,255,217591144,-290,-189,16706,-47,62,-17,-30,47,-354,0,2080,0,-2,-15,1923,-1,-1,-1,-1,3,369604106,-1220329471,0,65535,65535,2,0,255,0,0,0,0,0,0,10,0,192,0,3,3
GPS_RAW_INT,217591,1,172,992,934,955,172,172,172,1811,255,217603009,-290,-189,16706,-47,62,-17,-30,47,-354,0,2080,0,-2,-15,1923,-1,-1,-1,-1,3,369604106,-1220329471,0,65535,65535,1,0,255,0,0,0,0,0,0,10,0,192,0,3,3
RC_CHANNELS_RAW,217611,0,172,992,934,955,172,172,172,1811,255,217603009,-290,-189,16706,-47,62,-17,-30,47,-354,0,2080,0,-2,-15,1923,-1,-1,-1,-1,3,369604106,-1220329471,0,65535,65535,1,0,255,0,0,0,0,0,0,10,0,192,0,3,3
RAW_IMU,217611,0,172,992,934,955,172,172,172,1811,255,217611147,-230,-141,16712,-48,70,-34,-27,49,-364,0,2080,0,-2,-15,1923,-1,-1,-1,-1,3,369604106,-1220329471,0,65535,65535,1,0,255,0,0,0,0,0,0,10,0,192,0,3,3
RC_CHANNELS_SCALED,217611,1,172,992,934,955,172,172,172,1811,255,217611147,-230,-141,16712,-48,70,-34,-27,49,-364,0,2080,2,-1,-19,1892,-1,-1,-1,-1,3,369604106,-1220329471,0,65535,65535,1,0,255,0,0,0,0,0,0,10,0,192,0,3,3
RC_CHANNELS_RAW,217631,0,172,992,933,953,172,172,172,1811,255,217611147,-230,-141,16712,-48,70,-34,-27,49,-364,0,2080,2,-1,-19,1892,-1,-1,-1,-1,3,369604106,-1220329471,0,65535,65535,1,0,255,0,0,0,0,0,0,10,0,192,0,3,3
RAW_IMU,217631,0,172,992,933,953,172,172,172,1811,255,217631143,-417,543,16707,-48,74,0,-24,49,-354,0,2112,2,-1,-19,1892,-1,-1,-1,-1,3,369604106,-1220329471,0,65535,65535,1,0,255,0,0,0,0,0,0,10,0,192,0,3,3
RC_CHANNELS_SCALED,217631,1,172,992,933,953,172,172,172,1811,255,217631143,-417,543,16707,-48,74,0,-24,49,-354,0,2112,4,2,-15,1864,-1,-1,-1,-1,3,369604106,-1220329471,0,65535,65535,1,0,255,0,0,0,0,0,0,10,0,192,0,3,3
RC_CHANNELS_RAW,217651,0,172,992,933,953,172,172,172,1811,255,217631143,-417,543,16707,-48,74,0,-24,49,-354,0,2112,4,2,-15,1864,-1,-1,-1,-1,3,369604106,-1220329471,0,65535,65535,1,0,255,0,0,0,0,0,0,10,0,192,0,3,3
RAW_IMU,217651,0,172,992,933,953,172,172,172,1811,255,217651145,-71,249,16667,-53,66,-3,-39,46,-355,0,2112,4,2,-15,1864,-1,-1,-1,-1,3,369604106,-1220329471,0,65535,65535,1,0,255,0,0,0,0,0,0,10,0,192,0,3,3
RC_CHANNELS_SCALED,217651,1,172,992,933,953,172,172,172,1811,255,217651145,-71,249,16667,-53,66,-3,-39,46,-355,0,2112,3,3,-14,1838,-1,-1,-1,-1,3,369604106,-1220329471,0,65535,65535,1,0,255,0,0,0,0,0,0,10,0,192,0,3,3
RC_CHANNELS_RAW,217671,0,172,992,934,953,172,172,172,1811,255,217651145,-71,249,16667,-53,66,-3,-39,46,-355,0,2112,3,3,-14,1838,-1,-1,-1,-1,3,369604106,-1220329471,0,65535,65535,1,0,255,0,0,0,0,0,0,10,0,192,0,3,3
RAW_IMU,217671,0,172,992,934,953,172,172,172,1811,255,217671146,-307,-540,16649,-36,64,-4,-41,43,-353,0,2128,3,3,-14,1838,-1,-1,-1,-1,3,369604106,-1220329471,0,65535,65535,1,0,255,0,0,0,0,0,0,10,0,192,0,3,3
RC_CHANNELS_SCALED,217671,1,172,992,934,953,172,172,172,1811,255,217671146,-307,-540,16649,-36,64,-4,-41,43,-353,0,2128,2,4,-9,1817,-1,-1,-1,-1,3,369604106,-1220329471,0,65535,65535,1,0,255,0,0,0,0,0,0,10,0,192,0,3,3
RC_CHANNELS_RAW,217691,0,172,992,934,952,172,172,172,1811,255,217671146,-307,-540,16649,-36,64,-4,-41,43,-353,0,2128,2,4,-9,1817,-1,-1,-1,-1,3,369604106,-1220329471,0,65535,65535,1,0,255,0,0,0,0,0,0,10,0,192,0,3,3
RAW_IMU,217691,0,172,992,934,952,172,172,172,1811,255,217691143,-249,-413,16642,-49,65,-20,-27,37,-356,0,2032,2,4,-9,1817,-1,-1,-1,-1,3,369604106,-1220329471,0,65535,65535,1,0,255,0,0,0,0,0,0,10,0,192,0,3,3
RC_CHANNELS_SCALED,217691,1,172,992,934,952,172,172,172,1811,255,217691143,-249,-413,16642,-49,65,-20,-27,37,-356,0,2032,-3,0,-11,1794,-1,-1,-1,-1,3,369604106,-1220329471,0,65535,65535,1,0,255,0,0,0,0,0,0,10,0,192,0,3,3
GPS_RAW_INT,217691,1,172,992,934,952,172,172,172,1811,255,217704005,-249,-413,16642,-49,65,-20,-27,37,-356,0,2032,-3,0,-11,1794,-1,-1,-1,-1,3,369604108,-1220329471,0,65535,65535,4,0,255,0,0,0,0,0,0,10,0,192,0,3,3
RC_CHANNELS_RAW,217711,0,172,992,933,952,172,172,172,1811,255,217704005,-249,-413,16642,-49,65,-20,-27,37,-356,0,2032,-3,0,-11,1794,-1,-1,-1,-1,3,369604108,-1220329471,0,65535,65535,4,0,255,0,0,0,0,0,0,10,0,192,0,3,3
RAW_IMU,217711,0,172,992,933,952,172,172,172,1811,255,217711144,-227,65,16679,-39,61,-26,-30,52,-349,0,2080,-3,0,-11,1794,-1,-1,-1,-1,3,369604108,-1220329471,0,65535,65535,4,0,255,0,0,0,0,0,0,10,0,192,0,3,3
RC_CHANNELS_SCALED,217711,1,172,992,933,952,172,172,172,1811,255,217711144,-227,65,16679,-39,61,-26,-30,52,-349,0,2080,0,-1,-8,1777,-1,-1,-1,-1,3,369604108,-1220329471,0,65535,65535,4,0,255,0,0,0,0,0,0,10,0,192,0,3,3
RC_CHANNELS_RAW,217731,0,172,992,934,952,172,172,172,1811,255,217711144,-227,65,16679,-39,61,-26,-30,52,-349,0,2080,0,-1,-8,1777,-1,-1,-1,-1,3,369604108,-1220329471,0,65535,65535,4,0,255,0,0,0,0,0,0,10,0,192,0,3,3
RAW_IMU,217731,0,172,992,934,952,172,172,172,1811,255,217731144,-276,-73,16600,-37,65,-21,-32,49,-349,0,2128,0,-1,-8,1777,-1,-1,-1,-1,3,369604108,-1220329471,0,65535,65535,4,0,255,0,0,0,0,0,0,10,0,192,0,3,3
RC_CHANNELS_SCALED,217731,1,172,992,934,952,172,172,172,1811,255,217731144,-276,-73,16600,-37,65,-21,-32,49,-349,0,2128,2,-1,-8,1759,-1,-1,-1,-1,3,369604108,-1220329471,0,65535,65535,4,0,255,0,0,0,0,0,0,10,0,192,0,3,3
RC_CHANNELS_RAW,217751,0,172,992,933,952,172,172,172,1811,255,217731144,-276,-73,16600,-37,65,-21,-32,49,-349,0,2128,2,-1,-8,1759,-1,-1,-1,-1,3,369604108,-1220329471,0,65535,65535,4,0,255,0,0,0,0,0,0,10,0,192,0,3,3
RAW_IMU,217751,0,172,992,933,952,172,172,172,1811,255,217751143,-289,22,16691,-52,59,-30,-30,52,-354,0,2016,2,-1,-8,1759,-1,-1,-1,-1,3,369604108,-1220329471,0,65535,65535,4,0,255,0,0,0,0,0,0,10,0,192,0,3,3
RC_CHANNELS_SCALED,217751,1,172,992,933,952,172,172,172,1811,255,217751143,-289,22,16691,-52,59,-30,-30,52,-354,0,2016,1,2,-5,1748,-1,-1,-1,-1,3,369604108,-1220329471,0,65535,65535,4,0,255,0,0,0,0,0,0,10,0,192,0,3,3
RC_CHANNELS_RAW,217771,0,172,992,933,952,172,172,172,1811,255,217751143,-289,22,16691,-52,59,-30,-30,52,-354,0,2016,1,2,-5,1748,-1,-1,-1,-1,3,369604108,-1220329471,0,65535,65535,4,0,255,0,0,0,0,0,0,10,0,192,0,3,3
RAW_IMU,217771,0,172,992,933,952,172,172,172,1811,255,217771143,-186,-149,16652,-51,64,-16,-35,49,-349,0,2064,1,2,-5,1748,-1,-1,-1,-1,3,369604108,-1220329471,0,65535,65535,4,0,255,0,0,0,0,0,0,10,0,192,0,3,3
RC_CHANNELS_SCALED,217771,1,172,992,933,952,172,172,172,1811,255,217771143,-186,-149,16652,-51,64,-16,-35,49,-349,0,2064,-2,1,1,1747,-1,-1,-1,-1,3,369604108,-1220329471,0,65535,65535,4,0,255,0,0,0,0,0,0,10,0,192,0,3,3
RC_CHANNELS_RAW,217791,0,172,992,934,952,172,172,172,1811,255,217771143,-186,-149,16652,-51,64,-16,-35,49,-349,0,2064,-2,1,1,1747,-1,-1,-1,-1,3,369604108,-1220329471,0,65535,65535,4,0,255,0,0,0,0,0,0,10,0,192,0,3,3
