mavpackettype,time_usec,fix_type,lat,lon,alt,eph,epv,vel,cog,satellites_visible,alt_ellipsoid,h_acc,v_acc,vel_acc,hdg_acc,yaw,index,frequency,time_boot_ms,q1,q2,q3,q4,rollspeed,pitchspeed,yawspeed,repr_offset_q,x,y,z,vx,vy,vz,type,autopilot,base_mode,custom_mode,system_status,mavlink_version
RAW_RPM,160198006,3,369992826,-1220636203,0,65535,65535,30,0,255,0,0,0,0,0,0,1,0.1660534292459488,160204,0.14553804695606232,0.010147087275981903,0.10826174169778824,0.9833590984344482,0.162724107503891,0.03142625838518143,0.8485090136528015,"[0.0, 0.0, 0.0, 0.0]",-6.405856132507324,1.93873131275177,0.0,-0.34153375029563904,0.10309037566184998,0.0,10,0,192,0,3,3
RAW_RPM,160198006,3,369992826,-1220636203,0,65535,65535,30,0,255,0,0,0,0,0,0,2,0.8428457975387573,160204,0.14553804695606232,0.010147087275981903,0.10826174169778824,0.9833590984344482,0.162724107503891,0.03142625838518143,0.8485090136528015,"[0.0, 0.0, 0.0, 0.0]",-6.405856132507324,1.93873131275177,0.0,-0.34153375029563904,0.10309037566184998,0.0,10,0,192,0,3,3
ATTITUDE_QUATERNION,160198006,3,369992826,-1220636203,0,65535,65535,30,0,255,0,0,0,0,0,0,2,0.8428457975387573,160254,0.12983448803424835,0.006697403267025948,0.10615208745002747,0.9858143329620361,0.2916250228881836,-0.07829932123422623,0.8847291469573975,"[0.0, 0.0, 0.0, 0.0]",-6.405856132507324,1.93873131275177,0.0,-0.34153375029563904,0.10309037566184998,0.0,10,0,192,0,3,3
LOCAL_POSITION_NED,160198006,3,369992826,-1220636203,0,65535,65535,30,0,255,0,0,0,0,0,0,2,0.8428457975387573,160254,0.12983448803424835,0.006697403267025948,0.10615208745002747,0.9858143329620361,0.2916250228881836,-0.07829932123422623,0.8847291469573975,"[0.0, 0.0, 0.0, 0.0]",-6.4230804443359375,1.9435352087020874,0.0,-0.34729287028312683,0.09168785065412521,0.0,10,0,192,0,3,3
GPS_RAW_INT,160299006,3,369992830,-1220636208,0,65535,65535,38,29145,255,0,0,0,0,0,0,2,0.8428457975387573,160254,0.12983448803424835,0.006697403267025948,0.10615208745002747,0.9858143329620361,0.2916250228881836,-0.07829932123422623,0.8847291469573975,"[0.0, 0.0, 0.0, 0.0]",-6.4230804443359375,1.9435352087020874,0.0,-0.34729287028312683,0.09168785065412521,0.0,10,0,192,0,3,3
RAW_RPM,160299006,3,369992830,-1220636208,0,65535,65535,38,29145,255,0,0,0,0,0,0,0,0.031446605920791626,160254,0.12983448803424835,0.006697403267025948,0.10615208745002747,0.9858143329620361,0.2916250228881836,-0.07829932123422623,0.8847291469573975,"[0.0, 0.0, 0.0, 0.0]",-6.4230804443359375,1.9435352087020874,0.0,-0.34729287028312683,0.09168785065412521,0.0,10,0,192,0,3,3
RAW_RPM,160299006,3,369992830,-1220636208,0,65535,65535,38,29145,255,0,0,0,0,0,0,1,0.12616991996765137,160254,0.12983448803424835,0.006697403267025948,0.10615208745002747,0.9858143329620361,0.2916250228881836,-0.07829932123422623,0.8847291469573975,"[0.0, 0.0, 0.0, 0.0]",-6.4230804443359375,1.9435352087020874,0.0,-0.34729287028312683,0.09168785065412521,0.0,10,0,192,0,3,3
RAW_RPM,160299006,3,369992830,-1220636208,0,65535,65535,38,29145,255,0,0,0,0,0,0,2,0.841292679309845,160254,0.12983448803424835,0.006697403267025948,0.10615208745002747,0.9858143329620361,0.2916250228881836,-0.07829932123422623,0.8847291469573975,"[0.0, 0.0, 0.0, 0.0]",-6.4230804443359375,1.9435352087020874,0.0,-0.34729287028312683,0.09168785065412521,0.0,10,0,192,0,3,3
ATTITUDE_QUATERNION,160299006,3,369992830,-1220636208,0,65535,65535,38,29145,255,0,0,0,0,0,0,2,0.841292679309845,160305,0.11351592093706131,0.008476980961859226,0.10867547243833542,0.9875383377075195,0.018909020349383354,-0.1459456831216812,0.6450372934341431,"[0.0, 0.0, 0.0, 0.0]",-6.4230804443359375,1.9435352087020874,0.0,-0.34729287028312683,0.09168785065412521,0.0,10,0,192,0,3,3
LOCAL_POSITION_NED,160299006,3,369992830,-1220636208,0,65535,65535,38,29145,255,0,0,0,0,0,0,2,0.841292679309845,160305,0.11351592093706131,0.008476980961859226,0.10867547243833542,0.9875383377075195,0.018909020349383354,-0.1459456831216812,0.6450372934341431,"[0.0, 0.0, 0.0, 0.0]",-6.4405083656311035,1.9477773904800415,0.0,-0.3474218547344208,0.08004754781723022,0.0,10,0,192,0,3,3
RAW_RPM,160299006,3,369992830,-1220636208,0,65535,65535,38,29145,255,0,0,0,0,0,0,0,0.006519418675452471,160305,0.11351592093706131,0.008476980961859226,0.10867547243833542,0.9875383377075195,0.018909020349383354,-0.1459456831216812,0.6450372934341431,"[0.0, 0.0, 0.0, 0.0]",-6.4405083656311035,1.9477773904800415,0.0,-0.3474218547344208,0.08004754781723022,0.0,10,0,192,0,3,3
RAW_RPM,160299006,3,369992830,-1220636208,0,65535,65535,38,29145,255,0,0,0,0,0,0,1,0.10009224712848663,160305,0.11351592093706131,0.008476980961859226,0.10867547243833542,0.9875383377075195,0.018909020349383354,-0.1459456831216812,0.6450372934341431,"[0.0, 0.0, 0.0, 0.0]",-6.4405083656311035,1.9477773904800415,0.0,-0.3474218547344208,0.08004754781723022,0.0,10,0,192,0,3,3
RAW_RPM,160299006,3,369992830,-1220636208,0,65535,65535,38,29145,255,0,0,0,0,0,0,2,0.8311971426010132,160305,0.11351592093706131,0.008476980961859226,0.10867547243833542,0.9875383377075195,0.018909020349383354,-0.1459456831216812,0.6450372934341431,"[0.0, 0.0, 0.0, 0.0]",-6.4405083656311035,1.9477773904800415,0.0,-0.3474218547344208,0.08004754781723022,0.0,10,0,192,0,3,3
ATTITUDE_QUATERNION,160299006,3,369992830,-1220636208,0,65535,65535,38,29145,255,0,0,0,0,0,0,2,0.8311971426010132,160356,0.09714529663324356,0.01104804314672947,0.10167412459850311,0.9900015592575073,0.05725971236824989,-0.06817900389432907,0.5686022639274597,"[0.0, 0.0, 0.0, 0.0]",-6.4405083656311035,1.9477773904800415,0.0,-0.3474218547344208,0.08004754781723022,0.0,10,0,192,0,3,3
LOCAL_POSITION_NED,160299006,3,369992830,-1220636208,0,65535,65535,38,29145,255,0,0,0,0,0,0,2,0.8311971426010132,160356,0.09714529663324356,0.01104804314672947,0.10167412459850311,0.9900015592575073,0.05725971236824989,-0.06817900389432907,0.5686022639274597,"[0.0, 0.0, 0.0, 0.0]",-6.457897663116455,1.9514422416687012,0.0,-0.3502557873725891,0.06949321925640106,0.0,10,0,192,0,3,3
GPS_RAW_INT,160400006,3,369992831,-1220636211,0,65535,65535,34,0,255,0,0,0,0,0,0,2,0.8311971426010132,160356,0.09714529663324356,0.01104804314672947,0.10167412459850311,0.9900015592575073,0.05725971236824989,-0.06817900389432907,0.5686022639274597,"[0.0, 0.0, 0.0, 0.0]",-6.457897663116455,1.9514422416687012,0.0,-0.3502557873725891,0.06949321925640106,0.0,10,0,192,0,3,3
RAW_RPM,160400006,3,369992831,-1220636211,0,65535,65535,34,0,255,0,0,0,0,0,0,0,0.1035437062382698,160356,0.09714529663324356,0.01104804314672947,0.10167412459850311,0.9900015592575073,0.05725971236824989,-0.06817900389432907,0.5686022639274597,"[0.0, 0.0, 0.0, 0.0]",-6.457897663116455,1.9514422416687012,0.0,-0.3502557873725891,0.06949321925640106,0.0,10,0,192,0,3,3
RAW_RPM,160400006,3,369992831,-1220636211,0,65535,65535,34,0,255,0,0,0,0,0,0,1,0.12808740139007568,160356,0.09714529663324356,0.01104804314672947,0.10167412459850311,0.9900015592575073,0.05725971236824989,-0.06817900389432907,0.5686022639274597,"[0.0, 0.0, 0.0, 0.0]",-6.457897663116455,1.9514422416687012,0.0,-0.3502557873725891,0.06949321925640106,0.0,10,0,192,0,3,3
RAW_RPM,160400006,3,369992831,-1220636211,0,65535,65535,34,0,255,0,0,0,0,0,0,2,0.8081586360931396,160356,0.09714529663324356,0.01104804314672947,0.10167412459850311,0.9900015592575073,0.05725971236824989,-0.06817900389432907,0.5686022639274597,"[0.0, 0.0, 0.0, 0.0]",-6.457897663116455,1.9514422416687012,0.0,-0.3502557873725891,0.06949321925640106,0.0,10,0,192,0,3,3
ATTITUDE_QUATERNION,160400006,3,369992831,-1220636211,0,65535,65535,34,0,255,0,0,0,0,0,0,2,0.8081586360931396,160407,0.08141489326953888,0.008858432061970234,0.09230095893144608,0.9923577308654785,0.016245778650045395,-0.07670138031244278,0.5124078392982483,"[0.0, 0.0, 0.0, 0.0]",-6.457897663116455,1.9514422416687012,0.0,-0.3502557873725891,0.06949321925640106,0.0,10,0,192,0,3,3
LOCAL_POSITION_NED,160400006,3,369992831,-1220636211,0,65535,65535,34,0,255,0,0,0,0,0,0,2,0.8081586360931396,160407,0.08141489326953888,0.008858432061970234,0.09230095893144608,0.9923577308654785,0.016245778650045395,-0.07670138031244278,0.5124078392982483,"[0.0, 0.0, 0.0, 0.0]",-6.475464344024658,1.9545596837997437,0.0,-0.35617566108703613,0.058528147637844086,0.0,10,0,192,0,3,3
RAW_RPM,160400006,3,369992831,-1220636211,0,65535,65535,34,0,255,0,0,0,0,0,0,0,0.03681553900241852,160407,0.08141489326953888,0.008858432061970234,0.09230095893144608,0.9923577308654785,0.016245778650045395,-0.07670138031244278,0.5124078392982483,"[0.0, 0.0, 0.0, 0.0]",-6.475464344024658,1.9545596837997437,0.0,-0.35617566108703613,0.058528147637844086,0.0,10,0,192,0,3,3
RAW_RPM,160400006,3,369992831,-1220636211,0,65535,65535,34,0,255,0,0,0,0,0,0,1,0.14764565229415894,160407,0.08141489326953888,0.008858432061970234,0.09230095893144608,0.9923577308654785,0.016245778650045395,-0.07670138031244278,0.5124078392982483,"[0.0, 0.0, 0.0, 0.0]",-6.475464344024658,1.9545596837997437,0.0,-0.35617566108703613,0.058528147637844086,0.0,10,0,192,0,3,3
RAW_RPM,160400006,3,369992831,-1220636211,0,65535,65535,34,0,255,0,0,0,0,0,0,2,0.7804607152938843,160407,0.08141489326953888,0.008858432061970234,0.09230095893144608,0.9923577308654785,0.016245778650045395,-0.07670138031244278,0.5124078392982483,"[0.0, 0.0, 0.0, 0.0]",-6.475464344024658,1.9545596837997437,0.0,-0.35617566108703613,0.058528147637844086,0.0,10,0,192,0,3,3
ATTITUDE_QUATERNION,160400006,3,369992831,-1220636211,0,65535,65535,34,0,255,0,0,0,0,0,0,2,0.7804607152938843,160458,0.06697383522987366,0.01535775326192379,0.09648371487855911,0.9929600358009338,0.06152089685201645,-0.009321347810328007,0.5662053823471069,"[0.0, 0.0, 0.0, 0.0]",-6.475464344024658,1.9545596837997437,0.0,-0.35617566108703613,0.058528147637844086,0.0,10,0,192,0,3,3
LOCAL_POSITION_NED,160400006,3,369992831,-1220636211,0,65535,65535,34,0,255,0,0,0,0,0,0,2,0.7804607152938843,160458,0.06697383522987366,0.01535775326192379,0.09648371487855911,0.9929600358009338,0.06152089685201645,-0.009321347810328007,0.5662053823471069,"[0.0, 0.0, 0.0, 0.0]",-6.494083881378174,1.9572736024856567,0.0,-0.3828636705875397,0.05126044154167175,0.0,10,0,192,0,3,3
GPS_RAW_INT,160501005,3,369992835,-1220636213,0,65535,65535,33,0,255,0,0,0,0,0,0,2,0.7804607152938843,160458,0.06697383522987366,0.01535775326192379,0.09648371487855911,0.9929600358009338,0.06152089685201645,-0.009321347810328007,0.5662053823471069,"[0.0, 0.0, 0.0, 0.0]",-6.494083881378174,1.9572736024856567,0.0,-0.3828636705875397,0.05126044154167175,0.0,10,0,192,0,3,3
RAW_RPM,160501005,3,369992835,-1220636213,0,65535,65535,33,0,255,0,0,0,0,0,0,0,0.09664079546928406,160458,0.06697383522987366,0.01535775326192379,0.09648371487855911,0.9929600358009338,0.06152089685201645,-0.009321347810328007,0.5662053823471069,"[0.0, 0.0, 0.0, 0.0]",-6.494083881378174,1.9572736024856567,0.0,-0.3828636705875397,0.05126044154167175,0.0,10,0,192,0,3,3
RAW_RPM,160501005,3,369992835,-1220636213,0,65535,65535,33,0,255,0,0,0,0,0,0,1,0.12616991996765137,160458,0.06697383522987366,0.01535775326192379,0.09648371487855911,0.9929600358009338,0.06152089685201645,-0.009321347810328007,0.5662053823471069,"[0.0, 0.0, 0.0, 0.0]",-6.494083881378174,1.9572736024856567,0.0,-0.3828636705875397,0.05126044154167175,0.0,10,0,192,0,3,3
RAW_RPM,160501005,3,369992835,-1220636213,0,65535,65535,33,0,255,0,0,0,0,0,0,2,0.7659645676612854,160458,0.06697383522987366,0.01535775326192379,0.09648371487855911,0.9929600358009338,0.06152089685201645,-0.009321347810328007,0.5662053823471069,"[0.0, 0.0, 0.0, 0.0]",-6.494083881378174,1.9572736024856567,0.0,-0.3828636705875397,0.05126044154167175,0.0,10,0,192,0,3,3
ATTITUDE_QUATERNION,160501005,3,369992835,-1220636213,0,65535,65535,33,0,255,0,0,0,0,0,0,2,0.7659645676612854,160509,0.05263930931687355,0.013786060735583305,0.08858522772789001,0.9945811629295349,0.09933893382549286,-0.07856564968824387,0.5030864477157593,"[0.0, 0.0, 0.0, 0.0]",-6.494083881378174,1.9572736024856567,0.0,-0.3828636705875397,0.05126044154167175,0.0,10,0,192,0,3,3
LOCAL_POSITION_NED,160501005,3,369992835,-1220636213,0,65535,65535,33,0,255,0,0,0,0,0,0,2,0.7659645676612854,160509,0.05263930931687355,0.013786060735583305,0.08858522772789001,0.9945811629295349,0.09933893382549286,-0.07856564968824387,0.5030864477157593,"[0.0, 0.0, 0.0, 0.0]",-6.513676643371582,1.9595744609832764,0.0,-0.40102508664131165,0.042368367314338684,0.0,10,0,192,0,3,3
RAW_RPM,160501005,3,369992835,-1220636213,0,65535,65535,33,0,255,0,0,0,0,0,0,0,0.04103398695588112,160509,0.05263930931687355,0.013786060735583305,0.08858522772789001,0.9945811629295349,0.09933893382549286,-0.07856564968824387,0.5030864477157593,"[0.0, 0.0, 0.0, 0.0]",-6.513676643371582,1.9595744609832764,0.0,-0.40102508664131165,0.042368367314338684,0.0,10,0,192,0,3,3
RAW_RPM,160501005,3,369992835,-1220636213,0,65535,65535,33,0,255,0,0,0,0,0,0,1,0.10737866163253784,160509,0.05263930931687355,0.013786060735583305,0.08858522772789001,0.9945811629295349,0.09933893382549286,-0.07856564968824387,0.5030864477157593,"[0.0, 0.0, 0.0, 0.0]",-6.513676643371582,1.9595744609832764,0.0,-0.40102508664131165,0.042368367314338684,0.0,10,0,192,0,3,3
RAW_RPM,160501005,3,369992835,-1220636213,0,65535,65535,33,0,255,0,0,0,0,0,0,2,0.7594930529594421,160509,0.05263930931687355,0.013786060735583305,0.08858522772789001,0.9945811629295349,0.09933893382549286,-0.07856564968824387,0.5030864477157593,"[0.0, 0.0, 0.0, 0.0]",-6.513676643371582,1.9595744609832764,0.0,-0.40102508664131165,0.042368367314338684,0.0,10,0,192,0,3,3
ATTITUDE_QUATERNION,160501005,3,369992835,-1220636213,0,65535,65535,33,0,255,0,0,0,0,0,0,2,0.7594930529594421,160560,0.04056365787982941,0.012779811397194862,0.09107468277215958,0.9949355125427246,0.0865553766489029,-0.12969990074634552,0.7390497922897339,"[0.0, 0.0, 0.0, 0.0]",-6.513676643371582,1.9595744609832764,0.0,-0.40102508664131165,0.042368367314338684,0.0,10,0,192,0,3,3
LOCAL_POSITION_NED,160501005,3,369992835,-1220636213,0,65535,65535,33,0,255,0,0,0,0,0,0,2,0.7594930529594421,160560,0.04056365787982941,0.012779811397194862,0.09107468277215958,0.9949355125427246,0.0865553766489029,-0.12969990074634552,0.7390497922897339,"[0.0, 0.0, 0.0, 0.0]",-6.534067630767822,1.9614036083221436,0.0,-0.4113156199455261,0.032607551664114,0.0,10,0,192,0,3,3
GPS_RAW_INT,160602004,3,369992838,-1220636215,0,65535,65535,36,30539,255,0,0,0,0,0,0,2,0.7594930529594421,160560,0.04056365787982941,0.012779811397194862,0.09107468277215958,0.9949355125427246,0.0865553766489029,-0.12969990074634552,0.7390497922897339,"[0.0, 0.0, 0.0, 0.0]",-6.534067630767822,1.9614036083221436,0.0,-0.4113156199455261,0.032607551664114,0.0,10,0,192,0,3,3
RAW_RPM,160602004,3,369992838,-1220636215,0,65535,65535,36,30539,255,0,0,0,0,0,0,0,0.08053399622440338,160560,0.04056365787982941,0.012779811397194862,0.09107468277215958,0.9949355125427246,0.0865553766489029,-0.12969990074634552,0.7390497922897339,"[0.0, 0.0, 0.0, 0.0]",-6.534067630767822,1.9614036083221436,0.0,-0.4113156199455261,0.032607551664114,0.0,10,0,192,0,3,3
RAW_RPM,160602004,3,369992838,-1220636215,0,65535,65535,36,30539,255,0,0,0,0,0,0,1,0.11044661700725555,160560,0.04056365787982941,0.012779811397194862,0.09107468277215958,0.9949355125427246,0.0865553766489029,-0.12969990074634552,0.7390497922897339,"[0.0, 0.0, 0.0, 0.0]",-6.534067630767822,1.9614036083221436,0.0,-0.4113156199455261,0.032607551664114,0.0,10,0,192,0,3,3
RAW_RPM,160602004,3,369992838,-1220636215,0,65535,65535,36,30539,255,0,0,0,0,0,0,2,0.7556102275848389,160560,0.04056365787982941,0.012779811397194862,0.09107468277215958,0.9949355125427246,0.0865553766489029,-0.12969990074634552,0.7390497922897339,"[0.0, 0.0, 0.0, 0.0]",-6.534067630767822,1.9614036083221436,0.0,-0.4113156199455261,0.032607551664114,0.0,10,0,192,0,3,3
ATTITUDE_QUATERNION,160602004,3,369992838,-1220636215,0,65535,65535,36,30539,255,0,0,0,0,0,0,2,0.7556102275848389,160611,0.026911865919828415,0.016685787588357925,0.08462303131818771,0.9959098100662231,-0.07643505185842514,0.006391781847923994,0.6450372934341431,"[0.0, 0.0, 0.0, 0.0]",-6.534067630767822,1.9614036083221436,0.0,-0.4113156199455261,0.032607551664114,0.0,10,0,192,0,3,3
LOCAL_POSITION_NED,160602004,3,369992838,-1220636215,0,65535,65535,36,30539,255,0,0,0,0,0,0,2,0.7556102275848389,160611,0.026911865919828415,0.016685787588357925,0.08462303131818771,0.9959098100662231,-0.07643505185842514,0.006391781847923994,0.6450372934341431,"[0.0, 0.0, 0.0, 0.0]",-6.554436206817627,1.9626996517181396,0.0,-0.4086601138114929,0.021779635921120644,0.0,10,0,192,0,3,3
RAW_RPM,160602004,3,369992838,-1220636215,0,65535,65535,36,30539,255,0,0,0,0,0,0,0,0.0007669904152862728,160611,0.026911865919828415,0.016685787588357925,0.08462303131818771,0.9959098100662231,-0.07643505185842514,0.006391781847923994,0.6450372934341431,"[0.0, 0.0, 0.0, 0.0]",-6.554436206817627,1.9626996517181396,0.0,-0.4086601138114929,0.021779635921120644,0.0,10,0,192,0,3,3
RAW_RPM,160602004,3,369992838,-1220636215,0,65535,65535,36,30539,255,0,0,0,0,0,0,1,0.14304371178150177,160611,0.026911865919828415,0.016685787588357925,0.08462303131818771,0.9959098100662231,-0.07643505185842514,0.006391781847923994,0.6450372934341431,"[0.0, 0.0, 0.0, 0.0]",-6.554436206817627,1.9626996517181396,0.0,-0.4086601138114929,0.021779635921120644,0.0,10,0,192,0,3,3
RAW_RPM,160602004,3,369992838,-1220636215,0,65535,65535,36,30539,255,0,0,0,0,0,0,2,0.7455146908760071,160611,0.026911865919828415,0.016685787588357925,0.08462303131818771,0.9959098100662231,-0.07643505185842514,0.006391781847923994,0.6450372934341431,"[0.0, 0.0, 0.0, 0.0]",-6.554436206817627,1.9626996517181396,0.0,-0.4086601138114929,0.021779635921120644,0.0,10,0,192,0,3,3
ATTITUDE_QUATERNION,160602004,3,369992838,-1220636215,0,65535,65535,36,30539,255,0,0,0,0,0,0,2,0.7455146908760071,160662,0.013507785275578499,0.017520586028695107,0.09268645197153091,0.9954496026039124,-0.30840346217155457,0.03755171597003937,0.37418556213378906,"[0.0, 0.0, 0.0, 0.0]",-6.554436206817627,1.9626996517181396,0.0,-0.4086601138114929,0.021779635921120644,0.0,10,0,192,0,3,3
LOCAL_POSITION_NED,160602004,3,369992838,-1220636215,0,65535,65535,36,30539,255,0,0,0,0,0,0,2,0.7455146908760071,160662,0.013507785275578499,0.017520586028695107,0.09268645197153091,0.9954496026039124,-0.30840346217155457,0.03755171597003937,0.37418556213378906,"[0.0, 0.0, 0.0, 0.0]",-6.574883460998535,1.9634535312652588,0.0,-0.4064912796020508,0.010882976464927197,0.0,10,0,192,0,3,3
GPS_RAW_INT,160703422,3,369992838,-1220636220,0,65535,65535,40,30527,255,0,0,0,0,0,0,2,0.7455146908760071,160662,0.013507785275578499,0.017520586028695107,0.09268645197153091,0.9954496026039124,-0.30840346217155457,0.03755171597003937,0.37418556213378906,"[0.0, 0.0, 0.0, 0.0]",-6.574883460998535,1.9634535312652588,0.0,-0.4064912796020508,0.010882976464927197,0.0,10,0,192,0,3,3
RAW_RPM,160703422,3,369992838,-1220636220,0,65535,65535,40,30527,255,0,0,0,0,0,0,0,0.018024275079369545,160662,0.013507785275578499,0.017520586028695107,0.09268645197153091,0.9954496026039124,-0.30840346217155457,0.03755171597003937,0.37418556213378906,"[0.0, 0.0, 0.0, 0.0]",-6.574883460998535,1.9634535312652588,0.0,-0.4064912796020508,0.010882976464927197,0.0,10,0,192,0,3,3
RAW_RPM,160703422,3,369992838,-1220636220,0,65535,65535,40,30527,255,0,0,0,0,0,0,1,0.16106799244880676,160662,0.013507785275578499,0.017520586028695107,0.09268645197153091,0.9954496026039124,-0.30840346217155457,0.03755171597003937,0.37418556213378906,"[0.0, 0.0, 0.0, 0.0]",-6.574883460998535,1.9634535312652588,0.0,-0.4064912796020508,0.010882976464927197,0.0,10,0,192,0,3,3
RAW_RPM,160703422,3,369992838,-1220636220,0,65535,65535,40,30527,255,0,0,0,0,0,0,2,0.7144515514373779,160662,0.013507785275578499,0.017520586028695107,0.09268645197153091,0.9954496026039124,-0.30840346217155457,0.03755171597003937,0.37418556213378906,"[0.0, 0.0, 0.0, 0.0]",-6.574883460998535,1.9634535312652588,0.0,-0.4064912796020508,0.010882976464927197,0.0,10,0,192,0,3,3
ATTITUDE_QUATERNION,160703422,3,369992838,-1220636220,0,65535,65535,40,30527,255,0,0,0,0,0,0,2,0.7144515514373779,160713,-0.0034455526620149612,0.023374591022729874,0.07988184690475464,0.9965243339538574,0.07350549101829529,-0.09347980469465256,0.6021590828895569,"[0.0, 0.0, 0.0, 0.0]",-6.574883460998535,1.9634535312652588,0.0,-0.4064912796020508,0.010882976464927197,0.0,10,0,192,0,3,3
LOCAL_POSITION_NED,160703422,3,369992838,-1220636220,0,65535,65535,40,30527,255,0,0,0,0,0,0,2,0.7144515514373779,160714,-0.0034455526620149612,0.023374591022729874,0.07988184690475464,0.9965243339538574,0.07350549101829529,-0.09347980469465256,0.6021590828895569,"[0.0, 0.0, 0.0, 0.0]",-6.599009990692139,1.963674545288086,0.0,-0.4012022614479065,-0.0017112139612436295,0.0,10,0,192,0,3,3
RAW_RPM,160703422,3,369992838,-1220636220,0,65535,65535,40,30527,255,0,0,0,0,0,0,0,0.006519418675452471,160714,-0.0034455526620149612,0.023374591022729874,0.07988184690475464,0.9965243339538574,0.07350549101829529,-0.09347980469465256,0.6021590828895569,"[0.0, 0.0, 0.0, 0.0]",-6.599009990692139,1.963674545288086,0.0,-0.4012022614479065,-0.0017112139612436295,0.0,10,0,192,0,3,3
RAW_RPM,160703422,3,369992838,-1220636220,0,65535,65535,40,30527,255,0,0,0,0,0,0,1,0.13882526755332947,160714,-0.0034455526620149612,0.023374591022729874,0.07988184690475464,0.9965243339538574,0.07350549101829529,-0.09347980469465256,0.6021590828895569,"[0.0, 0.0, 0.0, 0.0]",-6.599009990692139,1.963674545288086,0.0,-0.4012022614479065,-0.0017112139612436295,0.0,10,0,192,0,3,3
RAW_RPM,160703422,3,369992838,-1220636220,0,65535,65535,40,30527,255,0,0,0,0,0,0,2,0.6996966600418091,160714,-0.0034455526620149612,0.023374591022729874,0.07988184690475464,0.9965243339538574,0.07350549101829529,-0.09347980469465256,0.6021590828895569,"[0.0, 0.0, 0.0, 0.0]",-6.599009990692139,1.963674545288086,0.0,-0.4012022614479065,-0.0017112139612436295,0.0,10,0,192,0,3,3
ATTITUDE_QUATERNION,160703422,3,369992838,-1220636220,0,65535,65535,40,30527,255,0,0,0,0,0,0,2,0.6996966600418091,160764,-0.016192352399230003,0.027627671137452126,0.07900165021419525,0.9963600039482117,-0.04767204076051712,0.1432824432849884,0.5060160756111145,"[0.0, 0.0, 0.0, 0.0]",-6.599009990692139,1.963674545288086,0.0,-0.4012022614479065,-0.0017112139612436295,0.0,10,0,192,0,3,3
LOCAL_POSITION_NED,160703422,3,369992838,-1220636220,0,65535,65535,40,30527,255,0,0,0,0,0,0,2,0.6996966600418091,160764,-0.016192352399230003,0.027627671137452126,0.07900165021419525,0.9963600039482117,-0.04767204076051712,0.1432824432849884,0.5060160756111145,"[0.0, 0.0, 0.0, 0.0]",-6.6194047927856445,1.96326744556427,0.0,-0.4086994230747223,-0.012643769383430481,0.0,10,0,192,0,3,3
GPS_RAW_INT,160804004,3,369992841,-1220636223,0,65535,65535,40,30797,255,0,0,0,0,0,0,2,0.6996966600418091,160764,-0.016192352399230003,0.027627671137452126,0.07900165021419525,0.9963600039482117,-0.04767204076051712,0.1432824432849884,0.5060160756111145,"[0.0, 0.0, 0.0, 0.0]",-6.6194047927856445,1.96326744556427,0.0,-0.4086994230747223,-0.012643769383430481,0.0,10,0,192,0,3,3
RAW_RPM,160804004,3,369992841,-1220636223,0,65535,65535,40,30797,255,0,0,0,0,0,0,0,0.004601942375302315,160764,-0.016192352399230003,0.027627671137452126,0.07900165021419525,0.9963600039482117,-0.04767204076051712,0.1432824432849884,0.5060160756111145,"[0.0, 0.0, 0.0, 0.0]",-6.6194047927856445,1.96326744556427,0.0,-0.4086994230747223,-0.012643769383430481,0.0,10,0,192,0,3,3
RAW_RPM,160804004,3,369992841,-1220636223,0,65535,65535,40,30797,255,0,0,0,0,0,0,1,0.11581555008888245,160764,-0.016192352399230003,0.027627671137452126,0.07900165021419525,0.9963600039482117,-0.04767204076051712,0.1432824432849884,0.5060160756111145,"[0.0, 0.0, 0.0, 0.0]",-6.6194047927856445,1.96326744556427,0.0,-0.4086994230747223,-0.012643769383430481,0.0,10,0,192,0,3,3
RAW_RPM,160804004,3,369992841,-1220636223,0,65535,65535,40,30797,255,0,0,0,0,0,0,2,0.7048737406730652,160764,-0.016192352399230003,0.027627671137452126,0.07900165021419525,0.9963600039482117,-0.04767204076051712,0.1432824432849884,0.5060160756111145,"[0.0, 0.0, 0.0, 0.0]",-6.6194047927856445,1.96326744556427,0.0,-0.4086994230747223,-0.012643769383430481,0.0,10,0,192,0,3,3
ATTITUDE_QUATERNION,160804004,3,369992841,-1220636223,0,65535,65535,40,30797,255,0,0,0,0,0,0,2,0.7048737406730652,160815,-0.030080389231443405,0.03275977820158005,0.0811246857047081,0.9957111477851868,0.06365149468183517,0.09401245415210724,0.3712559640407562,"[0.0, 0.0, 0.0, 0.0]",-6.6194047927856445,1.96326744556427,0.0,-0.4086994230747223,-0.012643769383430481,0.0,10,0,192,0,3,3
LOCAL_POSITION_NED,160804004,3,369992841,-1220636223,0,65535,65535,40,30797,255,0,0,0,0,0,0,2,0.7048737406730652,160815,-0.030080389231443405,0.03275977820158005,0.0811246857047081,0.9957111477851868,0.06365149468183517,0.09401245415210724,0.3712559640407562,"[0.0, 0.0, 0.0, 0.0]",-6.639481067657471,1.9623441696166992,0.0,-0.3956535756587982,-0.022363193333148956,0.0,10,0,192,0,3,3
RAW_RPM,160804004,3,369992841,-1220636223,0,65535,65535,40,30797,255,0,0,0,0,0,0,0,0.009587380103766918,160815,-0.030080389231443405,0.03275977820158005,0.0811246857047081,0.9957111477851868,0.06365149468183517,0.09401245415210724,0.3712559640407562,"[0.0, 0.0, 0.0, 0.0]",-6.639481067657471,1.9623441696166992,0.0,-0.3956535756587982,-0.022363193333148956,0.0,10,0,192,0,3,3
RAW_RPM,160804004,3,369992841,-1220636223,0,65535,65535,40,30797,255,0,0,0,0,0,0,1,0.1384417712688446,160815,-0.030080389231443405,0.03275977820158005,0.0811246857047081,0.9957111477851868,0.06365149468183517,0.09401245415210724,0.3712559640407562,"[0.0, 0.0, 0.0, 0.0]",-6.639481067657471,1.9623441696166992,0.0,-0.3956535756587982,-0.022363193333148956,0.0,10,0,192,0,3,3
RAW_RPM,160804004,3,369992841,-1220636223,0,65535,65535,40,30797,255,0,0,0,0,0,0,2,0.7090155482292175,160815,-0.030080389231443405,0.03275977820158005,0.0811246857047081,0.9957111477851868,0.06365149468183517,0.09401245415210724,0.3712559640407562,"[0.0, 0.0, 0.0, 0.0]",-6.639481067657471,1.9623441696166992,0.0,-0.3956535756587982,-0.022363193333148956,0.0,10,0,192,0,3,3
ATTITUDE_QUATERNION,160804004,3,369992841,-1220636223,0,65535,65535,40,30797,255,0,0,0,0,0,0,2,0.7090155482292175,160866,-0.044112637639045715,0.04182063415646553,0.0796910747885704,0.9949645400047302,-0.05805868282914162,-0.082027867436409,0.5406382083892822,"[0.0, 0.0, 0.0, 0.0]",-6.639481067657471,1.9623441696166992,0.0,-0.3956535756587982,-0.022363193333148956,0.0,10,0,192,0,3,3
LOCAL_POSITION_NED,160804004,3,369992841,-1220636223,0,65535,65535,40,30797,255,0,0,0,0,0,0,2,0.7090155482292175,160866,-0.044112637639045715,0.04182063415646553,0.0796910747885704,0.9949645400047302,-0.05805868282914162,-0.082027867436409,0.5406382083892822,"[0.0, 0.0, 0.0, 0.0]",-6.658743381500244,1.9609553813934326,0.0,-0.37975403666496277,-0.03150131180882454,0.0,10,0,192,0,3,3
GPS_RAW_INT,160905006,3,369992845,-1220636226,0,65535,65535,36,31135,255,0,0,0,0,0,0,2,0.7090155482292175,160866,-0.044112637639045715,0.04182063415646553,0.0796910747885704,0.9949645400047302,-0.05805868282914162,-0.082027867436409,0.5406382083892822,"[0.0, 0.0, 0.0, 0.0]",-6.658743381500244,1.9609553813934326,0.0,-0.37975403666496277,-0.03150131180882454,0.0,10,0,192,0,3,3
RAW_RPM,160905006,3,369992845,-1220636226,0,65535,65535,36,31135,255,0,0,0,0,0,0,0,0.12923789024353027,160866,-0.044112637639045715,0.04182063415646553,0.0796910747885704,0.9949645400047302,-0.05805868282914162,-0.082027867436409,0.5406382083892822,"[0.0, 0.0, 0.0, 0.0]",-6.658743381500244,1.9609553813934326,0.0,-0.37975403666496277,-0.03150131180882454,0.0,10,0,192,0,3,3
RAW_RPM,160905006,3,369992845,-1220636226,0,65535,65535,36,31135,255,0,0,0,0,0,0,1,0.17679129540920258,160866,-0.044112637639045715,0.04182063415646553,0.0796910747885704,0.9949645400047302,-0.05805868282914162,-0.082027867436409,0.5406382083892822,"[0.0, 0.0, 0.0, 0.0]",-6.658743381500244,1.9609553813934326,0.0,-0.37975403666496277,-0.03150131180882454,0.0,10,0,192,0,3,3
RAW_RPM,160905006,3,369992845,-1220636226,0,65535,65535,36,31135,255,0,0,0,0,0,0,2,0.7204053401947021,160866,-0.044112637639045715,0.04182063415646553,0.0796910747885704,0.9949645400047302,-0.05805868282914162,-0.082027867436409,0.5406382083892822,"[0.0, 0.0, 0.0, 0.0]",-6.658743381500244,1.9609553813934326,0.0,-0.37975403666496277,-0.03150131180882454,0.0,10,0,192,0,3,3
ATTITUDE_QUATERNION,160905006,3,369992845,-1220636226,0,65535,65535,36,31135,255,0,0,0,0,0,0,2,0.7204053401947021,160917,-0.05854272469878197,0.04647473990917206,0.07855445146560669,0.994103729724884,-0.10706234723329544,0.03755171597003937,0.5249250531196594,"[0.0, 0.0, 0.0, 0.0]",-6.658743381500244,1.9609553813934326,0.0,-0.37975403666496277,-0.03150131180882454,0.0,10,0,192,0,3,3
LOCAL_POSITION_NED,160905006,3,369992845,-1220636226,0,65535,65535,36,31135,255,0,0,0,0,0,0,2,0.7204053401947021,160917,-0.05854272469878197,0.04647473990917206,0.07855445146560669,0.994103729724884,-0.10706234723329544,0.03755171597003937,0.5249250531196594,"[0.0, 0.0, 0.0, 0.0]",-6.677815914154053,1.9590450525283813,0.0,-0.38777101039886475,-0.04358670487999916,0.0,10,0,192,0,3,3
RAW_RPM,160905006,3,369992845,-1220636226,0,65535,65535,36,31135,255,0,0,0,0,0,0,0,0.157616525888443,160917,-0.05854272469878197,0.04647473990917206,0.07855445146560669,0.994103729724884,-0.10706234723329544,0.03755171597003937,0.5249250531196594,"[0.0, 0.0, 0.0, 0.0]",-6.677815914154053,1.9590450525283813,0.0,-0.38777101039886475,-0.04358670487999916,0.0,10,0,192,0,3,3
RAW_RPM,160905006,3,369992845,-1220636226,0,65535,65535,36,31135,255,0,0,0,0,0,0,1,0.1438107043504715,160917,-0.05854272469878197,0.04647473990917206,0.07855445146560669,0.994103729724884,-0.10706234723329544,0.03755171597003937,0.5249250531196594,"[0.0, 0.0, 0.0, 0.0]",-6.677815914154053,1.9590450525283813,0.0,-0.38777101039886475,-0.04358670487999916,0.0,10,0,192,0,3,3
RAW_RPM,160905006,3,369992845,-1220636226,0,65535,65535,36,31135,255,0,0,0,0,0,0,2,0.715487003326416,160917,-0.05854272469878197,0.04647473990917206,0.07855445146560669,0.994103729724884,-0.10706234723329544,0.03755171597003937,0.5249250531196594,"[0.0, 0.0, 0.0, 0.0]",-6.677815914154053,1.9590450525283813,0.0,-0.38777101039886475,-0.04358670487999916,0.0,10,0,192,0,3,3
ATTITUDE_QUATERNION,160905006,3,369992845,-1220636226,0,65535,65535,36,31135,255,0,0,0,0,0,0,2,0.715487003326416,160968,-0.07249491661787033,0.0491478331387043,0.08339712768793106,0.9926601052284241,-0.1816331297159195,0.09694201499223709,0.6040233969688416,"[0.0, 0.0, 0.0, 0.0]",-6.677815914154053,1.9590450525283813,0.0,-0.38777101039886475,-0.04358670487999916,0.0,10,0,192,0,3,3
LOCAL_POSITION_NED,160905006,3,369992845,-1220636226,0,65535,65535,36,31135,255,0,0,0,0,0,0,2,0.715487003326416,160968,-0.07249491661787033,0.0491478331387043,0.08339712768793106,0.9926601052284241,-0.1816331297159195,0.09694201499223709,0.6040233969688416,"[0.0, 0.0, 0.0, 0.0]",-6.698509216308594,1.9563847780227661,0.0,-0.4296380877494812,-0.060309555381536484,0.0,10,0,192,0,3,3
GPS_RAW_INT,161006004,3,369992846,-1220636231,0,65535,65535,44,30827,255,0,0,0,0,0,0,2,0.715487003326416,160968,-0.07249491661787033,0.0491478331387043,0.08339712768793106,0.9926601052284241,-0.1816331297159195,0.09694201499223709,0.6040233969688416,"[0.0, 0.0, 0.0, 0.0]",-6.698509216308594,1.9563847780227661,0.0,-0.4296380877494812,-0.060309555381536484,0.0,10,0,192,0,3,3
HEARTBEAT,161006004,3,369992846,-1220636231,0,65535,65535,44,30827,255,0,0,0,0,0,0,2,0.715487003326416,160968,-0.07249491661787033,0.0491478331387043,0.08339712768793106,0.9926601052284241,-0.1816331297159195,0.09694201499223709,0.6040233969688416,"[0.0, 0.0, 0.0, 0.0]",-6.698509216308594,1.9563847780227661,0.0,-0.4296380877494812,-0.060309555381536484,0.0,10,0,192,0,3,3
RAW_RPM,161006004,3,369992846,-1220636231,0,65535,65535,44,30827,255,0,0,0,0,0,0,0,0.09702428430318832,160968,-0.07249491661787033,0.0491478331387043,0.08339712768793106,0.9926601052284241,-0.1816331297159195,0.09694201499223709,0.6040233969688416,"[0.0, 0.0, 0.0, 0.0]",-6.698509216308594,1.9563847780227661,0.0,-0.4296380877494812,-0.060309555381536484,0.0,10,0,192,0,3,3
RAW_RPM,161006004,3,369992846,-1220636231,0,65535,65535,44,30827,255,0,0,0,0,0,0,1,0.12310196459293365,160968,-0.07249491661787033,0.0491478331387043,0.08339712768793106,0.9926601052284241,-0.1816331297159195,0.09694201499223709,0.6040233969688416,"[0.0, 0.0, 0.0, 0.0]",-6.698509216308594,1.9563847780227661,0.0,-0.4296380877494812,-0.060309555381536484,0.0,10,0,192,0,3,3
RAW_RPM,161006004,3,369992846,-1220636231,0,65535,65535,44,30827,255,0,0,0,0,0,0,2,0.7227351069450378,160968,-0.07249491661787033,0.0491478331387043,0.08339712768793106,0.9926601052284241,-0.1816331297159195,0.09694201499223709,0.6040233969688416,"[0.0, 0.0, 0.0, 0.0]",-6.698509216308594,1.9563847780227661,0.0,-0.4296380877494812,-0.060309555381536484,0.0,10,0,192,0,3,3
ATTITUDE_QUATERNION,161006004,3,369992846,-1220636231,0,65535,65535,44,30827,255,0,0,0,0,0,0,2,0.7227351069450378,161019,-0.08845674991607666,0.048401568084955215,0.08343550562858582,0.9913986921310425,0.10306748002767563,0.21732056140899658,0.5960336327552795,"[0.0, 0.0, 0.0, 0.0]",-6.698509216308594,1.9563847780227661,0.0,-0.4296380877494812,-0.060309555381536484,0.0,10,0,192,0,3,3
LOCAL_POSITION_NED,161006004,3,369992846,-1220636231,0,65535,65535,44,30827,255,0,0,0,0,0,0,2,0.7227351069450378,161019,-0.08845674991607666,0.048401568084955215,0.08343550562858582,0.9913986921310425,0.10306748002767563,0.21732056140899658,0.5960336327552795,"[0.0, 0.0, 0.0, 0.0]",-6.720953941345215,1.9527982473373413,0.0,-0.4572697579860687,-0.07912582904100418,0.0,10,0,192,0,3,3
RAW_RPM,161006004,3,369992846,-1220636231,0,65535,65535,44,30827,255,0,0,0,0,0,0,0,0.0003834952076431364,161019,-0.08845674991607666,0.048401568084955215,0.08343550562858582,0.9913986921310425,0.10306748002767563,0.21732056140899658,0.5960336327552795,"[0.0, 0.0, 0.0, 0.0]",-6.720953941345215,1.9527982473373413,0.0,-0.4572697579860687,-0.07912582904100418,0.0,10,0,192,0,3,3
RAW_RPM,161006004,3,369992846,-1220636231,0,65535,65535,44,30827,255,0,0,0,0,0,0,1,0.16835439205169678,161019,-0.08845674991607666,0.048401568084955215,0.08343550562858582,0.9913986921310425,0.10306748002767563,0.21732056140899658,0.5960336327552795,"[0.0, 0.0, 0.0, 0.0]",-6.720953941345215,1.9527982473373413,0.0,-0.4572697579860687,-0.07912582904100418,0.0,10,0,192,0,3,3
RAW_RPM,161006004,3,369992846,-1220636231,0,65535,65535,44,30827,255,0,0,0,0,0,0,2,0.7307596802711487,161019,-0.08845674991607666,0.048401568084955215,0.08343550562858582,0.9913986921310425,0.10306748002767563,0.21732056140899658,0.5960336327552795,"[0.0, 0.0, 0.0, 0.0]",-6.720953941345215,1.9527982473373413,0.0,-0.4572697579860687,-0.07912582904100418,0.0,10,0,192,0,3,3
ATTITUDE_QUATERNION,161006004,3,369992846,-1220636231,0,65535,65535,44,30827,255,0,0,0,0,0,0,2,0.7307596802711487,161070,-0.10372361540794373,0.04202408716082573,0.08123303949832916,0.9903921484947205,0.13316211104393005,-0.06658105552196503,0.6666095852851868,"[0.0, 0.0, 0.0, 0.0]",-6.720953941345215,1.9527982473373413,0.0,-0.4572697579860687,-0.07912582904100418,0.0,10,0,192,0,3,3
LOCAL_POSITION_NED,161006004,3,369992846,-1220636231,0,65535,65535,44,30827,255,0,0,0,0,0,0,2,0.7307596802711487,161070,-0.10372361540794373,0.04202408716082573,0.08123303949832916,0.9903921484947205,0.13316211104393005,-0.06658105552196503,0.6666095852851868,"[0.0, 0.0, 0.0, 0.0]",-6.743406295776367,1.948488473892212,0.0,-0.44100815057754517,-0.08988650143146515,0.0,10,0,192,0,3,3
GPS_RAW_INT,161107003,3,369992848,-1220636236,0,65535,65535,42,30267,255,0,0,0,0,0,0,2,0.7307596802711487,161070,-0.10372361540794373,0.04202408716082573,0.08123303949832916,0.9903921484947205,0.13316211104393005,-0.06658105552196503,0.6666095852851868,"[0.0, 0.0, 0.0, 0.0]",-6.743406295776367,1.948488473892212,0.0,-0.44100815057754517,-0.08988650143146515,0.0,10,0,192,0,3,3
RAW_RPM,161107003,3,369992848,-1220636236,0,65535,65535,42,30267,255,0,0,0,0,0,0,0,0.008436894975602627,161070,-0.10372361540794373,0.04202408716082573,0.08123303949832916,0.9903921484947205,0.13316211104393005,-0.06658105552196503,0.6666095852851868,"[0.0, 0.0, 0.0, 0.0]",-6.743406295776367,1.948488473892212,0.0,-0.44100815057754517,-0.08988650143146515,0.0,10,0,192,0,3,3
RAW_RPM,161107003,3,369992848,-1220636236,0,65535,65535,42,30267,255,0,0,0,0,0,0,1,0.20018449425697327,161070,-0.10372361540794373,0.04202408716082573,0.08123303949832916,0.9903921484947205,0.13316211104393005,-0.06658105552196503,0.6666095852851868,"[0.0, 0.0, 0.0, 0.0]",-6.743406295776367,1.948488473892212,0.0,-0.44100815057754517,-0.08988650143146515,0.0,10,0,192,0,3,3
RAW_RPM,161107003,3,369992848,-1220636236,0,65535,65535,42,30267,255,0,0,0,0,0,0,2,0.7284300327301025,161070,-0.10372361540794373,0.04202408716082573,0.08123303949832916,0.9903921484947205,0.13316211104393005,-0.06658105552196503,0.6666095852851868,"[0.0, 0.0, 0.0, 0.0]",-6.743406295776367,1.948488473892212,0.0,-0.44100815057754517,-0.08988650143146515,0.0,10,0,192,0,3,3
ATTITUDE_QUATERNION,161107003,3,369992848,-1220636236,0,65535,65535,42,30267,255,0,0,0,0,0,0,2,0.7284300327301025,161121,-0.12013266980648041,0.04775399714708328,0.08319392800331116,0.9881125688552856,-0.001864269725047052,-0.008256050758063793,0.5952346920967102,"[0.0, 0.0, 0.0, 0.0]",-6.743406295776367,1.948488473892212,0.0,-0.44100815057754517,-0.08988650143146515,0.0,10,0,192,0,3,3
LOCAL_POSITION_NED,161107003,3,369992848,-1220636236,0,65535,65535,42,30267,255,0,0,0,0,0,0,2,0.7284300327301025,161121,-0.12013266980648041,0.04775399714708328,0.08319392800331116,0.9881125688552856,-0.001864269725047052,-0.008256050758063793,0.5952346920967102,"[0.0, 0.0, 0.0, 0.0]",-6.765431880950928,1.9435207843780518,0.0,-0.4415140450000763,-0.10503331571817398,0.0,10,0,192,0,3,3
RAW_RPM,161107003,3,369992848,-1220636236,0,65535,65535,42,30267,255,0,0,0,0,0,0,0,0.10507768392562866,161121,-0.12013266980648041,0.04775399714708328,0.08319392800331116,0.9881125688552856,-0.001864269725047052,-0.008256050758063793,0.5952346920967102,"[0.0, 0.0, 0.0, 0.0]",-6.765431880950928,1.9435207843780518,0.0,-0.4415140450000763,-0.10503331571817398,0.0,10,0,192,0,3,3
RAW_RPM,161107003,3,369992848,-1220636236,0,65535,65535,42,30267,255,0,0,0,0,0,0,1,0.17525731027126312,161121,-0.12013266980648041,0.04775399714708328,0.08319392800331116,0.9881125688552856,-0.001864269725047052,-0.008256050758063793,0.5952346920967102,"[0.0, 0.0, 0.0, 0.0]",-6.765431880950928,1.9435207843780518,0.0,-0.4415140450000763,-0.10503331571817398,0.0,10,0,192,0,3,3
RAW_RPM,161107003,3,369992848,-1220636236,0,65535,65535,42,30267,255,0,0,0,0,0,0,2,0.7315362691879272,161121,-0.12013266980648041,0.04775399714708328,0.08319392800331116,0.9881125688552856,-0.001864269725047052,-0.008256050758063793,0.5952346920967102,"[0.0, 0.0, 0.0, 0.0]",-6.765431880950928,1.9435207843780518,0.0,-0.4415140450000763,-0.10503331571817398,0.0,10,0,192,0,3,3
ATTITUDE_QUATERNION,161107003,3,369992848,-1220636236,0,65535,65535,42,30267,255,0,0,0,0,0,0,2,0.7315362691879272,161172,-0.1367170363664627,0.05044204741716385,0.08329114317893982,0.9858127236366272,-0.004261187743395567,0.18909020721912384,0.6767298579216003,"[0.0, 0.0, 0.0, 0.0]",-6.765431880950928,1.9435207843780518,0.0,-0.4415140450000763,-0.10503331571817398,0.0,10,0,192,0,3,3
LOCAL_POSITION_NED,161107003,3,369992848,-1220636236,0,65535,65535,42,30267,255,0,0,0,0,0,0,2,0.7315362691879272,161172,-0.1367170363664627,0.05044204741716385,0.08329114317893982,0.9858127236366272,-0.004261187743395567,0.18909020721912384,0.6767298579216003,"[0.0, 0.0, 0.0, 0.0]",-6.787591934204102,1.9377599954605103,0.0,-0.4444599747657776,-0.12200427055358887,0.0,10,0,192,0,3,3
GPS_RAW_INT,161208004,3,369992848,-1220636241,0,65535,65535,43,29236,255,0,0,0,0,0,0,2,0.7315362691879272,161172,-0.1367170363664627,0.05044204741716385,0.08329114317893982,0.9858127236366272,-0.004261187743395567,0.18909020721912384,0.6767298579216003,"[0.0, 0.0, 0.0, 0.0]",-6.787591934204102,1.9377599954605103,0.0,-0.4444599747657776,-0.12200427055358887,0.0,10,0,192,0,3,3
RAW_RPM,161208004,3,369992848,-1220636241,0,65535,65535,43,29236,255,0,0,0,0,0,0,0,0.12348545342683792,161172,-0.1367170363664627,0.05044204741716385,0.08329114317893982,0.9858127236366272,-0.004261187743395567,0.18909020721912384,0.6767298579216003,"[0.0, 0.0, 0.0, 0.0]",-6.787591934204102,1.9377599954605103,0.0,-0.4444599747657776,-0.12200427055358887,0.0,10,0,192,0,3,3
RAW_RPM,161208004,3,369992848,-1220636241,0,65535,65535,43,29236,255,0,0,0,0,0,0,1,0.13383983075618744,161172,-0.1367170363664627,0.05044204741716385,0.08329114317893982,0.9858127236366272,-0.004261187743395567,0.18909020721912384,0.6767298579216003,"[0.0, 0.0, 0.0, 0.0]",-6.787591934204102,1.9377599954605103,0.0,-0.4444599747657776,-0.12200427055358887,0.0,10,0,192,0,3,3
RAW_RPM,161208004,3,369992848,-1220636241,0,65535,65535,43,29236,255,0,0,0,0,0,0,2,0.7229939699172974,161172,-0.1367170363664627,0.05044204741716385,0.08329114317893982,0.9858127236366272,-0.004261187743395567,0.18909020721912384,0.6767298579216003,"[0.0, 0.0, 0.0, 0.0]",-6.787591934204102,1.9377599954605103,0.0,-0.4444599747657776,-0.12200427055358887,0.0,10,0,192,0,3,3
ATTITUDE_QUATERNION,161208004,3,369992848,-1220636241,0,65535,65535,43,29236,255,0,0,0,0,0,0,2,0.7229939699172974,161223,-0.15748533606529236,0.04929615557193756,0.0882367491722107,0.9823352098464966,-0.18403004109859467,0.06418414413928986,0.6189375519752502,"[0.0, 0.0, 0.0, 0.0]",-6.787591934204102,1.9377599954605103,0.0,-0.4444599747657776,-0.12200427055358887,0.0,10,0,192,0,3,3
LOCAL_POSITION_NED,161208004,3,369992848,-1220636241,0,65535,65535,43,29236,255,0,0,0,0,0,0,2,0.7229939699172974,161224,-0.15748533606529236,0.04929615557193756,0.0882367491722107,0.9823352098464966,-0.18403004109859467,0.06418414413928986,0.6189375519752502,"[0.0, 0.0, 0.0, 0.0]",-6.815158367156982,1.9294546842575073,0.0,-0.46651819348335266,-0.14988623559474945,0.0,10,0,192,0,3,3
RAW_RPM,161208004,3,369992848,-1220636241,0,65535,65535,43,29236,255,0,0,0,0,0,0,0,0.003067961661145091,161224,-0.15748533606529236,0.04929615557193756,0.0882367491722107,0.9823352098464966,-0.18403004109859467,0.06418414413928986,0.6189375519752502,"[0.0, 0.0, 0.0, 0.0]",-6.815158367156982,1.9294546842575073,0.0,-0.46651819348335266,-0.14988623559474945,0.0,10,0,192,0,3,3
RAW_RPM,161208004,3,369992848,-1220636241,0,65535,65535,43,29236,255,0,0,0,0,0,0,1,0.19174760580062866,161224,-0.15748533606529236,0.04929615557193756,0.0882367491722107,0.9823352098464966,-0.18403004109859467,0.06418414413928986,0.6189375519752502,"[0.0, 0.0, 0.0, 0.0]",-6.815158367156982,1.9294546842575073,0.0,-0.46651819348335266,-0.14988623559474945,0.0,10,0,192,0,3,3
RAW_RPM,161208004,3,369992848,-1220636241,0,65535,65535,43,29236,255,0,0,0,0,0,0,2,0.7206642031669617,161224,-0.15748533606529236,0.04929615557193756,0.0882367491722107,0.9823352098464966,-0.18403004109859467,0.06418414413928986,0.6189375519752502,"[0.0, 0.0, 0.0, 0.0]",-6.815158367156982,1.9294546842575073,0.0,-0.46651819348335266,-0.14988623559474945,0.0,10,0,192,0,3,3
ATTITUDE_QUATERNION,161208004,3,369992848,-1220636241,0,65535,65535,43,29236,255,0,0,0,0,0,0,2,0.7206642031669617,161274,-0.17522162199020386,0.04961676523089409,0.08590470999479294,0.9795182347297668,0.07457078248262405,-0.06125457212328911,0.5462310314178467,"[0.0, 0.0, 0.0, 0.0]",-6.815158367156982,1.9294546842575073,0.0,-0.46651819348335266,-0.14988623559474945,0.0,10,0,192,0,3,3
LOCAL_POSITION_NED,161208004,3,369992848,-1220636241,0,65535,65535,43,29236,255,0,0,0,0,0,0,2,0.7206642031669617,161274,-0.17522162199020386,0.04961676523089409,0.08590470999479294,0.9795182347297668,0.07457078248262405,-0.06125457212328911,0.5462310314178467,"[0.0, 0.0, 0.0, 0.0]",-6.83803129196167,1.9215617179870605,0.0,-0.45132899284362793,-0.16315141320228577,0.0,10,0,192,0,3,3
GPS_RAW_INT,161309002,3,369992848,-1220636248,0,65535,65535,51,28530,255,0,0,0,0,0,0,2,0.7206642031669617,161274,-0.17522162199020386,0.04961676523089409,0.08590470999479294,0.9795182347297668,0.07457078248262405,-0.06125457212328911,0.5462310314178467,"[0.0, 0.0, 0.0, 0.0]",-6.83803129196167,1.9215617179870605,0.0,-0.45132899284362793,-0.16315141320228577,0.0,10,0,192,0,3,3
RAW_RPM,161309002,3,369992848,-1220636248,0,65535,65535,51,28530,255,0,0,0,0,0,0,0,0.00882038939744234,161274,-0.17522162199020386,0.04961676523089409,0.08590470999479294,0.9795182347297668,0.07457078248262405,-0.06125457212328911,0.5462310314178467,"[0.0, 0.0, 0.0, 0.0]",-6.83803129196167,1.9215617179870605,0.0,-0.45132899284362793,-0.16315141320228577,0.0,10,0,192,0,3,3
RAW_RPM,161309002,3,369992848,-1220636248,0,65535,65535,51,28530,255,0,0,0,0,0,0,1,0.16797089576721191,161274,-0.17522162199020386,0.04961676523089409,0.08590470999479294,0.9795182347297668,0.07457078248262405,-0.06125457212328911,0.5462310314178467,"[0.0, 0.0, 0.0, 0.0]",-6.83803129196167,1.9215617179870605,0.0,-0.45132899284362793,-0.16315141320228577,0.0,10,0,192,0,3,3
RAW_RPM,161309002,3,369992848,-1220636248,0,65535,65535,51,28530,255,0,0,0,0,0,0,2,0.7214407920837402,161274,-0.17522162199020386,0.04961676523089409,0.08590470999479294,0.9795182347297668,0.07457078248262405,-0.06125457212328911,0.5462310314178467,"[0.0, 0.0, 0.0, 0.0]",-6.83803129196167,1.9215617179870605,0.0,-0.45132899284362793,-0.16315141320228577,0.0,10,0,192,0,3,3
ATTITUDE_QUATERNION,161309002,3,369992848,-1220636248,0,65535,65535,51,28530,255,0,0,0,0,0,0,2,0.7214407920837402,161325,-0.19127365946769714,0.04909010976552963,0.08700090646743774,0.9764401912689209,-0.10839395970106125,0.005859133321791887,0.5353116989135742,"[0.0, 0.0, 0.0, 0.0]",-6.83803129196167,1.9215617179870605,0.0,-0.45132899284362793,-0.16315141320228577,0.0,10,0,192,0,3,3
LOCAL_POSITION_NED,161309002,3,369992848,-1220636248,0,65535,65535,51,28530,255,0,0,0,0,0,0,2,0.7214407920837402,161325,-0.19127365946769714,0.04909010976552963,0.08700090646743774,0.9764401912689209,-0.10839395970106125,0.005859133321791887,0.5353116989135742,"[0.0, 0.0, 0.0, 0.0]",-6.860273361206055,1.9129867553710938,0.0,-0.44033321738243103,-0.17654834687709808,0.0,10,0,192,0,3,3
RAW_RPM,161309002,3,369992848,-1220636248,0,65535,65535,51,28530,255,0,0,0,0,0,0,0,0.05675728991627693,161325,-0.19127365946769714,0.04909010976552963,0.08700090646743774,0.9764401912689209,-0.10839395970106125,0.005859133321791887,0.5353116989135742,"[0.0, 0.0, 0.0, 0.0]",-6.860273361206055,1.9129867553710938,0.0,-0.44033321738243103,-0.17654834687709808,0.0,10,0,192,0,3,3
RAW_RPM,161309002,3,369992848,-1220636248,0,65535,65535,51,28530,255,0,0,0,0,0,0,1,0.11773303151130676,161325,-0.19127365946769714,0.04909010976552963,0.08700090646743774,0.9764401912689209,-0.10839395970106125,0.005859133321791887,0.5353116989135742,"[0.0, 0.0, 0.0, 0.0]",-6.860273361206055,1.9129867553710938,0.0,-0.44033321738243103,-0.17654834687709808,0.0,10,0,192,0,3,3
RAW_RPM,161309002,3,369992848,-1220636248,0,65535,65535,51,28530,255,0,0,0,0,0,0,2,0.6968491673469543,161325,-0.19127365946769714,0.04909010976552963,0.08700090646743774,0.9764401912689209,-0.10839395970106125,0.005859133321791887,0.5353116989135742,"[0.0, 0.0, 0.0, 0.0]",-6.860273361206055,1.9129867553710938,0.0,-0.44033321738243103,-0.17654834687709808,0.0,10,0,192,0,3,3
ATTITUDE_QUATERNION,161309002,3,369992848,-1220636248,0,65535,65535,51,28530,255,0,0,0,0,0,0,2,0.6968491673469543,161376,-0.20737749338150024,0.04405765235424042,0.07495059072971344,0.9743900895118713,-0.09268083423376083,-0.15579968690872192,0.28549960255622864,"[0.0, 0.0, 0.0, 0.0]",-6.860273361206055,1.9129867553710938,0.0,-0.44033321738243103,-0.17654834687709808,0.0,10,0,192,0,3,3
LOCAL_POSITION_NED,161309002,3,369992848,-1220636248,0,65535,65535,51,28530,255,0,0,0,0,0,0,2,0.6968491673469543,161376,-0.20737749338150024,0.04405765235424042,0.07495059072971344,0.9743900895118713,-0.09268083423376083,-0.15579968690872192,0.28549960255622864,"[0.0, 0.0, 0.0, 0.0]",-6.881747245788574,1.9038993120193481,0.0,-0.4242766201496124,-0.1867634505033493,0.0,10,0,192,0,3,3
GPS_RAW_INT,161410005,3,369992851,-1220636251,0,65535,65535,47,28819,255,0,0,0,0,0,0,2,0.6968491673469543,161376,-0.20737749338150024,0.04405765235424042,0.07495059072971344,0.9743900895118713,-0.09268083423376083,-0.15579968690872192,0.28549960255622864,"[0.0, 0.0, 0.0, 0.0]",-6.881747245788574,1.9038993120193481,0.0,-0.4242766201496124,-0.1867634505033493,0.0,10,0,192,0,3,3
RAW_RPM,161410005,3,369992851,-1220636251,0,65535,65535,47,28819,255,0,0,0,0,0,0,0,0.003451456781476736,161376,-0.20737749338150024,0.04405765235424042,0.07495059072971344,0.9743900895118713,-0.09268083423376083,-0.15579968690872192,0.28549960255622864,"[0.0, 0.0, 0.0, 0.0]",-6.881747245788574,1.9038993120193481,0.0,-0.4242766201496124,-0.1867634505033493,0.0,10,0,192,0,3,3
RAW_RPM,161410005,3,369992851,-1220636251,0,65535,65535,47,28819,255,0,0,0,0,0,0,1,0.10967963188886642,161376,-0.20737749338150024,0.04405765235424042,0.07495059072971344,0.9743900895118713,-0.09268083423376083,-0.15579968690872192,0.28549960255622864,"[0.0, 0.0, 0.0, 0.0]",-6.881747245788574,1.9038993120193481,0.0,-0.4242766201496124,-0.1867634505033493,0.0,10,0,192,0,3,3
RAW_RPM,161410005,3,369992851,-1220636251,0,65535,65535,47,28819,255,0,0,0,0,0,0,2,0.6673392057418823,161376,-0.20737749338150024,0.04405765235424042,0.07495059072971344,0.9743900895118713,-0.09268083423376083,-0.15579968690872192,0.28549960255622864,"[0.0, 0.0, 0.0, 0.0]",-6.881747245788574,1.9038993120193481,0.0,-0.4242766201496124,-0.1867634505033493,0.0,10,0,192,0,3,3
ATTITUDE_QUATERNION,161410005,3,369992851,-1220636251,0,65535,65535,47,28819,255,0,0,0,0,0,0,2,0.6673392057418823,161427,-0.21779698133468628,0.03260267898440361,0.0781877264380455,0.9723107814788818,0.019707992672920227,-0.13449373841285706,0.3757834732532501,"[0.0, 0.0, 0.0, 0.0]",-6.881747245788574,1.9038993120193481,0.0,-0.4242766201496124,-0.1867634505033493,0.0,10,0,192,0,3,3
LOCAL_POSITION_NED,161410005,3,369992851,-1220636251,0,65535,65535,47,28819,255,0,0,0,0,0,0,2,0.6673392057418823,161427,-0.21779698133468628,0.03260267898440361,0.0781877264380455,0.9723107814788818,0.019707992672920227,-0.13449373841285706,0.3757834732532501,"[0.0, 0.0, 0.0, 0.0]",-6.9023051261901855,1.8945034742355347,0.0,-0.40160292387008667,-0.18810589611530304,0.0,10,0,192,0,3,3
RAW_RPM,161410005,3,369992851,-1220636251,0,65535,65535,47,28819,255,0,0,0,0,0,0,0,0.011121360585093498,161427,-0.21779698133468628,0.03260267898440361,0.0781877264380455,0.9723107814788818,0.019707992672920227,-0.13449373841285706,0.3757834732532501,"[0.0, 0.0, 0.0, 0.0]",-6.9023051261901855,1.8945034742355347,0.0,-0.40160292387008667,-0.18810589611530304,0.0,10,0,192,0,3,3
RAW_RPM,161410005,3,369992851,-1220636251,0,65535,65535,47,28819,255,0,0,0,0,0,0,1,0.12540292739868164,161427,-0.21779698133468628,0.03260267898440361,0.0781877264380455,0.9723107814788818,0.019707992672920227,-0.13449373841285706,0.3757834732532501,"[0.0, 0.0, 0.0, 0.0]",-6.9023051261901855,1.8945034742355347,0.0,-0.40160292387008667,-0.18810589611530304,0.0,10,0,192,0,3,3
RAW_RPM,161410005,3,369992851,-1220636251,0,65535,65535,47,28819,255,0,0,0,0,0,0,2,0.6298046112060547,161427,-0.21779698133468628,0.03260267898440361,0.0781877264380455,0.9723107814788818,0.019707992672920227,-0.13449373841285706,0.3757834732532501,"[0.0, 0.0, 0.0, 0.0]",-6.9023051261901855,1.8945034742355347,0.0,-0.40160292387008667,-0.18810589611530304,0.0,10,0,192,0,3,3
ATTITUDE_QUATERNION,161410005,3,369992851,-1220636251,0,65535,65535,47,28819,255,0,0,0,0,0,0,2,0.6298046112060547,161478,-0.2293316274881363,0.03598485887050629,0.07784010469913483,0.9695633053779602,-0.037019066512584686,0.08389213681221008,0.16032719612121582,"[0.0, 0.0, 0.0, 0.0]",-6.9023051261901855,1.8945034742355347,0.0,-0.40160292387008667,-0.18810589611530304,0.0,10,0,192,0,3,3
LOCAL_POSITION_NED,161410005,3,369992851,-1220636251,0,65535,65535,47,28819,255,0,0,0,0,0,0,2,0.6298046112060547,161478,-0.2293316274881363,0.03598485887050629,0.07784010469913483,0.9695633053779602,-0.037019066512584686,0.08389213681221008,0.16032719612121582,"[0.0, 0.0, 0.0, 0.0]",-6.921659469604492,1.8851252794265747,0.0,-0.37893325090408325,-0.18781839311122894,0.0,10,0,192,0,3,3
GPS_RAW_INT,161511004,3,369992851,-1220636256,0,65535,65535,47,28504,255,0,0,0,0,0,0,2,0.6298046112060547,161478,-0.2293316274881363,0.03598485887050629,0.07784010469913483,0.9695633053779602,-0.037019066512584686,0.08389213681221008,0.16032719612121582,"[0.0, 0.0, 0.0, 0.0]",-6.921659469604492,1.8851252794265747,0.0,-0.37893325090408325,-0.18781839311122894,0.0,10,0,192,0,3,3
RAW_RPM,161511004,3,369992851,-1220636256,0,65535,65535,47,28504,255,0,0,0,0,0,0,0,0.011888351291418076,161478,-0.2293316274881363,0.03598485887050629,0.07784010469913483,0.9695633053779602,-0.037019066512584686,0.08389213681221008,0.16032719612121582,"[0.0, 0.0, 0.0, 0.0]",-6.921659469604492,1.8851252794265747,0.0,-0.37893325090408325,-0.18781839311122894,0.0,10,0,192,0,3,3
RAW_RPM,161511004,3,369992851,-1220636256,0,65535,65535,47,28504,255,0,0,0,0,0,0,1,0.1595340073108673,161478,-0.2293316274881363,0.03598485887050629,0.07784010469913483,0.9695633053779602,-0.037019066512584686,0.08389213681221008,0.16032719612121582,"[0.0, 0.0, 0.0, 0.0]",-6.921659469604492,1.8851252794265747,0.0,-0.37893325090408325,-0.18781839311122894,0.0,10,0,192,0,3,3
RAW_RPM,161511004,3,369992851,-1220636256,0,65535,65535,47,28504,255,0,0,0,0,0,0,2,0.5821744799613953,161478,-0.2293316274881363,0.03598485887050629,0.07784010469913483,0.9695633053779602,-0.037019066512584686,0.08389213681221008,0.16032719612121582,"[0.0, 0.0, 0.0, 0.0]",-6.921659469604492,1.8851252794265747,0.0,-0.37893325090408325,-0.18781839311122894,0.0,10,0,192,0,3,3
ATTITUDE_QUATERNION,161511004,3,369992851,-1220636256,0,65535,65535,47,28504,255,0,0,0,0,0,0,2,0.5821744799613953,161529,-0.23774023354053497,0.051048729568719864,0.0792681872844696,0.9667420387268066,0.15207114815711975,-0.014115184545516968,0.2655252516269684,"[0.0, 0.0, 0.0, 0.0]",-6.921659469604492,1.8851252794265747,0.0,-0.37893325090408325,-0.18781839311122894,0.0,10,0,192,0,3,3
LOCAL_POSITION_NED,161511004,3,369992851,-1220636256,0,65535,65535,47,28504,255,0,0,0,0,0,0,2,0.5821744799613953,161529,-0.23774023354053497,0.051048729568719864,0.0792681872844696,0.9667420387268066,0.15207114815711975,-0.014115184545516968,0.2655252516269684,"[0.0, 0.0, 0.0, 0.0]",-6.940176010131836,1.8757120370864868,0.0,-0.3659749925136566,-0.18930736184120178,0.0,10,0,192,0,3,3
RAW_RPM,161511004,3,369992851,-1220636256,0,65535,65535,47,28504,255,0,0,0,0,0,0,0,0.15378157794475555,161529,-0.23774023354053497,0.051048729568719864,0.0792681872844696,0.9667420387268066,0.15207114815711975,-0.014115184545516968,0.2655252516269684,"[0.0, 0.0, 0.0, 0.0]",-6.940176010131836,1.8757120370864868,0.0,-0.3659749925136566,-0.18930736184120178,0.0,10,0,192,0,3,3
RAW_RPM,161511004,3,369992851,-1220636256,0,65535,65535,47,28504,255,0,0,0,0,0,0,1,0.19788353145122528,161529,-0.23774023354053497,0.051048729568719864,0.0792681872844696,0.9667420387268066,0.15207114815711975,-0.014115184545516968,0.2655252516269684,"[0.0, 0.0, 0.0, 0.0]",-6.940176010131836,1.8757120370864868,0.0,-0.3659749925136566,-0.18930736184120178,0.0,10,0,192,0,3,3
RAW_RPM,161511004,3,369992851,-1220636256,0,65535,65535,47,28504,255,0,0,0,0,0,0,2,0.5392038226127625,161529,-0.23774023354053497,0.051048729568719864,0.0792681872844696,0.9667420387268066,0.15207114815711975,-0.014115184545516968,0.2655252516269684,"[0.0, 0.0, 0.0, 0.0]",-6.940176010131836,1.8757120370864868,0.0,-0.3659749925136566,-0.18930736184120178,0.0,10,0,192,0,3,3
ATTITUDE_QUATERNION,161511004,3,369992851,-1220636256,0,65535,65535,47,28504,255,0,0,0,0,0,0,2,0.5392038226127625,161580,-0.24443617463111877,0.06915301084518433,0.08825932443141937,0.963161051273346,0.08042991906404495,0.07883197069168091,0.2918913662433624,"[0.0, 0.0, 0.0, 0.0]",-6.940176010131836,1.8757120370864868,0.0,-0.3659749925136566,-0.18930736184120178,0.0,10,0,192,0,3,3
LOCAL_POSITION_NED,161511004,3,369992851,-1220636256,0,65535,65535,47,28504,255,0,0,0,0,0,0,2,0.5392038226127625,161580,-0.24443617463111877,0.06915301084518433,0.08825932443141937,0.963161051273346,0.08042991906404495,0.07883197069168091,0.2918913662433624,"[0.0, 0.0, 0.0, 0.0]",-6.9586639404296875,1.8660054206848145,0.0,-0.380575567483902,-0.20143748819828033,0.0,10,0,192,0,3,3
GPS_RAW_INT,161612004,3,369992851,-1220636261,0,65535,65535,42,28200,255,0,0,0,0,0,0,2,0.5392038226127625,161580,-0.24443617463111877,0.06915301084518433,0.08825932443141937,0.963161051273346,0.08042991906404495,0.07883197069168091,0.2918913662433624,"[0.0, 0.0, 0.0, 0.0]",-6.9586639404296875,1.8660054206848145,0.0,-0.380575567483902,-0.20143748819828033,0.0,10,0,192,0,3,3
RAW_RPM,161612004,3,369992851,-1220636261,0,65535,65535,42,28200,255,0,0,0,0,0,0,0,0.18062624335289001,161580,-0.24443617463111877,0.06915301084518433,0.08825932443141937,0.963161051273346,0.08042991906404495,0.07883197069168091,0.2918913662433624,"[0.0, 0.0, 0.0, 0.0]",-6.9586639404296875,1.8660054206848145,0.0,-0.380575567483902,-0.20143748819828033,0.0,10,0,192,0,3,3
RAW_RPM,161612004,3,369992851,-1220636261,0,65535,65535,42,28200,255,0,0,0,0,0,0,1,0.15723302960395813,161580,-0.24443617463111877,0.06915301084518433,0.08825932443141937,0.963161051273346,0.08042991906404495,0.07883197069168091,0.2918913662433624,"[0.0, 0.0, 0.0, 0.0]",-6.9586639404296875,1.8660054206848145,0.0,-0.380575567483902,-0.20143748819828033,0.0,10,0,192,0,3,3
RAW_RPM,161612004,3,369992851,-1220636261,0,65535,65535,42,28200,255,0,0,0,0,0,0,2,0.5001161098480225,161580,-0.24443617463111877,0.06915301084518433,0.08825932443141937,0.963161051273346,0.08042991906404495,0.07883197069168091,0.2918913662433624,"[0.0, 0.0, 0.0, 0.0]",-6.9586639404296875,1.8660054206848145,0.0,-0.380575567483902,-0.20143748819828033,0.0,10,0,192,0,3,3
ATTITUDE_QUATERNION,161612004,3,369992851,-1220636261,0,65535,65535,42,28200,255,0,0,0,0,0,0,2,0.5001161098480225,161631,-0.24962961673736572,0.07983765006065369,0.09782509505748749,0.9600735306739807,-0.08815331757068634,0.008256050758063793,0.008256050758063793,"[0.0, 0.0, 0.0, 0.0]",-6.9586639404296875,1.8660054206848145,0.0,-0.380575567483902,-0.20143748819828033,0.0,10,0,192,0,3,3
LOCAL_POSITION_NED,161612004,3,369992851,-1220636261,0,65535,65535,42,28200,255,0,0,0,0,0,0,2,0.5001161098480225,161631,-0.24962961673736572,0.07983765006065369,0.09782509505748749,0.9600735306739807,-0.08815331757068634,0.008256050758063793,0.008256050758063793,"[0.0, 0.0, 0.0, 0.0]",-6.979157447814941,1.854897379875183,0.0,-0.4303765594959259,-0.23575396835803986,0.0,10,0,192,0,3,3
RAW_RPM,161612004,3,369992851,-1220636261,0,65535,65535,42,28200,255,0,0,0,0,0,0,0,0.012271846644580364,161631,-0.24962961673736572,0.07983765006065369,0.09782509505748749,0.9600735306739807,-0.08815331757068634,0.008256050758063793,0.008256050758063793,"[0.0, 0.0, 0.0, 0.0]",-6.979157447814941,1.854897379875183,0.0,-0.4303765594959259,-0.23575396835803986,0.0,10,0,192,0,3,3
RAW_RPM,161612004,3,369992851,-1220636261,0,65535,65535,42,28200,255,0,0,0,0,0,0,1,0.27458256483078003,161631,-0.24962961673736572,0.07983765006065369,0.09782509505748749,0.9600735306739807,-0.08815331757068634,0.008256050758063793,0.008256050758063793,"[0.0, 0.0, 0.0, 0.0]",-6.979157447814941,1.854897379875183,0.0,-0.4303765594959259,-0.23575396835803986,0.0,10,0,192,0,3,3
RAW_RPM,161612004,3,369992851,-1220636261,0,65535,65535,42,28200,255,0,0,0,0,0,0,2,0.47319474816322327,161631,-0.24962961673736572,0.07983765006065369,0.09782509505748749,0.9600735306739807,-0.08815331757068634,0.008256050758063793,0.008256050758063793,"[0.0, 0.0, 0.0, 0.0]",-6.979157447814941,1.854897379875183,0.0,-0.4303765594959259,-0.23575396835803986,0.0,10,0,192,0,3,3
