mavpackettype,time_boot_ms,port,chan1_raw,chan2_raw,chan3_raw,chan4_raw,chan5_raw,chan6_raw,chan7_raw,chan8_raw,rssi,time_usec,xacc,yacc,zacc,xgyro,ygyro,zgyro,xmag,ymag,zmag,id,temperature,chan1_scaled,chan2_scaled,chan3_scaled,chan4_scaled,chan5_scaled,chan6_scaled,chan7_scaled,chan8_scaled,fix_type,lat,lon,alt,eph,epv,vel,cog,satellites_visible,alt_ellipsoid,h_acc,v_acc,vel_acc,hdg_acc,yaw,type,autopilot,base_mode,custom_mode,system_status,mavlink_version
RAW_IMU,136952,0,172,992,934,950,992,1811,992,1811,255,136952144,-104,130,16674,-29,53,-9,69,-90,-298,0,64,0,0,-2,1730,-1,-1,-1,-1,3,369989828,-1220636041,0,65535,65535,5,0,255,0,0,0,0,0,0,10,0,192,0,3,3
RC_CHANNELS_SCALED,136952,1,172,992,934,950,992,1811,992,1811,255,136952144,-104,130,16674,-29,53,-9,69,-90,-298,0,64,-3,-2,-2,1731,-1,-1,-1,-1,3,369989828,-1220636041,0,65535,65535,5,0,255,0,0,0,0,0,0,10,0,192,0,3,3
RC_CHANNELS_RAW,136972,0,172,992,934,950,992,1811,992,1811,255,136952144,-104,130,16674,-29,53,-9,69,-90,-298,0,64,-3,-2,-2,1731,-1,-1,-1,-1,3,369989828,-1220636041,0,65535,65535,5,0,255,0,0,0,0,0,0,10,0,192,0,3,3
RAW_IMU,136972,0,172,992,934,950,992,1811,992,1811,255,136972141,-109,252,16719,-42,67,-25,58,-76,-302,0,64,-3,-2,-2,1731,-1,-1,-1,-1,3,369989828,-1220636041,0,65535,65535,5,0,255,0,0,0,0,0,0,10,0,192,0,3,3
RC_CHANNELS_SCALED,136972,1,172,992,934,950,992,1811,992,1811,255,136972141,-109,252,16719,-42,67,-25,58,-76,-302,0,64,2,2,-4,1729,-1,-1,-1,-1,3,369989828,-1220636041,0,65535,65535,5,0,255,0,0,0,0,0,0,10,0,192,0,3,3
RC_CHANNELS_RAW,136992,0,172,992,934,950,992,1811,992,1811,255,136972141,-109,252,16719,-42,67,-25,58,-76,-302,0,64,2,2,-4,1729,-1,-1,-1,-1,3,369989828,-1220636041,0,65535,65535,5,0,255,0,0,0,0,0,0,10,0,192,0,3,3
RAW_IMU,136992,0,172,992,934,950,992,1811,992,1811,255,136992145,-92,234,16673,-41,60,-26,66,-81,-300,0,96,2,2,-4,1729,-1,-1,-1,-1,3,369989828,-1220636041,0,65535,65535,5,0,255,0,0,0,0,0,0,10,0,192,0,3,3
RC_CHANNELS_SCALED,136992,1,172,992,934,950,992,1811,992,1811,255,136992145,-92,234,16673,-41,60,-26,66,-81,-300,0,96,0,2,-2,1731,-1,-1,-1,-1,3,369989828,-1220636041,0,65535,65535,5,0,255,0,0,0,0,0,0,10,0,192,0,3,3
HEARTBEAT,136992,1,172,992,934,950,992,1811,992,1811,255,136992145,-92,234,16673,-41,60,-26,66,-81,-300,0,96,0,2,-2,1731,-1,-1,-1,-1,3,369989828,-1220636041,0,65535,65535,5,0,255,0,0,0,0,0,0,10,0,192,0,3,3
GPS_RAW_INT,136992,1,172,992,934,950,992,1811,992,1811,255,137006008,-92,234,16673,-41,60,-26,66,-81,-300,0,96,0,2,-2,1731,-1,-1,-1,-1,3,369989826,-1220636045,0,65535,65535,1,0,255,0,0,0,0,0,0,10,0,192,0,3,3
RC_CHANNELS_RAW,137012,0,172,992,934,950,992,1811,992,1811,255,137006008,-92,234,16673,-41,60,-26,66,-81,-300,0,96,0,2,-2,1731,-1,-1,-1,-1,3,369989826,-1220636045,0,65535,65535,1,0,255,0,0,0,0,0,0,10,0,192,0,3,3
RAW_IMU,137012,0,172,992,934,950,992,1811,992,1811,255,137012143,-82,221,16607,-32,83,-11,61,-83,-293,0,64,0,2,-2,1731,-1,-1,-1,-1,3,369989826,-1220636045,0,65535,65535,1,0,255,0,0,0,0,0,0,10,0,192,0,3,3
RC_CHANNELS_SCALED,137012,1,172,992,934,950,992,1811,992,1811,255,137012143,-82,221,16607,-32,83,-11,61,-83,-293,0,64,0,1,-2,1733,-1,-1,-1,-1,3,369989826,-1220636045,0,65535,65535,1,0,255,0,0,0,0,0,0,10,0,192,0,3,3
RC_CHANNELS_RAW,137032,0,172,992,934,950,992,1811,992,1811,255,137012143,-82,221,16607,-32,83,-11,61,-83,-293,0,64,0,1,-2,1733,-1,-1,-1,-1,3,369989826,-1220636045,0,65535,65535,1,0,255,0,0,0,0,0,0,10,0,192,0,3,3
RAW_IMU,137032,0,172,992,934,950,992,1811,992,1811,255,137032146,-176,203,16708,-37,71,-15,73,-79,-296,0,64,0,1,-2,1733,-1,-1,-1,-1,3,369989826,-1220636045,0,65535,65535,1,0,255,0,0,0,0,0,0,10,0,192,0,3,3
RC_CHANNELS_SCALED,137032,1,172,992,934,950,992,1811,992,1811,255,137032146,-176,203,16708,-37,71,-15,73,-79,-296,0,64,0,2,-2,1732,-1,-1,-1,-1,3,369989826,-1220636045,0,65535,65535,1,0,255,0,0,0,0,0,0,10,0,192,0,3,3
RC_CHANNELS_RAW,137052,0,172,992,934,950,992,1811,992,1811,255,137032146,-176,203,16708,-37,71,-15,73,-79,-296,0,64,0,2,-2,1732,-1,-1,-1,-1,3,369989826,-1220636045,0,65535,65535,1,0,255,0,0,0,0,0,0,10,0,192,0,3,3
RAW_IMU,137052,0,172,992,934,950,992,1811,992,1811,255,137052146,-89,213,16700,-34,78,-18,56,-83,-295,0,80,0,2,-2,1732,-1,-1,-1,-1,3,369989826,-1220636045,0,65535,65535,1,0,255,0,0,0,0,0,0,10,0,192,0,3,3
RC_CHANNELS_SCALED,137052,1,172,992,934,950,992,1811,992,1811,255,137052146,-89,213,16700,-34,78,-18,56,-83,-295,0,80,-6,2,0,1733,-1,-1,-1,-1,3,369989826,-1220636045,0,65535,65535,1,0,255,0,0,0,0,0,0,10,0,192,0,3,3
RC_CHANNELS_RAW,137072,0,172,992,934,950,992,1811,992,1811,255,137052146,-89,213,16700,-34,78,-18,56,-83,-295,0,80,-6,2,0,1733,-1,-1,-1,-1,3,369989826,-1220636045,0,65535,65535,1,0,255,0,0,0,0,0,0,10,0,192,0,3,3
RAW_IMU,137072,0,172,992,934,950,992,1811,992,1811,255,137072145,-115,237,16673,-35,90,-23,70,-89,-299,0,96,-6,2,0,1733,-1,-1,-1,-1,3,369989826,-1220636045,0,65535,65535,1,0,255,0,0,0,0,0,0,10,0,192,0,3,3
RC_CHANNELS_SCALED,137072,1,172,992,934,950,992,1811,992,1811,255,137072145,-115,237,16673,-35,90,-23,70,-89,-299,0,96,0,3,0,1732,-1,-1,-1,-1,3,369989826,-1220636045,0,65535,65535,1,0,255,0,0,0,0,0,0,10,0,192,0,3,3
RC_CHANNELS_RAW,137092,0,172,992,934,950,992,1811,992,1811,255,137072145,-115,237,16673,-35,90,-23,70,-89,-299,0,96,0,3,0,1732,-1,-1,-1,-1,3,369989826,-1220636045,0,65535,65535,1,0,255,0,0,0,0,0,0,10,0,192,0,3,3
RAW_IMU,137092,0,172,992,934,950,992,1811,992,1811,255,137092141,-82,241,16714,-51,73,-30,58,-83,-298,0,96,0,3,0,1732,-1,-1,-1,-1,3,369989826,-1220636045,0,65535,65535,1,0,255,0,0,0,0,0,0,10,0,192,0,3,3
RC_CHANNELS_SCALED,137092,1,172,992,934,950,992,1811,992,1811,255,137092141,-82,241,16714,-51,73,-30,58,-83,-298,0,96,-3,0,0,1731,-1,-1,-1,-1,3,369989826,-1220636045,0,65535,65535,1,0,255,0,0,0,0,0,0,10,0,192,0,3,3
GPS_RAW_INT,137092,1,172,992,934,950,992,1811,992,1811,255,137107006,-82,241,16714,-51,73,-30,58,-83,-298,0,96,-3,0,0,1731,-1,-1,-1,-1,3,369989826,-1220636041,0,65535,65535,10,0,255,0,0,0,0,0,0,10,0,192,0,3,3
RC_CHANNELS_RAW,137112,0,172,992,934,950,992,1811,992,1811,255,137107006,-82,241,16714,-51,73,-30,58,-83,-298,0,96,-3,0,0,1731,-1,-1,-1,-1,3,369989826,-1220636041,0,65535,65535,10,0,255,0,0,0,0,0,0,10,0,192,0,3,3
RAW_IMU,137112,0,172,992,934,950,992,1811,992,1811,255,137112142,-146,217,16635,-35,73,-20,67,-79,-299,0,32,-3,0,0,1731,-1,-1,-1,-1,3,369989826,-1220636041,0,65535,65535,10,0,255,0,0,0,0,0,0,10,0,192,0,3,3
RC_CHANNELS_SCALED,137112,1,172,992,934,950,992,1811,992,1811,255,137112142,-146,217,16635,-35,73,-20,67,-79,-299,0,32,2,2,0,1731,-1,-1,-1,-1,3,369989826,-1220636041,0,65535,65535,10,0,255,0,0,0,0,0,0,10,0,192,0,3,3
RC_CHANNELS_RAW,137132,0,172,992,934,950,992,1811,992,1811,255,137112142,-146,217,16635,-35,73,-20,67,-79,-299,0,32,2,2,0,1731,-1,-1,-1,-1,3,369989826,-1220636041,0,65535,65535,10,0,255,0,0,0,0,0,0,10,0,192,0,3,3
RAW_IMU,137132,0,172,992,934,950,992,1811,992,1811,255,137132144,-117,247,16688,-30,62,-16,66,-69,-290,0,128,2,2,0,1731,-1,-1,-1,-1,3,369989826,-1220636041,0,65535,65535,10,0,255,0,0,0,0,0,0,10,0,192,0,3,3
RC_CHANNELS_SCALED,137132,1,172,992,934,950,992,1811,992,1811,255,137132144,-117,247,16688,-30,62,-16,66,-69,-290,0,128,0,-1,1,1732,-1,-1,-1,-1,3,369989826,-1220636041,0,65535,65535,10,0,255,0,0,0,0,0,0,10,0,192,0,3,3
RC_CHANNELS_RAW,137152,0,172,992,934,950,992,1811,992,1811,255,137132144,-117,247,16688,-30,62,-16,66,-69,-290,0,128,0,-1,1,1732,-1,-1,-1,-1,3,369989826,-1220636041,0,65535,65535,10,0,255,0,0,0,0,0,0,10,0,192,0,3,3
RAW_IMU,137152,0,172,992,934,950,992,1811,992,1811,255,137152147,-94,225,16660,-37,65,-27,62,-77,-301,0,96,0,-1,1,1732,-1,-1,-1,-1,3,369989826,-1220636041,0,65535,65535,10,0,255,0,0,0,0,0,0,10,0,192,0,3,3
RC_CHANNELS_SCALED,137152,1,172,992,934,950,992,1811,992,1811,255,137152147,-94,225,16660,-37,65,-27,62,-77,-301,0,96,2,2,-2,1729,-1,-1,-1,-1,3,369989826,-1220636041,0,65535,65535,10,0,255,0,0,0,0,0,0,10,0,192,0,3,3
RC_CHANNELS_RAW,137172,0,172,992,934,950,992,1811,992,1811,255,137152147,-94,225,16660,-37,65,-27,62,-77,-301,0,96,2,2,-2,1729,-1,-1,-1,-1,3,369989826,-1220636041,0,65535,65535,10,0,255,0,0,0,0,0,0,10,0,192,0,3,3
RAW_IMU,137172,0,172,992,934,950,992,1811,992,1811,255,137172144,-87,289,16638,-41,92,-18,63,-81,-295,0,80,2,2,-2,1729,-1,-1,-1,-1,3,369989826,-1220636041,0,65535,65535,10,0,255,0,0,0,0,0,0,10,0,192,0,3,3
RC_CHANNELS_SCALED,137172,1,172,992,934,950,992,1811,992,1811,255,137172144,-87,289,16638,-41,92,-18,63,-81,-295,0,80,0,0,-1,1733,-1,-1,-1,-1,3,369989826,-1220636041,0,65535,65535,10,0,255,0,0,0,0,0,0,10,0,192,0,3,3
RC_CHANNELS_RAW,137192,0,172,992,934,950,992,1811,992,1811,255,137172144,-87,289,16638,-41,92,-18,63,-81,-295,0,80,0,0,-1,1733,-1,-1,-1,-1,3,369989826,-1220636041,0,65535,65535,10,0,255,0,0,0,0,0,0,10,0,192,0,3,3
RAW_IMU,137192,0,172,992,934,950,992,1811,992,1811,255,137192144,-50,258,16725,-38,82,-13,63,-78,-290,0,16,0,0,-1,1733,-1,-1,-1,-1,3,369989826,-1220636041,0,65535,65535,10,0,255,0,0,0,0,0,0,10,0,192,0,3,3
RC_CHANNELS_SCALED,137192,1,172,992,934,950,992,1811,992,1811,255,137192144,-50,258,16725,-38,82,-13,63,-78,-290,0,16,5,1,0,1733,-1,-1,-1,-1,3,369989826,-1220636041,0,65535,65535,10,0,255,0,0,0,0,0,0,10,0,192,0,3,3
GPS_RAW_INT,137192,1,172,992,934,950,992,1811,992,1811,255,137208006,-50,258,16725,-38,82,-13,63,-78,-290,0,16,5,1,0,1733,-1,-1,-1,-1,3,369989826,-1220636046,0,65535,65535,5,0,255,0,0,0,0,0,0,10,0,192,0,3,3
RC_CHANNELS_RAW,137212,0,172,992,934,950,992,1811,992,1811,255,137208006,-50,258,16725,-38,82,-13,63,-78,-290,0,16,5,1,0,1733,-1,-1,-1,-1,3,369989826,-1220636046,0,65535,65535,5,0,255,0,0,0,0,0,0,10,0,192,0,3,3
RAW_IMU,137212,0,172,992,934,950,992,1811,992,1811,255,137212144,-82,291,16681,-65,78,-19,63,-88,-293,0,64,5,1,0,1733,-1,-1,-1,-1,3,369989826,-1220636046,0,65535,65535,5,0,255,0,0,0,0,0,0,10,0,192,0,3,3
RC_CHANNELS_SCALED,137212,1,172,992,934,950,992,1811,992,1811,255,137212144,-82,291,16681,-65,78,-19,63,-88,-293,0,64,-3,-1,0,1733,-1,-1,-1,-1,3,369989826,-1220636046,0,65535,65535,5,0,255,0,0,0,0,0,0,10,0,192,0,3,3
RC_CHANNELS_RAW,137232,0,172,992,934,950,992,1811,992,1811,255,137212144,-82,291,16681,-65,78,-19,63,-88,-293,0,64,-3,-1,0,1733,-1,-1,-1,-1,3,369989826,-1220636046,0,65535,65535,5,0,255,0,0,0,0,0,0,10,0,192,0,3,3
RAW_IMU,137232,0,172,992,934,950,992,1811,992,1811,255,137232141,-102,178,16655,-43,79,-20,58,-76,-295,0,128,-3,-1,0,1733,-1,-1,-1,-1,3,369989826,-1220636046,0,65535,65535,5,0,255,0,0,0,0,0,0,10,0,192,0,3,3
RC_CHANNELS_SCALED,137232,1,172,992,934,950,992,1811,992,1811,255,137232141,-102,178,16655,-43,79,-20,58,-76,-295,0,128,-2,0,2,1733,-1,-1,-1,-1,3,369989826,-1220636046,0,65535,65535,5,0,255,0,0,0,0,0,0,10,0,192,0,3,3
RC_CHANNELS_RAW,137252,0,172,992,934,951,992,1811,992,1811,255,137232141,-102,178,16655,-43,79,-20,58,-76,-295,0,128,-2,0,2,1733,-1,-1,-1,-1,3,369989826,-1220636046,0,65535,65535,5,0,255,0,0,0,0,0,0,10,0,192,0,3,3
RAW_IMU,137252,0,172,992,934,951,992,1811,992,1811,255,137252143,-150,272,16639,-39,76,-29,57,-89,-306,0,-32,-2,0,2,1733,-1,-1,-1,-1,3,369989826,-1220636046,0,65535,65535,5,0,255,0,0,0,0,0,0,10,0,192,0,3,3
RC_CHANNELS_SCALED,137252,1,172,992,934,951,992,1811,992,1811,255,137252143,-150,272,16639,-39,76,-29,57,-89,-306,0,-32,-3,4,-1,1731,-1,-1,-1,-1,3,369989826,-1220636046,0,65535,65535,5,0,255,0,0,0,0,0,0,10,0,192,0,3,3
RC_CHANNELS_RAW,137272,0,172,992,934,951,992,1811,992,1811,255,137252143,-150,272,16639,-39,76,-29,57,-89,-306,0,-32,-3,4,-1,1731,-1,-1,-1,-1,3,369989826,-1220636046,0,65535,65535,5,0,255,0,0,0,0,0,0,10,0,192,0,3,3
RAW_IMU,137272,0,172,992,934,951,992,1811,992,1811,255,137272141,-65,201,16703,-42,87,-9,60,-79,-294,0,80,-3,4,-1,1731,-1,-1,-1,-1,3,369989826,-1220636046,0,65535,65535,5,0,255,0,0,0,0,0,0,10,0,192,0,3,3
RC_CHANNELS_SCALED,137272,1,172,992,934,951,992,1811,992,1811,255,137272141,-65,201,16703,-42,87,-9,60,-79,-294,0,80,3,-1,1,1734,-1,-1,-1,-1,3,369989826,-1220636046,0,65535,65535,5,0,255,0,0,0,0,0,0,10,0,192,0,3,3
RC_CHANNELS_RAW,137292,0,172,992,934,951,992,1811,992,1811,255,137272141,-65,201,16703,-42,87,-9,60,-79,-294,0,80,3,-1,1,1734,-1,-1,-1,-1,3,369989826,-1220636046,0,65535,65535,5,0,255,0,0,0,0,0,0,10,0,192,0,3,3
RAW_IMU,137292,0,172,992,934,951,992,1811,992,1811,255,137292147,-154,233,16654,-29,63,-27,69,-76,-298,0,16,3,-1,1,1734,-1,-1,-1,-1,3,369989826,-1220636046,0,65535,65535,5,0,255,0,0,0,0,0,0,10,0,192,0,3,3
RC_CHANNELS_SCALED,137292,1,172,992,934,951,992,1811,992,1811,255,137292147,-154,233,16654,-29,63,-27,69,-76,-298,0,16,-4,4,1,1734,-1,-1,-1,-1,3,369989826,-1220636046,0,65535,65535,5,0,255,0,0,0,0,0,0,10,0,192,0,3,3
GPS_RAW_INT,137292,1,172,992,934,951,992,1811,992,1811,255,137309006,-154,233,16654,-29,63,-27,69,-76,-298,0,16,-4,4,1,1734,-1,-1,-1,-1,3,369989824,-1220636050,0,65535,65535,7,0,255,0,0,0,0,0,0,10,0,192,0,3,3
RC_CHANNELS_RAW,137312,0,172,992,934,950,992,1811,992,1811,255,137309006,-154,233,16654,-29,63,-27,69,-76,-298,0,16,-4,4,1,1734,-1,-1,-1,-1,3,369989824,-1220636050,0,65535,65535,7,0,255,0,0,0,0,0,0,10,0,192,0,3,3
RAW_IMU,137312,0,172,992,934,950,992,1811,992,1811,255,137312145,-120,178,16658,-56,83,-19,70,-77,-296,0,32,-4,4,1,1734,-1,-1,-1,-1,3,369989824,-1220636050,0,65535,65535,7,0,255,0,0,0,0,0,0,10,0,192,0,3,3
RC_CHANNELS_SCALED,137312,1,172,992,934,950,992,1811,992,1811,255,137312145,-120,178,16658,-56,83,-19,70,-77,-296,0,32,2,-2,-1,1732,-1,-1,-1,-1,3,369989824,-1220636050,0,65535,65535,7,0,255,0,0,0,0,0,0,10,0,192,0,3,3
RC_CHANNELS_RAW,137332,0,172,992,934,950,992,1811,992,1811,255,137312145,-120,178,16658,-56,83,-19,70,-77,-296,0,32,2,-2,-1,1732,-1,-1,-1,-1,3,369989824,-1220636050,0,65535,65535,7,0,255,0,0,0,0,0,0,10,0,192,0,3,3
RAW_IMU,137332,0,172,992,934,950,992,1811,992,1811,255,137332144,-87,233,16667,-35,85,-20,60,-84,-294,0,80,2,-2,-1,1732,-1,-1,-1,-1,3,369989824,-1220636050,0,65535,65535,7,0,255,0,0,0,0,0,0,10,0,192,0,3,3
RC_CHANNELS_SCALED,137332,1,172,992,934,950,992,1811,992,1811,255,137332144,-87,233,16667,-35,85,-20,60,-84,-294,0,80,4,0,0,1733,-1,-1,-1,-1,3,369989824,-1220636050,0,65535,65535,7,0,255,0,0,0,0,0,0,10,0,192,0,3,3
RC_CHANNELS_RAW,137352,0,172,992,934,951,992,1811,992,1811,255,137332144,-87,233,16667,-35,85,-20,60,-84,-294,0,80,4,0,0,1733,-1,-1,-1,-1,3,369989824,-1220636050,0,65535,65535,7,0,255,0,0,0,0,0,0,10,0,192,0,3,3
RAW_IMU,137352,0,172,992,934,951,992,1811,992,1811,255,137352141,-107,250,16674,-48,66,-15,65,-75,-296,0,96,4,0,0,1733,-1,-1,-1,-1,3,369989824,-1220636050,0,65535,65535,7,0,255,0,0,0,0,0,0,10,0,192,0,3,3
RC_CHANNELS_SCALED,137352,1,172,992,934,951,992,1811,992,1811,255,137352141,-107,250,16674,-48,66,-15,65,-75,-296,0,96,0,1,-1,1732,-1,-1,-1,-1,3,369989824,-1220636050,0,65535,65535,7,0,255,0,0,0,0,0,0,10,0,192,0,3,3
RC_CHANNELS_RAW,137372,0,172,992,934,951,992,1811,992,1811,255,137352141,-107,250,16674,-48,66,-15,65,-75,-296,0,96,0,1,-1,1732,-1,-1,-1,-1,3,369989824,-1220636050,0,65535,65535,7,0,255,0,0,0,0,0,0,10,0,192,0,3,3
RAW_IMU,137372,0,172,992,934,951,992,1811,992,1811,255,137372142,1,268,16649,-36,81,-19,56,-81,-295,0,64,0,1,-1,1732,-1,-1,-1,-1,3,369989824,-1220636050,0,65535,65535,7,0,255,0,0,0,0,0,0,10,0,192,0,3,3
RC_CHANNELS_SCALED,137372,1,172,992,934,951,992,1811,992,1811,255,137372142,1,268,16649,-36,81,-19,56,-81,-295,0,64,2,-2,2,1733,-1,-1,-1,-1,3,369989824,-1220636050,0,65535,65535,7,0,255,0,0,0,0,0,0,10,0,192,0,3,3
RC_CHANNELS_RAW,137392,0,172,992,934,950,992,1811,992,1811,255,137372142,1,268,16649,-36,81,-19,56,-81,-295,0,64,2,-2,2,1733,-1,-1,-1,-1,3,369989824,-1220636050,0,65535,65535,7,0,255,0,0,0,0,0,0,10,0,192,0,3,3
RAW_IMU,137392,0,172,992,934,950,992,1811,992,1811,255,137392145,-74,251,16657,-42,62,-27,57,-79,-291,0,0,2,-2,2,1733,-1,-1,-1,-1,3,369989824,-1220636050,0,65535,65535,7,0,255,0,0,0,0,0,0,10,0,192,0,3,3
RC_CHANNELS_SCALED,137392,1,172,992,934,950,992,1811,992,1811,255,137392145,-74,251,16657,-42,62,-27,57,-79,-291,0,0,-2,2,-1,1732,-1,-1,-1,-1,3,369989824,-1220636050,0,65535,65535,7,0,255,0,0,0,0,0,0,10,0,192,0,3,3
GPS_RAW_INT,137392,1,172,992,934,950,992,1811,992,1811,255,137410006,-74,251,16657,-42,62,-27,57,-79,-291,0,0,-2,2,-1,1732,-1,-1,-1,-1,3,369989824,-1220636048,0,65535,65535,2,0,255,0,0,0,0,0,0,10,0,192,0,3,3
RC_CHANNELS_RAW,137412,0,172,992,934,951,992,1811,992,1811,255,137410006,-74,251,16657,-42,62,-27,57,-79,-291,0,0,-2,2,-1,1732,-1,-1,-1,-1,3,369989824,-1220636048,0,65535,65535,2,0,255,0,0,0,0,0,0,10,0,192,0,3,3
RAW_IMU,137412,0,172,992,934,951,992,1811,992,1811,255,137412149,-27,218,16774,-45,70,-30,70,-82,-296,0,80,-2,2,-1,1732,-1,-1,-1,-1,3,369989824,-1220636048,0,65535,65535,2,0,255,0,0,0,0,0,0,10,0,192,0,3,3
RC_CHANNELS_SCALED,137412,1,172,992,934,951,992,1811,992,1811,255,137412149,-27,218,16774,-45,70,-30,70,-82,-296,0,80,-2,-1,-3,1730,-1,-1,-1,-1,3,369989824,-1220636048,0,65535,65535,2,0,255,0,0,0,0,0,0,10,0,192,0,3,3
RC_CHANNELS_RAW,137432,0,172,992,934,951,992,1811,992,1811,255,137412149,-27,218,16774,-45,70,-30,70,-82,-296,0,80,-2,-1,-3,1730,-1,-1,-1,-1,3,369989824,-1220636048,0,65535,65535,2,0,255,0,0,0,0,0,0,10,0,192,0,3,3
RAW_IMU,137432,0,172,992,934,951,992,1811,992,1811,255,137432145,-132,198,16645,-50,71,-25,74,-78,-290,0,80,-2,-1,-3,1730,-1,-1,-1,-1,3,369989824,-1220636048,0,65535,65535,2,0,255,0,0,0,0,0,0,10,0,192,0,3,3
RC_CHANNELS_SCALED,137432,1,172,992,934,951,992,1811,992,1811,255,137432145,-132,198,16645,-50,71,-25,74,-78,-290,0,80,-1,2,3,1733,-1,-1,-1,-1,3,369989824,-1220636048,0,65535,65535,2,0,255,0,0,0,0,0,0,10,0,192,0,3,3
RC_CHANNELS_RAW,137452,0,172,992,934,950,992,1811,992,1811,255,137432145,-132,198,16645,-50,71,-25,74,-78,-290,0,80,-1,2,3,1733,-1,-1,-1,-1,3,369989824,-1220636048,0,65535,65535,2,0,255,0,0,0,0,0,0,10,0,192,0,3,3
RAW_IMU,137452,0,172,992,934,950,992,1811,992,1811,255,137452143,-107,218,16661,-36,79,-21,78,-79,-294,0,32,-1,2,3,1733,-1,-1,-1,-1,3,369989824,-1220636048,0,65535,65535,2,0,255,0,0,0,0,0,0,10,0,192,0,3,3
RC_CHANNELS_SCALED,137452,1,172,992,934,950,992,1811,992,1811,255,137452143,-107,218,16661,-36,79,-21,78,-79,-294,0,32,0,1,-3,1731,-1,-1,-1,-1,3,369989824,-1220636048,0,65535,65535,2,0,255,0,0,0,0,0,0,10,0,192,0,3,3
RC_CHANNELS_RAW,137472,0,172,992,934,950,992,1811,992,1811,255,137452143,-107,218,16661,-36,79,-21,78,-79,-294,0,32,0,1,-3,1731,-1,-1,-1,-1,3,369989824,-1220636048,0,65535,65535,2,0,255,0,0,0,0,0,0,10,0,192,0,3,3
RAW_IMU,137472,0,172,992,934,950,992,1811,992,1811,255,137472142,-119,224,16645,-41,72,-23,65,-87,-294,0,128,0,1,-3,1731,-1,-1,-1,-1,3,369989824,-1220636048,0,65535,65535,2,0,255,0,0,0,0,0,0,10,0,192,0,3,3
RC_CHANNELS_SCALED,137472,1,172,992,934,950,992,1811,992,1811,255,137472142,-119,224,16645,-41,72,-23,65,-87,-294,0,128,2,2,0,1733,-1,-1,-1,-1,3,369989824,-1220636048,0,65535,65535,2,0,255,0,0,0,0,0,0,10,0,192,0,3,3
RC_CHANNELS_RAW,137492,0,172,992,934,950,992,1811,992,1811,255,137472142,-119,224,16645,-41,72,-23,65,-87,-294,0,128,2,2,0,1733,-1,-1,-1,-1,3,369989824,-1220636048,0,65535,65535,2,0,255,0,0,0,0,0,0,10,0,192,0,3,3
RAW_IMU,137492,0,172,992,934,950,992,1811,992,1811,255,137492147,-119,189,16715,-35,69,-29,73,-77,-294,0,64,2,2,0,1733,-1,-1,-1,-1,3,369989824,-1220636048,0,65535,65535,2,0,255,0,0,0,0,0,0,10,0,192,0,3,3
RC_CHANNELS_SCALED,137492,1,172,992,934,950,992,1811,992,1811,255,137492147,-119,189,16715,-35,69,-29,73,-77,-294,0,64,0,2,-1,1733,-1,-1,-1,-1,3,369989824,-1220636048,0,65535,65535,2,0,255,0,0,0,0,0,0,10,0,192,0,3,3
GPS_RAW_INT,137492,1,172,992,934,950,992,1811,992,1811,255,137511006,-119,189,16715,-35,69,-29,73,-77,-294,0,64,0,2,-1,1733,-1,-1,-1,-1,3,369989824,-1220636050,0,65535,65535,3,0,255,0,0,0,0,0,0,10,0,192,0,3,3
RC_CHANNELS_RAW,137512,0,172,992,934,950,992,1811,992,1811,255,137511006,-119,189,16715,-35,69,-29,73,-77,-294,0,64,0,2,-1,1733,-1,-1,-1,-1,3,369989824,-1220636050,0,65535,65535,3,0,255,0,0,0,0,0,0,10,0,192,0,3,3
RAW_IMU,137512,0,172,992,934,950,992,1811,992,1811,255,137512148,-149,221,16713,-31,65,-17,74,-73,-298,0,32,0,2,-1,1733,-1,-1,-1,-1,3,369989824,-1220636050,0,65535,65535,3,0,255,0,0,0,0,0,0,10,0,192,0,3,3
RC_CHANNELS_SCALED,137512,1,172,992,934,950,992,1811,992,1811,255,137512148,-149,221,16713,-31,65,-17,74,-73,-298,0,32,-1,2,-1,1732,-1,-1,-1,-1,3,369989824,-1220636050,0,65535,65535,3,0,255,0,0,0,0,0,0,10,0,192,0,3,3
RC_CHANNELS_RAW,137532,0,172,992,934,950,992,1811,992,1811,255,137512148,-149,221,16713,-31,65,-17,74,-73,-298,0,32,-1,2,-1,1732,-1,-1,-1,-1,3,369989824,-1220636050,0,65535,65535,3,0,255,0,0,0,0,0,0,10,0,192,0,3,3
RAW_IMU,137532,0,172,992,934,950,992,1811,992,1811,255,137532148,-129,180,16641,-41,71,-35,62,-79,-291,0,80,-1,2,-1,1732,-1,-1,-1,-1,3,369989824,-1220636050,0,65535,65535,3,0,255,0,0,0,0,0,0,10,0,192,0,3,3
RC_CHANNELS_SCALED,137532,1,172,992,934,950,992,1811,992,1811,255,137532148,-129,180,16641,-41,71,-35,62,-79,-291,0,80,-4,-1,1,1733,-1,-1,-1,-1,3,369989824,-1220636050,0,65535,65535,3,0,255,0,0,0,0,0,0,10,0,192,0,3,3
RC_CHANNELS_RAW,137552,0,172,992,934,951,992,1811,992,1811,255,137532148,-129,180,16641,-41,71,-35,62,-79,-291,0,80,-4,-1,1,1733,-1,-1,-1,-1,3,369989824,-1220636050,0,65535,65535,3,0,255,0,0,0,0,0,0,10,0,192,0,3,3
RAW_IMU,137552,0,172,992,934,951,992,1811,992,1811,255,137552144,-69,250,16673,-37,73,-13,70,-79,-299,0,64,-4,-1,1,1733,-1,-1,-1,-1,3,369989824,-1220636050,0,65535,65535,3,0,255,0,0,0,0,0,0,10,0,192,0,3,3
RC_CHANNELS_SCALED,137552,1,172,992,934,951,992,1811,992,1811,255,137552144,-69,250,16673,-37,73,-13,70,-79,-299,0,64,2,0,-3,1731,-1,-1,-1,-1,3,369989824,-1220636050,0,65535,65535,3,0,255,0,0,0,0,0,0,10,0,192,0,3,3
RC_CHANNELS_RAW,137572,0,172,992,934,951,992,1811,992,1811,255,137552144,-69,250,16673,-37,73,-13,70,-79,-299,0,64,2,0,-3,1731,-1,-1,-1,-1,3,369989824,-1220636050,0,65535,65535,3,0,255,0,0,0,0,0,0,10,0,192,0,3,3
RAW_IMU,137572,0,172,992,934,951,992,1811,992,1811,255,137572144,-74,218,16716,-51,78,-23,65,-82,-294,0,0,2,0,-3,1731,-1,-1,-1,-1,3,369989824,-1220636050,0,65535,65535,3,0,255,0,0,0,0,0,0,10,0,192,0,3,3
RC_CHANNELS_SCALED,137572,1,172,992,934,951,992,1811,992,1811,255,137572144,-74,218,16716,-51,78,-23,65,-82,-294,0,0,0,4,-2,1731,-1,-1,-1,-1,3,369989824,-1220636050,0,65535,65535,3,0,255,0,0,0,0,0,0,10,0,192,0,3,3
RC_CHANNELS_RAW,137592,0,172,992,934,950,992,1811,992,1811,255,137572144,-74,218,16716,-51,78,-23,65,-82,-294,0,0,0,4,-2,1731,-1,-1,-1,-1,3,369989824,-1220636050,0,65535,65535,3,0,255,0,0,0,0,0,0,10,0,192,0,3,3
RAW_IMU,137592,0,172,992,934,950,992,1811,992,1811,255,137592143,-110,229,16718,-33,62,-12,69,-85,-288,0,96,0,4,-2,1731,-1,-1,-1,-1,3,369989824,-1220636050,0,65535,65535,3,0,255,0,0,0,0,0,0,10,0,192,0,3,3
RC_CHANNELS_SCALED,137592,1,172,992,934,950,992,1811,992,1811,255,137592143,-110,229,16718,-33,62,-12,69,-85,-288,0,96,-1,-2,1,1732,-1,-1,-1,-1,3,369989824,-1220636050,0,65535,65535,3,0,255,0,0,0,0,0,0,10,0,192,0,3,3
RC_CHANNELS_RAW,137612,0,172,992,934,950,992,1811,992,1811,255,137592143,-110,229,16718,-33,62,-12,69,-85,-288,0,96,-1,-2,1,1732,-1,-1,-1,-1,3,369989824,-1220636050,0,65535,65535,3,0,255,0,0,0,0,0,0,10,0,192,0,3,3
RAW_IMU,137612,0,172,992,934,950,992,1811,992,1811,255,137612142,-93,203,16757,-20,70,-19,74,-78,-302,0,64,-1,-2,1,1732,-1,-1,-1,-1,3,369989824,-1220636050,0,65535,65535,3,0,255,0,0,0,0,0,0,10,0,192,0,3,3
RC_CHANNELS_SCALED,137612,1,172,992,934,950,992,1811,992,1811,255,137612142,-93,203,16757,-20,70,-19,74,-78,-302,0,64,-1,3,1,1732,-1,-1,-1,-1,3,369989824,-1220636050,0,65535,65535,3,0,255,0,0,0,0,0,0,10,0,192,0,3,3
GPS_RAW_INT,137612,1,172,992,934,950,992,1811,992,1811,255,137612418,-93,203,16757,-20,70,-19,74,-78,-302,0,64,-1,3,1,1732,-1,-1,-1,-1,3,369989824,-1220636050,0,65535,65535,0,0,255,0,0,0,0,0,0,10,0,192,0,3,3
RC_CHANNELS_RAW,137632,0,172,992,934,950,992,1811,992,1811,255,137612418,-93,203,16757,-20,70,-19,74,-78,-302,0,64,-1,3,1,1732,-1,-1,-1,-1,3,369989824,-1220636050,0,65535,65535,0,0,255,0,0,0,0,0,0,10,0,192,0,3,3
RAW_IMU,137632,0,172,992,934,950,992,1811,992,1811,255,137632142,-80,217,16699,-37,72,-14,70,-77,-299,0,64,-1,3,1,1732,-1,-1,-1,-1,3,369989824,-1220636050,0,65535,65535,0,0,255,0,0,0,0,0,0,10,0,192,0,3,3
RC_CHANNELS_SCALED,137632,1,172,992,934,950,992,1811,992,1811,255,137632142,-80,217,16699,-37,72,-14,70,-77,-299,0,64,0,-1,1,1734,-1,-1,-1,-1,3,369989824,-1220636050,0,65535,65535,0,0,255,0,0,0,0,0,0,10,0,192,0,3,3
RC_CHANNELS_RAW,137652,0,172,992,934,950,992,1811,992,1811,255,137632142,-80,217,16699,-37,72,-14,70,-77,-299,0,64,0,-1,1,1734,-1,-1,-1,-1,3,369989824,-1220636050,0,65535,65535,0,0,255,0,0,0,0,0,0,10,0,192,0,3,3
RAW_IMU,137652,0,172,992,934,950,992,1811,992,1811,255,137652144,-142,294,16729,-34,67,-28,71,-81,-307,0,64,0,-1,1,1734,-1,-1,-1,-1,3,369989824,-1220636050,0,65535,65535,0,0,255,0,0,0,0,0,0,10,0,192,0,3,3
RC_CHANNELS_SCALED,137652,1,172,992,934,950,992,1811,992,1811,255,137652144,-142,294,16729,-34,67,-28,71,-81,-307,0,64,-3,-2,-1,1733,-1,-1,-1,-1,3,369989824,-1220636050,0,65535,65535,0,0,255,0,0,0,0,0,0,10,0,192,0,3,3
RC_CHANNELS_RAW,137672,0,172,992,934,950,992,1811,992,1811,255,137652144,-142,294,16729,-34,67,-28,71,-81,-307,0,64,-3,-2,-1,1733,-1,-1,-1,-1,3,369989824,-1220636050,0,65535,65535,0,0,255,0,0,0,0,0,0,10,0,192,0,3,3
RAW_IMU,137672,0,172,992,934,950,992,1811,992,1811,255,137672144,-121,152,16658,-33,55,-24,66,-76,-295,0,80,-3,-2,-1,1733,-1,-1,-1,-1,3,369989824,-1220636050,0,65535,65535,0,0,255,0,0,0,0,0,0,10,0,192,0,3,3
RC_CHANNELS_SCALED,137672,1,172,992,934,950,992,1811,992,1811,255,137672144,-121,152,16658,-33,55,-24,66,-76,-295,0,80,-5,5,-3,1732,-1,-1,-1,-1,3,369989824,-1220636050,0,65535,65535,0,0,255,0,0,0,0,0,0,10,0,192,0,3,3
RC_CHANNELS_RAW,137692,0,172,992,934,950,992,1811,992,1811,255,137672144,-121,152,16658,-33,55,-24,66,-76,-295,0,80,-5,5,-3,1732,-1,-1,-1,-1,3,369989824,-1220636050,0,65535,65535,0,0,255,0,0,0,0,0,0,10,0,192,0,3,3
RAW_IMU,137692,0,172,992,934,950,992,1811,992,1811,255,137692149,-102,164,16684,-27,73,-17,65,-87,-294,0,80,-5,5,-3,1732,-1,-1,-1,-1,3,369989824,-1220636050,0,65535,65535,0,0,255,0,0,0,0,0,0,10,0,192,0,3,3
RC_CHANNELS_SCALED,137692,1,172,992,934,950,992,1811,992,1811,255,137692149,-102,164,16684,-27,73,-17,65,-87,-294,0,80,-1,0,-2,1730,-1,-1,-1,-1,3,369989824,-1220636050,0,65535,65535,0,0,255,0,0,0,0,0,0,10,0,192,0,3,3
RC_CHANNELS_RAW,137712,0,172,992,934,950,992,1811,992,1275,255,137692149,-102,164,16684,-27,73,-17,65,-87,-294,0,80,-1,0,-2,1730,-1,-1,-1,-1,3,369989824,-1220636050,0,65535,65535,0,0,255,0,0,0,0,0,0,10,0,192,0,3,3
RAW_IMU,137712,0,172,992,934,950,992,1811,992,1275,255,137712139,-111,252,16729,-40,78,-27,67,-79,-301,0,32,-1,0,-2,1730,-1,-1,-1,-1,3,369989824,-1220636050,0,65535,65535,0,0,255,0,0,0,0,0,0,10,0,192,0,3,3
RC_CHANNELS_SCALED,137712,1,172,992,934,950,992,1811,992,1275,255,137712139,-111,252,16729,-40,78,-27,67,-79,-301,0,32,0,-3,-2,1733,-1,-1,-1,-1,3,369989824,-1220636050,0,65535,65535,0,0,255,0,0,0,0,0,0,10,0,192,0,3,3
GPS_RAW_INT,137712,1,172,992,934,950,992,1811,992,1275,255,137713009,-111,252,16729,-40,78,-27,67,-79,-301,0,32,0,-3,-2,1733,-1,-1,-1,-1,3,369989824,-1220636053,0,65535,65535,2,0,255,0,0,0,0,0,0,10,0,192,0,3,3
RC_CHANNELS_RAW,137732,0,172,992,934,950,992,1811,992,1811,255,137713009,-111,252,16729,-40,78,-27,67,-79,-301,0,32,0,-3,-2,1733,-1,-1,-1,-1,3,369989824,-1220636053,0,65535,65535,2,0,255,0,0,0,0,0,0,10,0,192,0,3,3
RAW_IMU,137732,0,172,992,934,950,992,1811,992,1811,255,137732142,-97,190,16694,-30,67,-22,63,-73,-295,0,128,0,-3,-2,1733,-1,-1,-1,-1,3,369989824,-1220636053,0,65535,65535,2,0,255,0,0,0,0,0,0,10,0,192,0,3,3
RC_CHANNELS_SCALED,137732,1,172,992,934,950,992,1811,992,1811,255,137732142,-97,190,16694,-30,67,-22,63,-73,-295,0,128,-1,1,0,1733,-1,-1,-1,-1,3,369989824,-1220636053,0,65535,65535,2,0,255,0,0,0,0,0,0,10,0,192,0,3,3
RC_CHANNELS_RAW,137752,0,172,992,934,950,992,1811,992,1811,255,137732142,-97,190,16694,-30,67,-22,63,-73,-295,0,128,-1,1,0,1733,-1,-1,-1,-1,3,369989824,-1220636053,0,65535,65535,2,0,255,0,0,0,0,0,0,10,0,192,0,3,3
RAW_IMU,137752,0,172,992,934,950,992,1811,992,1811,255,137752144,-52,176,16728,-46,63,-22,60,-75,-296,0,-48,-1,1,0,1733,-1,-1,-1,-1,3,369989824,-1220636053,0,65535,65535,2,0,255,0,0,0,0,0,0,10,0,192,0,3,3
RC_CHANNELS_SCALED,137752,1,172,992,934,950,992,1811,992,1811,255,137752144,-52,176,16728,-46,63,-22,60,-75,-296,0,-48,1,0,0,1733,-1,-1,-1,-1,3,369989824,-1220636053,0,65535,65535,2,0,255,0,0,0,0,0,0,10,0,192,0,3,3
RC_CHANNELS_RAW,137772,0,172,992,934,950,992,1811,992,1811,255,137752144,-52,176,16728,-46,63,-22,60,-75,-296,0,-48,1,0,0,1733,-1,-1,-1,-1,3,369989824,-1220636053,0,65535,65535,2,0,255,0,0,0,0,0,0,10,0,192,0,3,3
RAW_IMU,137772,0,172,992,934,950,992,1811,992,1811,255,137772141,-64,236,16727,-48,76,-33,74,-78,-293,0,64,1,0,0,1733,-1,-1,-1,-1,3,369989824,-1220636053,0,65535,65535,2,0,255,0,0,0,0,0,0,10,0,192,0,3,3
RC_CHANNELS_SCALED,137772,1,172,992,934,950,992,1811,992,1811,255,137772141,-64,236,16727,-48,76,-33,74,-78,-293,0,64,0,1,-2,1730,-1,-1,-1,-1,3,369989824,-1220636053,0,65535,65535,2,0,255,0,0,0,0,0,0,10,0,192,0,3,3
RC_CHANNELS_RAW,137792,0,172,992,934,950,992,1811,992,1811,255,137772141,-64,236,16727,-48,76,-33,74,-78,-293,0,64,0,1,-2,1730,-1,-1,-1,-1,3,369989824,-1220636053,0,65535,65535,2,0,255,0,0,0,0,0,0,10,0,192,0,3,3
RAW_IMU,137792,0,172,992,934,950,992,1811,992,1811,255,137792152,-126,259,16734,-45,59,-28,54,-75,-299,0,128,0,1,-2,1730,-1,-1,-1,-1,3,369989824,-1220636053,0,65535,65535,2,0,255,0,0,0,0,0,0,10,0,192,0,3,3
RC_CHANNELS_SCALED,137792,1,172,992,934,950,992,1811,992,1811,255,137792152,-126,259,16734,-45,59,-28,54,-75,-299,0,128,-1,-2,-1,1732,-1,-1,-1,-1,3,369989824,-1220636053,0,65535,65535,2,0,255,0,0,0,0,0,0,10,0,192,0,3,3
RC_CHANNELS_RAW,137812,0,172,992,934,950,992,1811,992,1811,255,137792152,-126,259,16734,-45,59,-28,54,-75,-299,0,128,-1,-2,-1,1732,-1,-1,-1,-1,3,369989824,-1220636053,0,65535,65535,2,0,255,0,0,0,0,0,0,10,0,192,0,3,3
RAW_IMU,137812,0,172,992,934,950,992,1811,992,1811,255,137812145,-84,233,16678,-37,61,-19,71,-83,-298,0,32,-1,-2,-1,1732,-1,-1,-1,-1,3,369989824,-1220636053,0,65535,65535,2,0,255,0,0,0,0,0,0,10,0,192,0,3,3
RC_CHANNELS_SCALED,137812,1,172,992,934,950,992,1811,992,1811,255,137812145,-84,233,16678,-37,61,-19,71,-83,-298,0,32,-1,-2,1,1732,-1,-1,-1,-1,3,369989824,-1220636053,0,65535,65535,2,0,255,0,0,0,0,0,0,10,0,192,0,3,3
GPS_RAW_INT,137812,1,172,992,934,950,992,1811,992,1811,255,137814007,-84,233,16678,-37,61,-19,71,-83,-298,0,32,-1,-2,1,1732,-1,-1,-1,-1,3,369989824,-1220636053,0,65535,65535,2,0,255,0,0,0,0,0,0,10,0,192,0,3,3
RC_CHANNELS_RAW,137832,0,172,992,934,950,992,1811,992,1811,255,137814007,-84,233,16678,-37,61,-19,71,-83,-298,0,32,-1,-2,1,1732,-1,-1,-1,-1,3,369989824,-1220636053,0,65535,65535,2,0,255,0,0,0,0,0,0,10,0,192,0,3,3
RAW_IMU,137832,0,172,992,934,950,992,1811,992,1811,255,137832146,-147,272,16657,-33,65,-16,67,-77,-306,0,128,-1,-2,1,1732,-1,-1,-1,-1,3,369989824,-1220636053,0,65535,65535,2,0,255,0,0,0,0,0,0,10,0,192,0,3,3
RC_CHANNELS_SCALED,137832,1,172,992,934,950,992,1811,992,1811,255,137832146,-147,272,16657,-33,65,-16,67,-77,-306,0,128,1,1,2,1733,-1,-1,-1,-1,3,369989824,-1220636053,0,65535,65535,2,0,255,0,0,0,0,0,0,10,0,192,0,3,3
RC_CHANNELS_RAW,137852,0,172,992,934,950,992,1811,992,1811,255,137832146,-147,272,16657,-33,65,-16,67,-77,-306,0,128,1,1,2,1733,-1,-1,-1,-1,3,369989824,-1220636053,0,65535,65535,2,0,255,0,0,0,0,0,0,10,0,192,0,3,3
RAW_IMU,137852,0,172,992,934,950,992,1811,992,1811,255,137852140,-112,220,16699,-42,68,-22,71,-85,-298,0,32,1,1,2,1733,-1,-1,-1,-1,3,369989824,-1220636053,0,65535,65535,2,0,255,0,0,0,0,0,0,10,0,192,0,3,3
RC_CHANNELS_SCALED,137852,1,172,992,934,950,992,1811,992,1811,255,137852140,-112,220,16699,-42,68,-22,71,-85,-298,0,32,3,-1,7,1734,-1,-1,-1,-1,3,369989824,-1220636053,0,65535,65535,2,0,255,0,0,0,0,0,0,10,0,192,0,3,3
RC_CHANNELS_RAW,137872,0,172,992,934,950,992,1811,992,1811,255,137852140,-112,220,16699,-42,68,-22,71,-85,-298,0,32,3,-1,7,1734,-1,-1,-1,-1,3,369989824,-1220636053,0,65535,65535,2,0,255,0,0,0,0,0,0,10,0,192,0,3,3
RAW_IMU,137872,0,172,992,934,950,992,1811,992,1811,255,137872142,-113,237,16701,-27,64,-29,62,-85,-290,0,32,3,-1,7,1734,-1,-1,-1,-1,3,369989824,-1220636053,0,65535,65535,2,0,255,0,0,0,0,0,0,10,0,192,0,3,3
RC_CHANNELS_SCALED,137872,1,172,992,934,950,992,1811,992,1811,255,137872142,-113,237,16701,-27,64,-29,62,-85,-290,0,32,0,-1,-2,1731,-1,-1,-1,-1,3,369989824,-1220636053,0,65535,65535,2,0,255,0,0,0,0,0,0,10,0,192,0,3,3
RC_CHANNELS_RAW,137892,0,172,992,934,950,992,1811,992,1811,255,137872142,-113,237,16701,-27,64,-29,62,-85,-290,0,32,0,-1,-2,1731,-1,-1,-1,-1,3,369989824,-1220636053,0,65535,65535,2,0,255,0,0,0,0,0,0,10,0,192,0,3,3
RAW_IMU,137892,0,172,992,934,950,992,1811,992,1811,255,137892147,-107,197,16665,-30,74,-19,54,-79,-289,0,16,0,-1,-2,1731,-1,-1,-1,-1,3,369989824,-1220636053,0,65535,65535,2,0,255,0,0,0,0,0,0,10,0,192,0,3,3
RC_CHANNELS_SCALED,137892,1,172,992,934,950,992,1811,992,1811,255,137892147,-107,197,16665,-30,74,-19,54,-79,-289,0,16,3,2,-3,1731,-1,-1,-1,-1,3,369989824,-1220636053,0,65535,65535,2,0,255,0,0,0,0,0,0,10,0,192,0,3,3
RC_CHANNELS_RAW,137912,0,172,992,934,950,992,1811,992,1811,255,137892147,-107,197,16665,-30,74,-19,54,-79,-289,0,16,3,2,-3,1731,-1,-1,-1,-1,3,369989824,-1220636053,0,65535,65535,2,0,255,0,0,0,0,0,0,10,0,192,0,3,3
RAW_IMU,137912,0,172,992,934,950,992,1811,992,1811,255,137912146,-79,235,16664,-31,76,-35,63,-83,-295,0,64,3,2,-3,1731,-1,-1,-1,-1,3,369989824,-1220636053,0,65535,65535,2,0,255,0,0,0,0,0,0,10,0,192,0,3,3
RC_CHANNELS_SCALED,137912,1,172,992,934,950,992,1811,992,1811,255,137912146,-79,235,16664,-31,76,-35,63,-83,-295,0,64,-1,3,-2,1731,-1,-1,-1,-1,3,369989824,-1220636053,0,65535,65535,2,0,255,0,0,0,0,0,0,10,0,192,0,3,3
GPS_RAW_INT,137912,1,172,992,934,950,992,1811,992,1811,255,137915010,-79,235,16664,-31,76,-35,63,-83,-295,0,64,-1,3,-2,1731,-1,-1,-1,-1,3,369989824,-1220636053,0,65535,65535,2,0,255,0,0,0,0,0,0,10,0,192,0,3,3
RC_CHANNELS_RAW,137932,0,172,992,934,950,992,1811,992,1811,255,137915010,-79,235,16664,-31,76,-35,63,-83,-295,0,64,-1,3,-2,1731,-1,-1,-1,-1,3,369989824,-1220636053,0,65535,65535,2,0,255,0,0,0,0,0,0,10,0,192,0,3,3
RAW_IMU,137932,0,172,992,934,950,992,1811,992,1811,255,137932143,-65,229,16681,-44,87,-28,70,-84,-299,0,128,-1,3,-2,1731,-1,-1,-1,-1,3,369989824,-1220636053,0,65535,65535,2,0,255,0,0,0,0,0,0,10,0,192,0,3,3
RC_CHANNELS_SCALED,137932,1,172,992,934,950,992,1811,992,1811,255,137932143,-65,229,16681,-44,87,-28,70,-84,-299,0,128,1,1,0,1732,-1,-1,-1,-1,3,369989824,-1220636053,0,65535,65535,2,0,255,0,0,0,0,0,0,10,0,192,0,3,3
RC_CHANNELS_RAW,137952,0,172,992,934,950,992,1811,992,1811,255,137932143,-65,229,16681,-44,87,-28,70,-84,-299,0,128,1,1,0,1732,-1,-1,-1,-1,3,369989824,-1220636053,0,65535,65535,2,0,255,0,0,0,0,0,0,10,0,192,0,3,3
RAW_IMU,137952,0,172,992,934,950,992,1811,992,1811,255,137952144,-100,225,16722,-41,80,-21,61,-81,-300,0,128,1,1,0,1732,-1,-1,-1,-1,3,369989824,-1220636053,0,65535,65535,2,0,255,0,0,0,0,0,0,10,0,192,0,3,3
RC_CHANNELS_SCALED,137952,1,172,992,934,950,992,1811,992,1811,255,137952144,-100,225,16722,-41,80,-21,61,-81,-300,0,128,5,-1,0,1732,-1,-1,-1,-1,3,369989824,-1220636053,0,65535,65535,2,0,255,0,0,0,0,0,0,10,0,192,0,3,3
RC_CHANNELS_RAW,137972,0,172,992,934,950,992,1811,992,1811,255,137952144,-100,225,16722,-41,80,-21,61,-81,-300,0,128,5,-1,0,1732,-1,-1,-1,-1,3,369989824,-1220636053,0,65535,65535,2,0,255,0,0,0,0,0,0,10,0,192,0,3,3
RAW_IMU,137972,0,172,992,934,950,992,1811,992,1811,255,137972141,-131,226,16688,-41,65,-19,62,-84,-291,0,80,5,-1,0,1732,-1,-1,-1,-1,3,369989824,-1220636053,0,65535,65535,2,0,255,0,0,0,0,0,0,10,0,192,0,3,3
RC_CHANNELS_SCALED,137972,1,172,992,934,950,992,1811,992,1811,255,137972141,-131,226,16688,-41,65,-19,62,-84,-291,0,80,0,2,-1,1732,-1,-1,-1,-1,3,369989824,-1220636053,0,65535,65535,2,0,255,0,0,0,0,0,0,10,0,192,0,3,3
RC_CHANNELS_RAW,137992,0,172,992,934,950,992,1811,992,1811,255,137972141,-131,226,16688,-41,65,-19,62,-84,-291,0,80,0,2,-1,1732,-1,-1,-1,-1,3,369989824,-1220636053,0,65535,65535,2,0,255,0,0,0,0,0,0,10,0,192,0,3,3
RAW_IMU,137992,0,172,992,934,950,992,1811,992,1811,255,137992147,-163,178,16650,-41,76,-23,60,-77,-304,0,96,0,2,-1,1732,-1,-1,-1,-1,3,369989824,-1220636053,0,65535,65535,2,0,255,0,0,0,0,0,0,10,0,192,0,3,3
RC_CHANNELS_SCALED,137992,1,172,992,934,950,992,1811,992,1811,255,137992147,-163,178,16650,-41,76,-23,60,-77,-304,0,96,-2,-1,2,1731,-1,-1,-1,-1,3,369989824,-1220636053,0,65535,65535,2,0,255,0,0,0,0,0,0,10,0,192,0,3,3
HEARTBEAT,137992,1,172,992,934,950,992,1811,992,1811,255,137992147,-163,178,16650,-41,76,-23,60,-77,-304,0,96,-2,-1,2,1731,-1,-1,-1,-1,3,369989824,-1220636053,0,65535,65535,2,0,255,0,0,0,0,0,0,10,0,192,0,3,3
RC_CHANNELS_RAW,138012,0,172,992,934,950,992,1811,992,1811,255,137992147,-163,178,16650,-41,76,-23,60,-77,-304,0,96,-2,-1,2,1731,-1,-1,-1,-1,3,369989824,-1220636053,0,65535,65535,2,0,255,0,0,0,0,0,0,10,0,192,0,3,3
RAW_IMU,138012,0,172,992,934,950,992,1811,992,1811,255,138012144,-90,222,16696,-36,63,-26,67,-82,-296,0,64,-2,-1,2,1731,-1,-1,-1,-1,3,369989824,-1220636053,0,65535,65535,2,0,255,0,0,0,0,0,0,10,0,192,0,3,3
RC_CHANNELS_SCALED,138012,1,172,992,934,950,992,1811,992,1811,255,138012144,-90,222,16696,-36,63,-26,67,-82,-296,0,64,2,-3,2,1733,-1,-1,-1,-1,3,369989824,-1220636053,0,65535,65535,2,0,255,0,0,0,0,0,0,10,0,192,0,3,3
GPS_RAW_INT,138012,1,172,992,934,950,992,1811,992,1811,255,138016005,-90,222,16696,-36,63,-26,67,-82,-296,0,64,2,-3,2,1733,-1,-1,-1,-1,3,369989823,-1220636055,0,65535,65535,9,0,255,0,0,0,0,0,0,10,0,192,0,3,3
RC_CHANNELS_RAW,138032,0,172,992,934,950,992,1811,992,1811,255,138016005,-90,222,16696,-36,63,-26,67,-82,-296,0,64,2,-3,2,1733,-1,-1,-1,-1,3,369989823,-1220636055,0,65535,65535,9,0,255,0,0,0,0,0,0,10,0,192,0,3,3
RAW_IMU,138032,0,172,992,934,950,992,1811,992,1811,255,138032144,-112,236,16717,-42,78,-8,63,-85,-307,0,16,2,-3,2,1733,-1,-1,-1,-1,3,369989823,-1220636055,0,65535,65535,9,0,255,0,0,0,0,0,0,10,0,192,0,3,3
RC_CHANNELS_SCALED,138032,1,172,992,934,950,992,1811,992,1811,255,138032144,-112,236,16717,-42,78,-8,63,-85,-307,0,16,0,-2,-1,1732,-1,-1,-1,-1,3,369989823,-1220636055,0,65535,65535,9,0,255,0,0,0,0,0,0,10,0,192,0,3,3
RC_CHANNELS_RAW,138052,0,172,992,934,950,992,1811,992,1811,255,138032144,-112,236,16717,-42,78,-8,63,-85,-307,0,16,0,-2,-1,1732,-1,-1,-1,-1,3,369989823,-1220636055,0,65535,65535,9,0,255,0,0,0,0,0,0,10,0,192,0,3,3
RAW_IMU,138052,0,172,992,934,950,992,1811,992,1811,255,138052144,-93,226,16755,-29,76,-16,61,-83,-298,0,64,0,-2,-1,1732,-1,-1,-1,-1,3,369989823,-1220636055,0,65535,65535,9,0,255,0,0,0,0,0,0,10,0,192,0,3,3
RC_CHANNELS_SCALED,138052,1,172,992,934,950,992,1811,992,1811,255,138052144,-93,226,16755,-29,76,-16,61,-83,-298,0,64,0,2,0,1731,-1,-1,-1,-1,3,369989823,-1220636055,0,65535,65535,9,0,255,0,0,0,0,0,0,10,0,192,0,3,3
RC_CHANNELS_RAW,138072,0,172,992,934,950,992,1811,992,1811,255,138052144,-93,226,16755,-29,76,-16,61,-83,-298,0,64,0,2,0,1731,-1,-1,-1,-1,3,369989823,-1220636055,0,65535,65535,9,0,255,0,0,0,0,0,0,10,0,192,0,3,3
RAW_IMU,138072,0,172,992,934,950,992,1811,992,1811,255,138072146,-110,176,16682,-38,73,-22,63,-83,-295,0,64,0,2,0,1731,-1,-1,-1,-1,3,369989823,-1220636055,0,65535,65535,9,0,255,0,0,0,0,0,0,10,0,192,0,3,3
RC_CHANNELS_SCALED,138072,1,172,992,934,950,992,1811,992,1811,255,138072146,-110,176,16682,-38,73,-22,63,-83,-295,0,64,-3,1,-1,1733,-1,-1,-1,-1,3,369989823,-1220636055,0,65535,65535,9,0,255,0,0,0,0,0,0,10,0,192,0,3,3
RC_CHANNELS_RAW,138092,0,172,992,934,950,992,1811,992,1811,255,138072146,-110,176,16682,-38,73,-22,63,-83,-295,0,64,-3,1,-1,1733,-1,-1,-1,-1,3,369989823,-1220636055,0,65535,65535,9,0,255,0,0,0,0,0,0,10,0,192,0,3,3
RAW_IMU,138092,0,172,992,934,950,992,1811,992,1811,255,138092141,-100,233,16736,-22,64,-31,66,-83,-298,0,32,-3,1,-1,1733,-1,-1,-1,-1,3,369989823,-1220636055,0,65535,65535,9,0,255,0,0,0,0,0,0,10,0,192,0,3,3
RC_CHANNELS_SCALED,138092,1,172,992,934,950,992,1811,992,1811,255,138092141,-100,233,16736,-22,64,-31,66,-83,-298,0,32,-2,-1,0,1732,-1,-1,-1,-1,3,369989823,-1220636055,0,65535,65535,9,0,255,0,0,0,0,0,0,10,0,192,0,3,3
RC_CHANNELS_RAW,138112,0,172,992,934,950,992,1811,992,1811,255,138092141,-100,233,16736,-22,64,-31,66,-83,-298,0,32,-2,-1,0,1732,-1,-1,-1,-1,3,369989823,-1220636055,0,65535,65535,9,0,255,0,0,0,0,0,0,10,0,192,0,3,3
RAW_IMU,138112,0,172,992,934,950,992,1811,992,1811,255,138112143,-139,217,16672,-35,86,-25,60,-72,-296,0,32,-2,-1,0,1732,-1,-1,-1,-1,3,369989823,-1220636055,0,65535,65535,9,0,255,0,0,0,0,0,0,10,0,192,0,3,3
RC_CHANNELS_SCALED,138112,1,172,992,934,950,992,1811,992,1811,255,138112143,-139,217,16672,-35,86,-25,60,-72,-296,0,32,0,-2,-2,1731,-1,-1,-1,-1,3,369989823,-1220636055,0,65535,65535,9,0,255,0,0,0,0,0,0,10,0,192,0,3,3
GPS_RAW_INT,138112,1,172,992,934,950,992,1811,992,1811,255,138117005,-139,217,16672,-35,86,-25,60,-72,-296,0,32,0,-2,-2,1731,-1,-1,-1,-1,3,369989824,-1220636056,0,65535,65535,4,0,255,0,0,0,0,0,0,10,0,192,0,3,3
RC_CHANNELS_RAW,138132,0,172,992,934,950,992,1811,992,1811,255,138117005,-139,217,16672,-35,86,-25,60,-72,-296,0,32,0,-2,-2,1731,-1,-1,-1,-1,3,369989824,-1220636056,0,65535,65535,4,0,255,0,0,0,0,0,0,10,0,192,0,3,3
RAW_IMU,138132,0,172,992,934,950,992,1811,992,1811,255,138132141,-100,208,16630,-33,84,-11,66,-81,-295,0,96,0,-2,-2,1731,-1,-1,-1,-1,3,369989824,-1220636056,0,65535,65535,4,0,255,0,0,0,0,0,0,10,0,192,0,3,3
RC_CHANNELS_SCALED,138132,1,172,992,934,950,992,1811,992,1811,255,138132141,-100,208,16630,-33,84,-11,66,-81,-295,0,96,3,0,1,1733,-1,-1,-1,-1,3,369989824,-1220636056,0,65535,65535,4,0,255,0,0,0,0,0,0,10,0,192,0,3,3
RC_CHANNELS_RAW,138152,0,172,992,934,950,992,1811,992,1811,255,138132141,-100,208,16630,-33,84,-11,66,-81,-295,0,96,3,0,1,1733,-1,-1,-1,-1,3,369989824,-1220636056,0,65535,65535,4,0,255,0,0,0,0,0,0,10,0,192,0,3,3
RAW_IMU,138152,0,172,992,934,950,992,1811,992,1811,255,138152143,-94,235,16721,-47,90,-18,58,-83,-298,0,128,3,0,1,1733,-1,-1,-1,-1,3,369989824,-1220636056,0,65535,65535,4,0,255,0,0,0,0,0,0,10,0,192,0,3,3
RC_CHANNELS_SCALED,138152,1,172,992,934,950,992,1811,992,1811,255,138152143,-94,235,16721,-47,90,-18,58,-83,-298,0,128,0,0,0,1731,-1,-1,-1,-1,3,369989824,-1220636056,0,65535,65535,4,0,255,0,0,0,0,0,0,10,0,192,0,3,3
RC_CHANNELS_RAW,138172,0,172,992,934,950,992,1811,992,1811,255,138152143,-94,235,16721,-47,90,-18,58,-83,-298,0,128,0,0,0,1731,-1,-1,-1,-1,3,369989824,-1220636056,0,65535,65535,4,0,255,0,0,0,0,0,0,10,0,192,0,3,3
RAW_IMU,138172,0,172,992,934,950,992,1811,992,1811,255,138172146,-129,239,16704,-42,78,-9,67,-87,-299,0,80,0,0,0,1731,-1,-1,-1,-1,3,369989824,-1220636056,0,65535,65535,4,0,255,0,0,0,0,0,0,10,0,192,0,3,3
RC_CHANNELS_SCALED,138172,1,172,992,934,950,992,1811,992,1811,255,138172146,-129,239,16704,-42,78,-9,67,-87,-299,0,80,1,1,-1,1732,-1,-1,-1,-1,3,369989824,-1220636056,0,65535,65535,4,0,255,0,0,0,0,0,0,10,0,192,0,3,3
RC_CHANNELS_RAW,138192,0,172,992,934,950,992,1811,992,1811,255,138172146,-129,239,16704,-42,78,-9,67,-87,-299,0,80,1,1,-1,1732,-1,-1,-1,-1,3,369989824,-1220636056,0,65535,65535,4,0,255,0,0,0,0,0,0,10,0,192,0,3,3
RAW_IMU,138192,0,172,992,934,950,992,1811,992,1811,255,138192151,-166,149,16693,-27,60,-22,62,-77,-299,0,64,1,1,-1,1732,-1,-1,-1,-1,3,369989824,-1220636056,0,65535,65535,4,0,255,0,0,0,0,0,0,10,0,192,0,3,3
RC_CHANNELS_SCALED,138192,1,172,992,934,950,992,1811,992,1811,255,138192151,-166,149,16693,-27,60,-22,62,-77,-299,0,64,0,-2,-2,1733,-1,-1,-1,-1,3,369989824,-1220636056,0,65535,65535,4,0,255,0,0,0,0,0,0,10,0,192,0,3,3
RC_CHANNELS_RAW,138212,0,172,992,934,950,992,1811,992,1811,255,138192151,-166,149,16693,-27,60,-22,62,-77,-299,0,64,0,-2,-2,1733,-1,-1,-1,-1,3,369989824,-1220636056,0,65535,65535,4,0,255,0,0,0,0,0,0,10,0,192,0,3,3
RAW_IMU,138212,0,172,992,934,950,992,1811,992,1811,255,138212145,-156,218,16656,-32,72,-32,66,-73,-290,0,96,0,-2,-2,1733,-1,-1,-1,-1,3,369989824,-1220636056,0,65535,65535,4,0,255,0,0,0,0,0,0,10,0,192,0,3,3
RC_CHANNELS_SCALED,138212,1,172,992,934,950,992,1811,992,1811,255,138212145,-156,218,16656,-32,72,-32,66,-73,-290,0,96,1,2,-1,1732,-1,-1,-1,-1,3,369989824,-1220636056,0,65535,65535,4,0,255,0,0,0,0,0,0,10,0,192,0,3,3
GPS_RAW_INT,138212,1,172,992,934,950,992,1811,992,1811,255,138218006,-156,218,16656,-32,72,-32,66,-73,-290,0,96,1,2,-1,1732,-1,-1,-1,-1,3,369989821,-1220636060,0,65535,65535,4,0,255,0,0,0,0,0,0,10,0,192,0,3,3
RC_CHANNELS_RAW,138232,0,172,992,934,950,992,1811,992,1811,255,138218006,-156,218,16656,-32,72,-32,66,-73,-290,0,96,1,2,-1,1732,-1,-1,-1,-1,3,369989821,-1220636060,0,65535,65535,4,0,255,0,0,0,0,0,0,10,0,192,0,3,3
RAW_IMU,138232,0,172,992,934,950,992,1811,992,1811,255,138232143,-123,222,16691,-48,80,-25,62,-79,-284,0,80,1,2,-1,1732,-1,-1,-1,-1,3,369989821,-1220636060,0,65535,65535,4,0,255,0,0,0,0,0,0,10,0,192,0,3,3
RC_CHANNELS_SCALED,138232,1,172,992,934,950,992,1811,992,1811,255,138232143,-123,222,16691,-48,80,-25,62,-79,-284,0,80,-6,2,-2,1731,-1,-1,-1,-1,3,369989821,-1220636060,0,65535,65535,4,0,255,0,0,0,0,0,0,10,0,192,0,3,3
RC_CHANNELS_RAW,138252,0,172,992,934,950,992,1811,992,1811,255,138232143,-123,222,16691,-48,80,-25,62,-79,-284,0,80,-6,2,-2,1731,-1,-1,-1,-1,3,369989821,-1220636060,0,65535,65535,4,0,255,0,0,0,0,0,0,10,0,192,0,3,3
RAW_IMU,138252,0,172,992,934,950,992,1811,992,1811,255,138252141,-103,209,16652,-39,71,-7,71,-76,-302,0,128,-6,2,-2,1731,-1,-1,-1,-1,3,369989821,-1220636060,0,65535,65535,4,0,255,0,0,0,0,0,0,10,0,192,0,3,3
RC_CHANNELS_SCALED,138252,1,172,992,934,950,992,1811,992,1811,255,138252141,-103,209,16652,-39,71,-7,71,-76,-302,0,128,-2,2,0,1733,-1,-1,-1,-1,3,369989821,-1220636060,0,65535,65535,4,0,255,0,0,0,0,0,0,10,0,192,0,3,3
RC_CHANNELS_RAW,138272,0,172,992,934,950,992,1811,992,1811,255,138252141,-103,209,16652,-39,71,-7,71,-76,-302,0,128,-2,2,0,1733,-1,-1,-1,-1,3,369989821,-1220636060,0,65535,65535,4,0,255,0,0,0,0,0,0,10,0,192,0,3,3
RAW_IMU,138272,0,172,992,934,950,992,1811,992,1811,255,138272143,-124,257,16673,-29,70,-34,61,-83,-300,0,80,-2,2,0,1733,-1,-1,-1,-1,3,369989821,-1220636060,0,65535,65535,4,0,255,0,0,0,0,0,0,10,0,192,0,3,3
RC_CHANNELS_SCALED,138272,1,172,992,934,950,992,1811,992,1811,255,138272143,-124,257,16673,-29,70,-34,61,-83,-300,0,80,1,1,0,1732,-1,-1,-1,-1,3,369989821,-1220636060,0,65535,65535,4,0,255,0,0,0,0,0,0,10,0,192,0,3,3
RC_CHANNELS_RAW,138292,0,172,992,934,950,992,1811,992,1811,255,138272143,-124,257,16673,-29,70,-34,61,-83,-300,0,80,1,1,0,1732,-1,-1,-1,-1,3,369989821,-1220636060,0,65535,65535,4,0,255,0,0,0,0,0,0,10,0,192,0,3,3
RAW_IMU,138292,0,172,992,934,950,992,1811,992,1811,255,138292146,-136,202,16743,-53,66,-37,74,-81,-290,0,16,1,1,0,1732,-1,-1,-1,-1,3,369989821,-1220636060,0,65535,65535,4,0,255,0,0,0,0,0,0,10,0,192,0,3,3
RC_CHANNELS_SCALED,138292,1,172,992,934,950,992,1811,992,1811,255,138292146,-136,202,16743,-53,66,-37,74,-81,-290,0,16,-3,-2,2,1733,-1,-1,-1,-1,3,369989821,-1220636060,0,65535,65535,4,0,255,0,0,0,0,0,0,10,0,192,0,3,3
RC_CHANNELS_RAW,138312,0,172,992,934,950,992,1811,992,1811,255,138292146,-136,202,16743,-53,66,-37,74,-81,-290,0,16,-3,-2,2,1733,-1,-1,-1,-1,3,369989821,-1220636060,0,65535,65535,4,0,255,0,0,0,0,0,0,10,0,192,0,3,3
RAW_IMU,138312,0,172,992,934,950,992,1811,992,1811,255,138312146,-131,210,16668,-48,77,-23,71,-83,-288,0,64,-3,-2,2,1733,-1,-1,-1,-1,3,369989821,-1220636060,0,65535,65535,4,0,255,0,0,0,0,0,0,10,0,192,0,3,3
RC_CHANNELS_SCALED,138312,1,172,992,934,950,992,1811,992,1811,255,138312146,-131,210,16668,-48,77,-23,71,-83,-288,0,64,0,2,2,1733,-1,-1,-1,-1,3,369989821,-1220636060,0,65535,65535,4,0,255,0,0,0,0,0,0,10,0,192,0,3,3
GPS_RAW_INT,138312,1,172,992,934,950,992,1811,992,1811,255,138319009,-131,210,16668,-48,77,-23,71,-83,-288,0,64,0,2,2,1733,-1,-1,-1,-1,3,369989823,-1220636060,0,65535,65535,4,0,255,0,0,0,0,0,0,10,0,192,0,3,3
RC_CHANNELS_RAW,138332,0,172,992,934,950,992,1811,992,1811,255,138319009,-131,210,16668,-48,77,-23,71,-83,-288,0,64,0,2,2,1733,-1,-1,-1,-1,3,369989823,-1220636060,0,65535,65535,4,0,255,0,0,0,0,0,0,10,0,192,0,3,3
RAW_IMU,138332,0,172,992,934,950,992,1811,992,1811,255,138332144,-109,217,16648,-32,75,-17,70,-79,-304,0,32,0,2,2,1733,-1,-1,-1,-1,3,369989823,-1220636060,0,65535,65535,4,0,255,0,0,0,0,0,0,10,0,192,0,3,3
RC_CHANNELS_SCALED,138332,1,172,992,934,950,992,1811,992,1811,255,138332144,-109,217,16648,-32,75,-17,70,-79,-304,0,32,-4,1,-2,1731,-1,-1,-1,-1,3,369989823,-1220636060,0,65535,65535,4,0,255,0,0,0,0,0,0,10,0,192,0,3,3
RC_CHANNELS_RAW,138352,0,172,992,934,950,992,1811,992,1811,255,138332144,-109,217,16648,-32,75,-17,70,-79,-304,0,32,-4,1,-2,1731,-1,-1,-1,-1,3,369989823,-1220636060,0,65535,65535,4,0,255,0,0,0,0,0,0,10,0,192,0,3,3
RAW_IMU,138352,0,172,992,934,950,992,1811,992,1811,255,138352141,-93,256,16658,-25,78,-24,65,-79,-291,0,32,-4,1,-2,1731,-1,-1,-1,-1,3,369989823,-1220636060,0,65535,65535,4,0,255,0,0,0,0,0,0,10,0,192,0,3,3
RC_CHANNELS_SCALED,138352,1,172,992,934,950,992,1811,992,1811,255,138352141,-93,256,16658,-25,78,-24,65,-79,-291,0,32,-2,-1,3,1733,-1,-1,-1,-1,3,369989823,-1220636060,0,65535,65535,4,0,255,0,0,0,0,0,0,10,0,192,0,3,3
RC_CHANNELS_RAW,138372,0,172,992,934,950,992,1811,992,1811,255,138352141,-93,256,16658,-25,78,-24,65,-79,-291,0,32,-2,-1,3,1733,-1,-1,-1,-1,3,369989823,-1220636060,0,65535,65535,4,0,255,0,0,0,0,0,0,10,0,192,0,3,3
RAW_IMU,138372,0,172,992,934,950,992,1811,992,1811,255,138372142,-63,304,16719,-29,75,-17,69,-78,-295,0,144,-2,-1,3,1733,-1,-1,-1,-1,3,369989823,-1220636060,0,65535,65535,4,0,255,0,0,0,0,0,0,10,0,192,0,3,3
RC_CHANNELS_SCALED,138372,1,172,992,934,950,992,1811,992,1811,255,138372142,-63,304,16719,-29,75,-17,69,-78,-295,0,144,2,-2,1,1732,-1,-1,-1,-1,3,369989823,-1220636060,0,65535,65535,4,0,255,0,0,0,0,0,0,10,0,192,0,3,3
RC_CHANNELS_RAW,138392,0,172,992,934,950,992,1811,992,1811,255,138372142,-63,304,16719,-29,75,-17,69,-78,-295,0,144,2,-2,1,1732,-1,-1,-1,-1,3,369989823,-1220636060,0,65535,65535,4,0,255,0,0,0,0,0,0,10,0,192,0,3,3
RAW_IMU,138392,0,172,992,934,950,992,1811,992,1811,255,138392149,-112,207,16656,-36,75,-25,70,-84,-299,0,96,2,-2,1,1732,-1,-1,-1,-1,3,369989823,-1220636060,0,65535,65535,4,0,255,0,0,0,0,0,0,10,0,192,0,3,3
RC_CHANNELS_SCALED,138392,1,172,992,934,950,992,1811,992,1811,255,138392149,-112,207,16656,-36,75,-25,70,-84,-299,0,96,3,2,1,1733,-1,-1,-1,-1,3,369989823,-1220636060,0,65535,65535,4,0,255,0,0,0,0,0,0,10,0,192,0,3,3
RC_CHANNELS_RAW,138412,0,172,992,934,950,992,1811,992,1811,255,138392149,-112,207,16656,-36,75,-25,70,-84,-299,0,96,3,2,1,1733,-1,-1,-1,-1,3,369989823,-1220636060,0,65535,65535,4,0,255,0,0,0,0,0,0,10,0,192,0,3,3
RAW_IMU,138412,0,172,992,934,950,992,1811,992,1811,255,138412143,-79,259,16693,-35,82,-11,69,-78,-295,0,80,3,2,1,1733,-1,-1,-1,-1,3,369989823,-1220636060,0,65535,65535,4,0,255,0,0,0,0,0,0,10,0,192,0,3,3
RC_CHANNELS_SCALED,138412,1,172,992,934,950,992,1811,992,1811,255,138412143,-79,259,16693,-35,82,-11,69,-78,-295,0,80,2,4,0,1731,-1,-1,-1,-1,3,369989823,-1220636060,0,65535,65535,4,0,255,0,0,0,0,0,0,10,0,192,0,3,3
GPS_RAW_INT,138412,1,172,992,934,950,992,1811,992,1811,255,138420008,-79,259,16693,-35,82,-11,69,-78,-295,0,80,2,4,0,1731,-1,-1,-1,-1,3,369989823,-1220636060,0,65535,65535,5,0,255,0,0,0,0,0,0,10,0,192,0,3,3
RC_CHANNELS_RAW,138432,0,172,992,934,950,992,1811,992,1811,255,138420008,-79,259,16693,-35,82,-11,69,-78,-295,0,80,2,4,0,1731,-1,-1,-1,-1,3,369989823,-1220636060,0,65535,65535,5,0,255,0,0,0,0,0,0,10,0,192,0,3,3
RAW_IMU,138432,0,172,992,934,950,992,1811,992,1811,255,138432144,-118,206,16699,-31,74,-21,74,-85,-298,0,96,2,4,0,1731,-1,-1,-1,-1,3,369989823,-1220636060,0,65535,65535,5,0,255,0,0,0,0,0,0,10,0,192,0,3,3
RC_CHANNELS_SCALED,138432,1,172,992,934,950,992,1811,992,1811,255,138432144,-118,206,16699,-31,74,-21,74,-85,-298,0,96,1,-2,1,1733,-1,-1,-1,-1,3,369989823,-1220636060,0,65535,65535,5,0,255,0,0,0,0,0,0,10,0,192,0,3,3
RC_CHANNELS_RAW,138452,0,172,992,934,950,992,1811,992,1811,255,138432144,-118,206,16699,-31,74,-21,74,-85,-298,0,96,1,-2,1,1733,-1,-1,-1,-1,3,369989823,-1220636060,0,65535,65535,5,0,255,0,0,0,0,0,0,10,0,192,0,3,3
RAW_IMU,138452,0,172,992,934,950,992,1811,992,1811,255,138452148,-87,233,16710,-28,71,-25,65,-87,-294,0,176,1,-2,1,1733,-1,-1,-1,-1,3,369989823,-1220636060,0,65535,65535,5,0,255,0,0,0,0,0,0,10,0,192,0,3,3
RC_CHANNELS_SCALED,138452,1,172,992,934,950,992,1811,992,1811,255,138452148,-87,233,16710,-28,71,-25,65,-87,-294,0,176,-2,-2,-2,1731,-1,-1,-1,-1,3,369989823,-1220636060,0,65535,65535,5,0,255,0,0,0,0,0,0,10,0,192,0,3,3
RC_CHANNELS_RAW,138472,0,172,992,934,950,992,1811,992,1811,255,138452148,-87,233,16710,-28,71,-25,65,-87,-294,0,176,-2,-2,-2,1731,-1,-1,-1,-1,3,369989823,-1220636060,0,65535,65535,5,0,255,0,0,0,0,0,0,10,0,192,0,3,3
RAW_IMU,138472,0,172,992,934,950,992,1811,992,1811,255,138472141,-183,228,16717,-44,71,-19,62,-75,-301,0,96,-2,-2,-2,1731,-1,-1,-1,-1,3,369989823,-1220636060,0,65535,65535,5,0,255,0,0,0,0,0,0,10,0,192,0,3,3
RC_CHANNELS_SCALED,138472,1,172,992,934,950,992,1811,992,1811,255,138472141,-183,228,16717,-44,71,-19,62,-75,-301,0,96,3,2,0,1732,-1,-1,-1,-1,3,369989823,-1220636060,0,65535,65535,5,0,255,0,0,0,0,0,0,10,0,192,0,3,3
RC_CHANNELS_RAW,138492,0,172,992,934,950,992,1811,992,1811,255,138472141,-183,228,16717,-44,71,-19,62,-75,-301,0,96,3,2,0,1732,-1,-1,-1,-1,3,369989823,-1220636060,0,65535,65535,5,0,255,0,0,0,0,0,0,10,0,192,0,3,3
RAW_IMU,138492,0,172,992,934,950,992,1811,992,1811,255,138492149,-36,268,16683,-43,53,-10,58,-76,-295,0,0,3,2,0,1732,-1,-1,-1,-1,3,369989823,-1220636060,0,65535,65535,5,0,255,0,0,0,0,0,0,10,0,192,0,3,3
RC_CHANNELS_SCALED,138492,1,172,992,934,950,992,1811,992,1811,255,138492149,-36,268,16683,-43,53,-10,58,-76,-295,0,0,-2,-3,1,1732,-1,-1,-1,-1,3,369989823,-1220636060,0,65535,65535,5,0,255,0,0,0,0,0,0,10,0,192,0,3,3
RC_CHANNELS_RAW,138512,0,172,992,934,950,992,1811,992,1811,255,138492149,-36,268,16683,-43,53,-10,58,-76,-295,0,0,-2,-3,1,1732,-1,-1,-1,-1,3,369989823,-1220636060,0,65535,65535,5,0,255,0,0,0,0,0,0,10,0,192,0,3,3
RAW_IMU,138512,0,172,992,934,950,992,1811,992,1811,255,138512143,-77,334,16680,-37,72,-25,58,-93,-298,0,80,-2,-3,1,1732,-1,-1,-1,-1,3,369989823,-1220636060,0,65535,65535,5,0,255,0,0,0,0,0,0,10,0,192,0,3,3
RC_CHANNELS_SCALED,138512,1,172,992,934,950,992,1811,992,1811,255,138512143,-77,334,16680,-37,72,-25,58,-93,-298,0,80,0,1,0,1733,-1,-1,-1,-1,3,369989823,-1220636060,0,65535,65535,5,0,255,0,0,0,0,0,0,10,0,192,0,3,3
GPS_RAW_INT,138512,1,172,992,934,950,992,1811,992,1811,255,138521009,-77,334,16680,-37,72,-25,58,-93,-298,0,80,0,1,0,1733,-1,-1,-1,-1,3,369989823,-1220636061,0,65535,65535,4,0,255,0,0,0,0,0,0,10,0,192,0,3,3
RC_CHANNELS_RAW,138532,0,172,992,934,950,992,1811,992,1811,255,138521009,-77,334,16680,-37,72,-25,58,-93,-298,0,80,0,1,0,1733,-1,-1,-1,-1,3,369989823,-1220636061,0,65535,65535,4,0,255,0,0,0,0,0,0,10,0,192,0,3,3
RAW_IMU,138532,0,172,992,934,950,992,1811,992,1811,255,138532142,-132,187,16670,-33,72,-11,57,-75,-306,0,32,0,1,0,1733,-1,-1,-1,-1,3,369989823,-1220636061,0,65535,65535,4,0,255,0,0,0,0,0,0,10,0,192,0,3,3
RC_CHANNELS_SCALED,138532,1,172,992,934,950,992,1811,992,1811,255,138532142,-132,187,16670,-33,72,-11,57,-75,-306,0,32,2,-3,0,1732,-1,-1,-1,-1,3,369989823,-1220636061,0,65535,65535,4,0,255,0,0,0,0,0,0,10,0,192,0,3,3
RC_CHANNELS_RAW,138552,0,172,992,934,950,992,1811,992,1811,255,138532142,-132,187,16670,-33,72,-11,57,-75,-306,0,32,2,-3,0,1732,-1,-1,-1,-1,3,369989823,-1220636061,0,65535,65535,4,0,255,0,0,0,0,0,0,10,0,192,0,3,3
RAW_IMU,138552,0,172,992,934,950,992,1811,992,1811,255,138552144,-149,240,16702,-37,73,-33,65,-87,-294,0,16,2,-3,0,1732,-1,-1,-1,-1,3,369989823,-1220636061,0,65535,65535,4,0,255,0,0,0,0,0,0,10,0,192,0,3,3
RC_CHANNELS_SCALED,138552,1,172,992,934,950,992,1811,992,1811,255,138552144,-149,240,16702,-37,73,-33,65,-87,-294,0,16,2,0,0,1732,-1,-1,-1,-1,3,369989823,-1220636061,0,65535,65535,4,0,255,0,0,0,0,0,0,10,0,192,0,3,3
RC_CHANNELS_RAW,138572,0,172,992,934,950,992,1811,992,1811,255,138552144,-149,240,16702,-37,73,-33,65,-87,-294,0,16,2,0,0,1732,-1,-1,-1,-1,3,369989823,-1220636061,0,65535,65535,4,0,255,0,0,0,0,0,0,10,0,192,0,3,3
RAW_IMU,138572,0,172,992,934,950,992,1811,992,1811,255,138572146,-65,252,16739,-34,82,-22,61,-90,-298,0,64,2,0,0,1732,-1,-1,-1,-1,3,369989823,-1220636061,0,65535,65535,4,0,255,0,0,0,0,0,0,10,0,192,0,3,3
RC_CHANNELS_SCALED,138572,1,172,992,934,950,992,1811,992,1811,255,138572146,-65,252,16739,-34,82,-22,61,-90,-298,0,64,-1,1,-1,1732,-1,-1,-1,-1,3,369989823,-1220636061,0,65535,65535,4,0,255,0,0,0,0,0,0,10,0,192,0,3,3
RC_CHANNELS_RAW,138592,0,172,992,934,950,992,1811,992,1811,255,138572146,-65,252,16739,-34,82,-22,61,-90,-298,0,64,-1,1,-1,1732,-1,-1,-1,-1,3,369989823,-1220636061,0,65535,65535,4,0,255,0,0,0,0,0,0,10,0,192,0,3,3
RAW_IMU,138592,0,172,992,934,950,992,1811,992,1811,255,138592148,-99,265,16670,-27,82,-27,73,-84,-294,0,32,-1,1,-1,1732,-1,-1,-1,-1,3,369989823,-1220636061,0,65535,65535,4,0,255,0,0,0,0,0,0,10,0,192,0,3,3
RC_CHANNELS_SCALED,138592,1,172,992,934,950,992,1811,992,1811,255,138592148,-99,265,16670,-27,82,-27,73,-84,-294,0,32,0,1,0,1731,-1,-1,-1,-1,3,369989823,-1220636061,0,65535,65535,4,0,255,0,0,0,0,0,0,10,0,192,0,3,3
RC_CHANNELS_RAW,138612,0,172,992,934,950,992,1811,992,1811,255,138592148,-99,265,16670,-27,82,-27,73,-84,-294,0,32,0,1,0,1731,-1,-1,-1,-1,3,369989823,-1220636061,0,65535,65535,4,0,255,0,0,0,0,0,0,10,0,192,0,3,3
RAW_IMU,138612,0,172,992,934,950,992,1811,992,1811,255,138612143,-87,218,16730,-34,75,-22,63,-81,-290,0,80,0,1,0,1731,-1,-1,-1,-1,3,369989823,-1220636061,0,65535,65535,4,0,255,0,0,0,0,0,0,10,0,192,0,3,3
RC_CHANNELS_SCALED,138612,1,172,992,934,950,992,1811,992,1811,255,138612143,-87,218,16730,-34,75,-22,63,-81,-290,0,80,3,-1,0,1731,-1,-1,-1,-1,3,369989823,-1220636061,0,65535,65535,4,0,255,0,0,0,0,0,0,10,0,192,0,3,3
GPS_RAW_INT,138612,1,172,992,934,950,992,1811,992,1811,255,138622009,-87,218,16730,-34,75,-22,63,-81,-290,0,80,3,-1,0,1731,-1,-1,-1,-1,3,369989824,-1220636063,0,65535,65535,4,0,255,0,0,0,0,0,0,10,0,192,0,3,3
RC_CHANNELS_RAW,138632,0,172,992,934,950,992,1811,992,1811,255,138622009,-87,218,16730,-34,75,-22,63,-81,-290,0,80,3,-1,0,1731,-1,-1,-1,-1,3,369989824,-1220636063,0,65535,65535,4,0,255,0,0,0,0,0,0,10,0,192,0,3,3
RAW_IMU,138632,0,172,992,934,950,992,1811,992,1811,255,138632143,-90,246,16653,-37,84,-17,63,-85,-298,0,16,3,-1,0,1731,-1,-1,-1,-1,3,369989824,-1220636063,0,65535,65535,4,0,255,0,0,0,0,0,0,10,0,192,0,3,3
RC_CHANNELS_SCALED,138632,1,172,992,934,950,992,1811,992,1811,255,138632143,-90,246,16653,-37,84,-17,63,-85,-298,0,16,1,1,0,1730,-1,-1,-1,-1,3,369989824,-1220636063,0,65535,65535,4,0,255,0,0,0,0,0,0,10,0,192,0,3,3
RC_CHANNELS_RAW,138652,0,172,992,934,950,992,1811,992,1811,255,138632143,-90,246,16653,-37,84,-17,63,-85,-298,0,16,1,1,0,1730,-1,-1,-1,-1,3,369989824,-1220636063,0,65535,65535,4,0,255,0,0,0,0,0,0,10,0,192,0,3,3
RAW_IMU,138652,0,172,992,934,950,992,1811,992,1811,255,138652140,-130,219,16654,-23,83,-2,62,-77,-294,0,96,1,1,0,1730,-1,-1,-1,-1,3,369989824,-1220636063,0,65535,65535,4,0,255,0,0,0,0,0,0,10,0,192,0,3,3
RC_CHANNELS_SCALED,138652,1,172,992,934,950,992,1811,992,1811,255,138652140,-130,219,16654,-23,83,-2,62,-77,-294,0,96,-1,-1,-1,1733,-1,-1,-1,-1,3,369989824,-1220636063,0,65535,65535,4,0,255,0,0,0,0,0,0,10,0,192,0,3,3
RC_CHANNELS_RAW,138672,0,172,992,934,950,992,1811,992,1811,255,138652140,-130,219,16654,-23,83,-2,62,-77,-294,0,96,-1,-1,-1,1733,-1,-1,-1,-1,3,369989824,-1220636063,0,65535,65535,4,0,255,0,0,0,0,0,0,10,0,192,0,3,3
RAW_IMU,138672,0,172,992,934,950,992,1811,992,1811,255,138672146,-156,222,16694,-24,75,-35,71,-85,-298,0,80,-1,-1,-1,1733,-1,-1,-1,-1,3,369989824,-1220636063,0,65535,65535,4,0,255,0,0,0,0,0,0,10,0,192,0,3,3
RC_CHANNELS_SCALED,138672,1,172,992,934,950,992,1811,992,1811,255,138672146,-156,222,16694,-24,75,-35,71,-85,-298,0,80,-2,-2,-2,1731,-1,-1,-1,-1,3,369989824,-1220636063,0,65535,65535,4,0,255,0,0,0,0,0,0,10,0,192,0,3,3
RC_CHANNELS_RAW,138692,0,172,992,934,950,992,1811,992,1811,255,138672146,-156,222,16694,-24,75,-35,71,-85,-298,0,80,-2,-2,-2,1731,-1,-1,-1,-1,3,369989824,-1220636063,0,65535,65535,4,0,255,0,0,0,0,0,0,10,0,192,0,3,3
RAW_IMU,138692,0,172,992,934,950,992,1811,992,1811,255,138692148,-123,274,16704,-30,71,-12,66,-85,-293,0,80,-2,-2,-2,1731,-1,-1,-1,-1,3,369989824,-1220636063,0,65535,65535,4,0,255,0,0,0,0,0,0,10,0,192,0,3,3
RC_CHANNELS_SCALED,138692,1,172,992,934,950,992,1811,992,1811,255,138692148,-123,274,16704,-30,71,-12,66,-85,-293,0,80,1,1,-2,1731,-1,-1,-1,-1,3,369989824,-1220636063,0,65535,65535,4,0,255,0,0,0,0,0,0,10,0,192,0,3,3
