mavpackettype,time_usec,fix_type,lat,lon,alt,eph,epv,vel,cog,satellites_visible,alt_ellipsoid,h_acc,v_acc,vel_acc,hdg_acc,yaw,time_boot_ms,port,chan1_raw,chan2_raw,chan3_raw,chan4_raw,chan5_raw,chan6_raw,chan7_raw,chan8_raw,rssi,xacc,yacc,zacc,xgyro,ygyro,zgyro,xmag,ymag,zmag,id,temperature,chan1_scaled,chan2_scaled,chan3_scaled,chan4_scaled,chan5_scaled,chan6_scaled,chan7_scaled,chan8_scaled,type,autopilot,base_mode,custom_mode,system_status,mavlink_version
RC_CHANNELS_SCALED,69711150,3,369931861,-1220604698,0,65535,65535,38,8261,255,0,0,0,0,0,0,69711,1,172,992,1089,951,172,172,172,1811,255,-5010,11617,17897,-538,-252,-70,88,-155,-333,0,1152,725,717,-4,1615,-1,-1,-1,-1,10,0,192,0,3,3
RC_CHANNELS_RAW,69711150,3,369931861,-1220604698,0,65535,65535,38,8261,255,0,0,0,0,0,0,69731,0,172,992,1090,951,172,172,172,1811,255,-5010,11617,17897,-538,-252,-70,88,-155,-333,0,1152,725,717,-4,1615,-1,-1,-1,-1,10,0,192,0,3,3
RAW_IMU,69731148,3,369931861,-1220604698,0,65535,65535,38,8261,255,0,0,0,0,0,0,69731,0,172,992,1090,951,172,172,172,1811,255,-1039,-1956,16212,337,-75,-223,101,-171,-331,0,1120,725,717,-4,1615,-1,-1,-1,-1,10,0,192,0,3,3
RC_CHANNELS_SCALED,69731148,3,369931861,-1220604698,0,65535,65535,38,8261,255,0,0,0,0,0,0,69731,1,172,992,1090,951,172,172,172,1811,255,-1039,-1956,16212,337,-75,-223,101,-171,-331,0,1120,603,630,-4,1612,-1,-1,-1,-1,10,0,192,0,3,3
GPS_RAW_INT,69739006,3,369931866,-1220604675,0,65535,65535,72,7966,255,0,0,0,0,0,0,69731,1,172,992,1090,951,172,172,172,1811,255,-1039,-1956,16212,337,-75,-223,101,-171,-331,0,1120,603,630,-4,1612,-1,-1,-1,-1,10,0,192,0,3,3
RC_CHANNELS_RAW,69739006,3,369931866,-1220604675,0,65535,65535,72,7966,255,0,0,0,0,0,0,69751,0,172,992,1091,55,1136,1045,1045,789,255,-1039,-1956,16212,337,-75,-223,101,-171,-331,0,1120,603,630,-4,1612,-1,-1,-1,-1,10,0,192,0,3,3
RAW_IMU,69751141,3,369931866,-1220604675,0,65535,65535,72,7966,255,0,0,0,0,0,0,69751,0,172,992,1091,55,1136,1045,1045,789,255,-4268,3742,20481,195,560,-232,88,-164,-355,0,1152,603,630,-4,1612,-1,-1,-1,-1,10,0,192,0,3,3
RC_CHANNELS_SCALED,69751141,3,369931866,-1220604675,0,65535,65535,72,7966,255,0,0,0,0,0,0,69751,1,172,992,1091,55,1136,1045,1045,789,255,-4268,3742,20481,195,560,-232,88,-164,-355,0,1152,588,596,-1,1612,-1,-1,-1,-1,10,0,192,0,3,3
RC_CHANNELS_RAW,69751141,3,369931866,-1220604675,0,65535,65535,72,7966,255,0,0,0,0,0,0,69771,0,172,992,1091,951,172,172,172,1811,255,-4268,3742,20481,195,560,-232,88,-164,-355,0,1152,588,596,-1,1612,-1,-1,-1,-1,10,0,192,0,3,3
RAW_IMU,69771142,3,369931866,-1220604675,0,65535,65535,72,7966,255,0,0,0,0,0,0,69771,0,172,992,1091,951,172,172,172,1811,255,1012,3860,19427,294,-153,-389,91,-159,-328,0,1248,588,596,-1,1612,-1,-1,-1,-1,10,0,192,0,3,3
RC_CHANNELS_SCALED,69771142,3,369931866,-1220604675,0,65535,65535,72,7966,255,0,0,0,0,0,0,69771,1,172,992,1091,951,172,172,172,1811,255,1012,3860,19427,294,-153,-389,91,-159,-328,0,1248,645,618,2,1613,-1,-1,-1,-1,10,0,192,0,3,3
RC_CHANNELS_RAW,69771142,3,369931866,-1220604675,0,65535,65535,72,7966,255,0,0,0,0,0,0,69791,0,172,992,1092,951,172,172,172,1811,255,1012,3860,19427,294,-153,-389,91,-159,-328,0,1248,645,618,2,1613,-1,-1,-1,-1,10,0,192,0,3,3
RAW_IMU,69791144,3,369931866,-1220604675,0,65535,65535,72,7966,255,0,0,0,0,0,0,69791,0,172,992,1092,951,172,172,172,1811,255,513,-3464,13173,163,209,-41,110,-165,-342,0,1232,645,618,2,1613,-1,-1,-1,-1,10,0,192,0,3,3
RC_CHANNELS_SCALED,69791144,3,369931866,-1220604675,0,65535,65535,72,7966,255,0,0,0,0,0,0,69791,1,172,992,1092,951,172,172,172,1811,255,513,-3464,13173,163,209,-41,110,-165,-342,0,1232,788,681,1,1614,-1,-1,-1,-1,10,0,192,0,3,3
RC_CHANNELS_RAW,69791144,3,369931866,-1220604675,0,65535,65535,72,7966,255,0,0,0,0,0,0,69811,0,172,989,1092,951,172,172,172,1811,255,513,-3464,13173,163,209,-41,110,-165,-342,0,1232,788,681,1,1614,-1,-1,-1,-1,10,0,192,0,3,3
RAW_IMU,69811145,3,369931866,-1220604675,0,65535,65535,72,7966,255,0,0,0,0,0,0,69811,0,172,989,1092,951,172,172,172,1811,255,3113,-848,16492,23,842,-164,84,-163,-344,0,1136,788,681,1,1614,-1,-1,-1,-1,10,0,192,0,3,3
RC_CHANNELS_SCALED,69811145,3,369931866,-1220604675,0,65535,65535,72,7966,255,0,0,0,0,0,0,69811,1,172,989,1092,951,172,172,172,1811,255,3113,-848,16492,23,842,-164,84,-163,-344,0,1136,967,895,-1,1613,-1,-1,-1,-1,10,0,192,0,3,3
RC_CHANNELS_RAW,69811145,3,369931866,-1220604675,0,65535,65535,72,7966,255,0,0,0,0,0,0,69831,0,172,992,1092,951,172,172,172,1811,255,3113,-848,16492,23,842,-164,84,-163,-344,0,1136,967,895,-1,1613,-1,-1,-1,-1,10,0,192,0,3,3
RAW_IMU,69831146,3,369931866,-1220604675,0,65535,65535,72,7966,255,0,0,0,0,0,0,69831,0,172,992,1092,951,172,172,172,1811,255,-2594,-7105,17736,-13,351,5,95,-158,-354,0,1152,967,895,-1,1613,-1,-1,-1,-1,10,0,192,0,3,3
RC_CHANNELS_SCALED,69831146,3,369931866,-1220604675,0,65535,65535,72,7966,255,0,0,0,0,0,0,69831,1,172,992,1092,951,172,172,172,1811,255,-2594,-7105,17736,-13,351,5,95,-158,-354,0,1152,797,904,3,1614,-1,-1,-1,-1,10,0,192,0,3,3
GPS_RAW_INT,69840007,3,369931865,-1220604668,0,65535,65535,70,8601,255,0,0,0,0,0,0,69831,1,172,992,1092,951,172,172,172,1811,255,-2594,-7105,17736,-13,351,5,95,-158,-354,0,1152,797,904,3,1614,-1,-1,-1,-1,10,0,192,0,3,3
RC_CHANNELS_RAW,69840007,3,369931865,-1220604668,0,65535,65535,70,8601,255,0,0,0,0,0,0,69851,0,172,989,1092,951,172,172,172,1811,255,-2594,-7105,17736,-13,351,5,95,-158,-354,0,1152,797,904,3,1614,-1,-1,-1,-1,10,0,192,0,3,3
RAW_IMU,69851145,3,369931865,-1220604668,0,65535,65535,70,8601,255,0,0,0,0,0,0,69851,0,172,989,1092,951,172,172,172,1811,255,-71,-13254,16936,-131,220,-130,96,-164,-345,0,1184,797,904,3,1614,-1,-1,-1,-1,10,0,192,0,3,3
RC_CHANNELS_SCALED,69851145,3,369931865,-1220604668,0,65535,65535,70,8601,255,0,0,0,0,0,0,69851,1,172,989,1092,951,172,172,172,1811,255,-71,-13254,16936,-131,220,-130,96,-164,-345,0,1184,670,709,-1,1613,-1,-1,-1,-1,10,0,192,0,3,3
RC_CHANNELS_RAW,69851145,3,369931865,-1220604668,0,65535,65535,70,8601,255,0,0,0,0,0,0,69871,0,172,992,1092,951,172,172,172,1811,255,-71,-13254,16936,-131,220,-130,96,-164,-345,0,1184,670,709,-1,1613,-1,-1,-1,-1,10,0,192,0,3,3
RAW_IMU,69871143,3,369931865,-1220604668,0,65535,65535,70,8601,255,0,0,0,0,0,0,69871,0,172,992,1092,951,172,172,172,1811,255,-5117,1016,13841,-133,606,12,88,-169,-340,0,1120,670,709,-1,1613,-1,-1,-1,-1,10,0,192,0,3,3
RC_CHANNELS_SCALED,69871143,3,369931865,-1220604668,0,65535,65535,70,8601,255,0,0,0,0,0,0,69871,1,172,992,1092,951,172,172,172,1811,255,-5117,1016,13841,-133,606,12,88,-169,-340,0,1120,680,712,1,1616,-1,-1,-1,-1,10,0,192,0,3,3
RC_CHANNELS_RAW,69871143,3,369931865,-1220604668,0,65535,65535,70,8601,255,0,0,0,0,0,0,69891,0,172,992,1093,951,172,172,172,1811,255,-5117,1016,13841,-133,606,12,88,-169,-340,0,1120,680,712,1,1616,-1,-1,-1,-1,10,0,192,0,3,3
RAW_IMU,69891144,3,369931865,-1220604668,0,65535,65535,70,8601,255,0,0,0,0,0,0,69891,0,172,992,1093,951,172,172,172,1811,255,4506,2968,19334,309,-635,-122,100,-178,-339,0,1200,680,712,1,1616,-1,-1,-1,-1,10,0,192,0,3,3
RC_CHANNELS_SCALED,69891144,3,369931865,-1220604668,0,65535,65535,70,8601,255,0,0,0,0,0,0,69891,1,172,992,1093,951,172,172,172,1811,255,4506,2968,19334,309,-635,-122,100,-178,-339,0,1200,838,825,-1,1612,-1,-1,-1,-1,10,0,192,0,3,3
RC_CHANNELS_RAW,69891144,3,369931865,-1220604668,0,65535,65535,70,8601,255,0,0,0,0,0,0,69911,0,172,992,1093,951,172,172,172,1811,255,4506,2968,19334,309,-635,-122,100,-178,-339,0,1200,838,825,-1,1612,-1,-1,-1,-1,10,0,192,0,3,3
RAW_IMU,69911141,3,369931865,-1220604668,0,65535,65535,70,8601,255,0,0,0,0,0,0,69911,0,172,992,1093,951,172,172,172,1811,255,-347,4923,13332,-955,790,326,91,-164,-348,0,1088,838,825,-1,1612,-1,-1,-1,-1,10,0,192,0,3,3
RC_CHANNELS_SCALED,69911141,3,369931865,-1220604668,0,65535,65535,70,8601,255,0,0,0,0,0,0,69911,1,172,992,1093,951,172,172,172,1811,255,-347,4923,13332,-955,790,326,91,-164,-348,0,1088,994,969,3,1617,-1,-1,-1,-1,10,0,192,0,3,3
RC_CHANNELS_RAW,69911141,3,369931865,-1220604668,0,65535,65535,70,8601,255,0,0,0,0,0,0,69931,0,172,992,1094,951,172,172,172,1811,255,-347,4923,13332,-955,790,326,91,-164,-348,0,1088,994,969,3,1617,-1,-1,-1,-1,10,0,192,0,3,3
RAW_IMU,69931150,3,369931865,-1220604668,0,65535,65535,70,8601,255,0,0,0,0,0,0,69931,0,172,992,1094,951,172,172,172,1811,255,-2837,-4497,23137,-164,-422,-243,90,-170,-337,0,1152,994,969,3,1617,-1,-1,-1,-1,10,0,192,0,3,3
RC_CHANNELS_SCALED,69931150,3,369931865,-1220604668,0,65535,65535,70,8601,255,0,0,0,0,0,0,69931,1,172,992,1094,951,172,172,172,1811,255,-2837,-4497,23137,-164,-422,-243,90,-170,-337,0,1152,802,785,0,1618,-1,-1,-1,-1,10,0,192,0,3,3
GPS_RAW_INT,69941009,3,369931861,-1220604658,0,65535,65535,81,9388,255,0,0,0,0,0,0,69931,1,172,992,1094,951,172,172,172,1811,255,-2837,-4497,23137,-164,-422,-243,90,-170,-337,0,1152,802,785,0,1618,-1,-1,-1,-1,10,0,192,0,3,3
RC_CHANNELS_RAW,69941009,3,369931861,-1220604658,0,65535,65535,81,9388,255,0,0,0,0,0,0,69951,0,172,992,1094,951,172,172,172,1811,255,-2837,-4497,23137,-164,-422,-243,90,-170,-337,0,1152,802,785,0,1618,-1,-1,-1,-1,10,0,192,0,3,3
RAW_IMU,69951144,3,369931861,-1220604658,0,65535,65535,81,9388,255,0,0,0,0,0,0,69951,0,172,992,1094,951,172,172,172,1811,255,3028,1914,12996,477,571,-46,100,-180,-334,0,1200,802,785,0,1618,-1,-1,-1,-1,10,0,192,0,3,3
RC_CHANNELS_SCALED,69951144,3,369931861,-1220604658,0,65535,65535,81,9388,255,0,0,0,0,0,0,69951,1,172,992,1094,951,172,172,172,1811,255,3028,1914,12996,477,571,-46,100,-180,-334,0,1200,691,697,-4,1612,-1,-1,-1,-1,10,0,192,0,3,3
RC_CHANNELS_RAW,69951144,3,369931861,-1220604658,0,65535,65535,81,9388,255,0,0,0,0,0,0,69971,0,172,992,1095,951,172,172,172,1811,255,3028,1914,12996,477,571,-46,100,-180,-334,0,1200,691,697,-4,1612,-1,-1,-1,-1,10,0,192,0,3,3
RAW_IMU,69971144,3,369931861,-1220604658,0,65535,65535,81,9388,255,0,0,0,0,0,0,69971,0,172,992,1095,951,172,172,172,1811,255,-4837,-4113,18673,-464,-46,265,99,-167,-340,0,1088,691,697,-4,1612,-1,-1,-1,-1,10,0,192,0,3,3
RC_CHANNELS_SCALED,69971144,3,369931861,-1220604658,0,65535,65535,81,9388,255,0,0,0,0,0,0,69971,1,172,992,1095,951,172,172,172,1811,255,-4837,-4113,18673,-464,-46,265,99,-167,-340,0,1088,656,669,2,1614,-1,-1,-1,-1,10,0,192,0,3,3
RC_CHANNELS_RAW,69971144,3,369931861,-1220604658,0,65535,65535,81,9388,255,0,0,0,0,0,0,69991,0,172,992,1095,951,172,172,172,1811,255,-4837,-4113,18673,-464,-46,265,99,-167,-340,0,1088,656,669,2,1614,-1,-1,-1,-1,10,0,192,0,3,3
RAW_IMU,69991144,3,369931861,-1220604658,0,65535,65535,81,9388,255,0,0,0,0,0,0,69991,0,172,992,1095,951,172,172,172,1811,255,-559,5874,12617,-113,105,-9,93,-162,-338,0,1200,656,669,2,1614,-1,-1,-1,-1,10,0,192,0,3,3
RC_CHANNELS_SCALED,69991144,3,369931861,-1220604658,0,65535,65535,81,9388,255,0,0,0,0,0,0,69991,1,172,992,1095,951,172,172,172,1811,255,-559,5874,12617,-113,105,-9,93,-162,-338,0,1200,789,689,-1,1613,-1,-1,-1,-1,10,0,192,0,3,3
HEARTBEAT,69991144,3,369931861,-1220604658,0,65535,65535,81,9388,255,0,0,0,0,0,0,69991,1,172,992,1095,951,172,172,172,1811,255,-559,5874,12617,-113,105,-9,93,-162,-338,0,1200,789,689,-1,1613,-1,-1,-1,-1,10,0,192,0,3,3
RC_CHANNELS_RAW,69991144,3,369931861,-1220604658,0,65535,65535,81,9388,255,0,0,0,0,0,0,70011,0,172,992,1095,951,172,172,172,1811,255,-559,5874,12617,-113,105,-9,93,-162,-338,0,1200,789,689,-1,1613,-1,-1,-1,-1,10,0,192,0,3,3
RAW_IMU,70011144,3,369931861,-1220604658,0,65535,65535,81,9388,255,0,0,0,0,0,0,70011,0,172,992,1095,951,172,172,172,1811,255,-2527,-2708,13628,130,-71,-121,105,-163,-344,0,1152,789,689,-1,1613,-1,-1,-1,-1,10,0,192,0,3,3
RC_CHANNELS_SCALED,70011144,3,369931861,-1220604658,0,65535,65535,81,9388,255,0,0,0,0,0,0,70011,1,172,992,1095,951,172,172,172,1811,255,-2527,-2708,13628,130,-71,-121,105,-163,-344,0,1152,982,877,0,1614,-1,-1,-1,-1,10,0,192,0,3,3
RC_CHANNELS_RAW,70011144,3,369931861,-1220604658,0,65535,65535,81,9388,255,0,0,0,0,0,0,70031,0,172,992,1096,951,172,172,172,1811,255,-2527,-2708,13628,130,-71,-121,105,-163,-344,0,1152,982,877,0,1614,-1,-1,-1,-1,10,0,192,0,3,3
RAW_IMU,70031146,3,369931861,-1220604658,0,65535,65535,81,9388,255,0,0,0,0,0,0,70031,0,172,992,1096,951,172,172,172,1811,255,-1313,-3813,15954,685,677,-241,87,-156,-327,0,1152,982,877,0,1614,-1,-1,-1,-1,10,0,192,0,3,3
RC_CHANNELS_SCALED,70031146,3,369931861,-1220604658,0,65535,65535,81,9388,255,0,0,0,0,0,0,70031,1,172,992,1096,951,172,172,172,1811,255,-1313,-3813,15954,685,677,-241,87,-156,-327,0,1152,909,972,-3,1611,-1,-1,-1,-1,10,0,192,0,3,3
GPS_RAW_INT,70042010,3,369931863,-1220604646,0,65535,65535,87,9270,255,0,0,0,0,0,0,70031,1,172,992,1096,951,172,172,172,1811,255,-1313,-3813,15954,685,677,-241,87,-156,-327,0,1152,909,972,-3,1611,-1,-1,-1,-1,10,0,192,0,3,3
RC_CHANNELS_RAW,70042010,3,369931863,-1220604646,0,65535,65535,87,9270,255,0,0,0,0,0,0,70051,0,172,989,1097,951,172,172,172,1811,255,-1313,-3813,15954,685,677,-241,87,-156,-327,0,1152,909,972,-3,1611,-1,-1,-1,-1,10,0,192,0,3,3
RAW_IMU,70051141,3,369931863,-1220604646,0,65535,65535,87,9270,255,0,0,0,0,0,0,70051,0,172,989,1097,951,172,172,172,1811,255,6254,-7557,18467,478,-796,-34,91,-164,-336,0,1072,909,972,-3,1611,-1,-1,-1,-1,10,0,192,0,3,3
RC_CHANNELS_SCALED,70051141,3,369931863,-1220604646,0,65535,65535,87,9270,255,0,0,0,0,0,0,70051,1,172,989,1097,951,172,172,172,1811,255,6254,-7557,18467,478,-796,-34,91,-164,-336,0,1072,711,796,-1,1610,-1,-1,-1,-1,10,0,192,0,3,3
RC_CHANNELS_RAW,70051141,3,369931863,-1220604646,0,65535,65535,87,9270,255,0,0,0,0,0,0,70071,0,172,989,1097,951,172,172,172,1811,255,6254,-7557,18467,478,-796,-34,91,-164,-336,0,1072,711,796,-1,1610,-1,-1,-1,-1,10,0,192,0,3,3
RAW_IMU,70071143,3,369931863,-1220604646,0,65535,65535,87,9270,255,0,0,0,0,0,0,70071,0,172,989,1097,951,172,172,172,1811,255,4369,3611,16593,31,880,-119,92,-165,-337,0,1136,711,796,-1,1610,-1,-1,-1,-1,10,0,192,0,3,3
RC_CHANNELS_SCALED,70071143,3,369931863,-1220604646,0,65535,65535,87,9270,255,0,0,0,0,0,0,70071,1,172,989,1097,951,172,172,172,1811,255,4369,3611,16593,31,880,-119,92,-165,-337,0,1136,705,733,3,1607,-1,-1,-1,-1,10,0,192,0,3,3
RC_CHANNELS_RAW,70071143,3,369931863,-1220604646,0,65535,65535,87,9270,255,0,0,0,0,0,0,70091,0,172,989,1098,951,172,172,172,1811,255,4369,3611,16593,31,880,-119,92,-165,-337,0,1136,705,733,3,1607,-1,-1,-1,-1,10,0,192,0,3,3
RAW_IMU,70091144,3,369931863,-1220604646,0,65535,65535,87,9270,255,0,0,0,0,0,0,70091,0,172,989,1098,951,172,172,172,1811,255,-5408,1371,19737,-315,-752,-122,93,-162,-348,0,1184,705,733,3,1607,-1,-1,-1,-1,10,0,192,0,3,3
RC_CHANNELS_SCALED,70091144,3,369931863,-1220604646,0,65535,65535,87,9270,255,0,0,0,0,0,0,70091,1,172,989,1098,951,172,172,172,1811,255,-5408,1371,19737,-315,-752,-122,93,-162,-348,0,1184,849,813,0,1615,-1,-1,-1,-1,10,0,192,0,3,3
RC_CHANNELS_RAW,70091144,3,369931863,-1220604646,0,65535,65535,87,9270,255,0,0,0,0,0,0,70111,0,172,989,1098,951,172,172,172,1811,255,-5408,1371,19737,-315,-752,-122,93,-162,-348,0,1184,849,813,0,1615,-1,-1,-1,-1,10,0,192,0,3,3
RAW_IMU,70111142,3,369931863,-1220604646,0,65535,65535,87,9270,255,0,0,0,0,0,0,70111,0,172,989,1098,951,172,172,172,1811,255,4045,-4467,17514,-397,-360,-46,91,-164,-336,0,1200,849,813,0,1615,-1,-1,-1,-1,10,0,192,0,3,3
RC_CHANNELS_SCALED,70111142,3,369931863,-1220604646,0,65535,65535,87,9270,255,0,0,0,0,0,0,70111,1,172,989,1098,951,172,172,172,1811,255,4045,-4467,17514,-397,-360,-46,91,-164,-336,0,1200,1046,976,0,1613,-1,-1,-1,-1,10,0,192,0,3,3
RC_CHANNELS_RAW,70111142,3,369931863,-1220604646,0,65535,65535,87,9270,255,0,0,0,0,0,0,70131,0,172,989,1100,951,172,172,172,1811,255,4045,-4467,17514,-397,-360,-46,91,-164,-336,0,1200,1046,976,0,1613,-1,-1,-1,-1,10,0,192,0,3,3
RAW_IMU,70131149,3,369931863,-1220604646,0,65535,65535,87,9270,255,0,0,0,0,0,0,70131,0,172,989,1100,951,172,172,172,1811,255,6,5095,18547,-458,-437,-48,92,-168,-344,0,1152,1046,976,0,1613,-1,-1,-1,-1,10,0,192,0,3,3
RC_CHANNELS_SCALED,70131149,3,369931863,-1220604646,0,65535,65535,87,9270,255,0,0,0,0,0,0,70131,1,172,989,1100,951,172,172,172,1811,255,6,5095,18547,-458,-437,-48,92,-168,-344,0,1152,851,890,0,1613,-1,-1,-1,-1,10,0,192,0,3,3
GPS_RAW_INT,70143008,3,369931861,-1220604636,0,65535,65535,86,9408,255,0,0,0,0,0,0,70131,1,172,989,1100,951,172,172,172,1811,255,6,5095,18547,-458,-437,-48,92,-168,-344,0,1152,851,890,0,1613,-1,-1,-1,-1,10,0,192,0,3,3
RC_CHANNELS_RAW,70143008,3,369931861,-1220604636,0,65535,65535,86,9408,255,0,0,0,0,0,0,70151,0,172,989,1100,951,172,172,172,1811,255,6,5095,18547,-458,-437,-48,92,-168,-344,0,1152,851,890,0,1613,-1,-1,-1,-1,10,0,192,0,3,3
RAW_IMU,70151143,3,369931861,-1220604636,0,65535,65535,86,9408,255,0,0,0,0,0,0,70151,0,172,989,1100,951,172,172,172,1811,255,788,2318,15262,340,125,0,100,-170,-349,0,1264,851,890,0,1613,-1,-1,-1,-1,10,0,192,0,3,3
RC_CHANNELS_SCALED,70151143,3,369931861,-1220604636,0,65535,65535,86,9408,255,0,0,0,0,0,0,70151,1,172,989,1100,951,172,172,172,1811,255,788,2318,15262,340,125,0,100,-170,-349,0,1264,713,727,-1,1613,-1,-1,-1,-1,10,0,192,0,3,3
RC_CHANNELS_RAW,70151143,3,369931861,-1220604636,0,65535,65535,86,9408,255,0,0,0,0,0,0,70171,0,172,989,1100,951,172,172,172,1811,255,788,2318,15262,340,125,0,100,-170,-349,0,1264,713,727,-1,1613,-1,-1,-1,-1,10,0,192,0,3,3
RAW_IMU,70171144,3,369931861,-1220604636,0,65535,65535,86,9408,255,0,0,0,0,0,0,70171,0,172,989,1100,951,172,172,172,1811,255,1509,-4314,16637,93,303,68,91,-164,-336,0,1152,713,727,-1,1613,-1,-1,-1,-1,10,0,192,0,3,3
RC_CHANNELS_SCALED,70171144,3,369931861,-1220604636,0,65535,65535,86,9408,255,0,0,0,0,0,0,70171,1,172,989,1100,951,172,172,172,1811,255,1509,-4314,16637,93,303,68,91,-164,-336,0,1152,695,714,-1,1613,-1,-1,-1,-1,10,0,192,0,3,3
RC_CHANNELS_RAW,70171144,3,369931861,-1220604636,0,65535,65535,86,9408,255,0,0,0,0,0,0,70191,0,172,989,1100,951,172,172,172,1811,255,1509,-4314,16637,93,303,68,91,-164,-336,0,1152,695,714,-1,1613,-1,-1,-1,-1,10,0,192,0,3,3
RAW_IMU,70191145,3,369931861,-1220604636,0,65535,65535,86,9408,255,0,0,0,0,0,0,70191,0,172,989,1100,951,172,172,172,1811,255,6583,-4743,13064,253,-405,-262,95,-173,-337,0,1056,695,714,-1,1613,-1,-1,-1,-1,10,0,192,0,3,3
RC_CHANNELS_SCALED,70191145,3,369931861,-1220604636,0,65535,65535,86,9408,255,0,0,0,0,0,0,70191,1,172,989,1100,951,172,172,172,1811,255,6583,-4743,13064,253,-405,-262,95,-173,-337,0,1056,832,728,4,1612,-1,-1,-1,-1,10,0,192,0,3,3
RC_CHANNELS_RAW,70191145,3,369931861,-1220604636,0,65535,65535,86,9408,255,0,0,0,0,0,0,70211,0,172,989,1100,951,172,172,172,1811,255,6583,-4743,13064,253,-405,-262,95,-173,-337,0,1056,832,728,4,1612,-1,-1,-1,-1,10,0,192,0,3,3
RAW_IMU,70211144,3,369931861,-1220604636,0,65535,65535,86,9408,255,0,0,0,0,0,0,70211,0,172,989,1100,951,172,172,172,1811,255,-3142,-7560,13838,121,323,-221,88,-162,-333,0,1152,832,728,4,1612,-1,-1,-1,-1,10,0,192,0,3,3
RC_CHANNELS_SCALED,70211144,3,369931861,-1220604636,0,65535,65535,86,9408,255,0,0,0,0,0,0,70211,1,172,989,1100,951,172,172,172,1811,255,-3142,-7560,13838,121,323,-221,88,-162,-333,0,1152,1062,932,0,1612,-1,-1,-1,-1,10,0,192,0,3,3
RC_CHANNELS_RAW,70211144,3,369931861,-1220604636,0,65535,65535,86,9408,255,0,0,0,0,0,0,70231,0,172,989,1100,951,172,172,172,1811,255,-3142,-7560,13838,121,323,-221,88,-162,-333,0,1152,1062,932,0,1612,-1,-1,-1,-1,10,0,192,0,3,3
RAW_IMU,70231145,3,369931861,-1220604636,0,65535,65535,86,9408,255,0,0,0,0,0,0,70231,0,172,989,1100,951,172,172,172,1811,255,-2835,5540,20407,-12,181,134,92,-163,-352,0,1152,1062,932,0,1612,-1,-1,-1,-1,10,0,192,0,3,3
RC_CHANNELS_SCALED,70231145,3,369931861,-1220604636,0,65535,65535,86,9408,255,0,0,0,0,0,0,70231,1,172,989,1100,951,172,172,172,1811,255,-2835,5540,20407,-12,181,134,92,-163,-352,0,1152,900,1024,-2,1608,-1,-1,-1,-1,10,0,192,0,3,3
GPS_RAW_INT,70244007,3,369931860,-1220604626,0,65535,65535,91,9656,255,0,0,0,0,0,0,70231,1,172,989,1100,951,172,172,172,1811,255,-2835,5540,20407,-12,181,134,92,-163,-352,0,1152,900,1024,-2,1608,-1,-1,-1,-1,10,0,192,0,3,3
RC_CHANNELS_RAW,70244007,3,369931860,-1220604626,0,65535,65535,91,9656,255,0,0,0,0,0,0,70251,0,172,989,1100,951,172,172,172,1811,255,-2835,5540,20407,-12,181,134,92,-163,-352,0,1152,900,1024,-2,1608,-1,-1,-1,-1,10,0,192,0,3,3
RAW_IMU,70251143,3,369931860,-1220604626,0,65535,65535,91,9656,255,0,0,0,0,0,0,70251,0,172,989,1100,951,172,172,172,1811,255,9341,2262,12789,78,-201,161,97,-156,-352,0,1200,900,1024,-2,1608,-1,-1,-1,-1,10,0,192,0,3,3
RC_CHANNELS_SCALED,70251143,3,369931860,-1220604626,0,65535,65535,91,9656,255,0,0,0,0,0,0,70251,1,172,989,1100,951,172,172,172,1811,255,9341,2262,12789,78,-201,161,97,-156,-352,0,1200,740,810,1,1608,-1,-1,-1,-1,10,0,192,0,3,3
RC_CHANNELS_RAW,70251143,3,369931860,-1220604626,0,65535,65535,91,9656,255,0,0,0,0,0,0,70271,0,172,992,1100,951,172,172,172,1811,255,9341,2262,12789,78,-201,161,97,-156,-352,0,1200,740,810,1,1608,-1,-1,-1,-1,10,0,192,0,3,3
RAW_IMU,70271144,3,369931860,-1220604626,0,65535,65535,91,9656,255,0,0,0,0,0,0,70271,0,172,992,1100,951,172,172,172,1811,255,-6808,-4096,15288,139,1711,-80,96,-167,-355,0,1200,740,810,1,1608,-1,-1,-1,-1,10,0,192,0,3,3
RC_CHANNELS_SCALED,70271144,3,369931860,-1220604626,0,65535,65535,91,9656,255,0,0,0,0,0,0,70271,1,172,992,1100,951,172,172,172,1811,255,-6808,-4096,15288,139,1711,-80,96,-167,-355,0,1200,771,796,-1,1610,-1,-1,-1,-1,10,0,192,0,3,3
RC_CHANNELS_RAW,70271144,3,369931860,-1220604626,0,65535,65535,91,9656,255,0,0,0,0,0,0,70291,0,172,989,1100,951,172,172,172,1811,255,-6808,-4096,15288,139,1711,-80,96,-167,-355,0,1200,771,796,-1,1610,-1,-1,-1,-1,10,0,192,0,3,3
RAW_IMU,70291141,3,369931860,-1220604626,0,65535,65535,91,9656,255,0,0,0,0,0,0,70291,0,172,989,1100,951,172,172,172,1811,255,53,2367,14286,-793,-1082,251,88,-171,-331,0,1184,771,796,-1,1610,-1,-1,-1,-1,10,0,192,0,3,3
RC_CHANNELS_SCALED,70291141,3,369931860,-1220604626,0,65535,65535,91,9656,255,0,0,0,0,0,0,70291,1,172,989,1100,951,172,172,172,1811,255,53,2367,14286,-793,-1082,251,88,-171,-331,0,1184,954,894,-3,1608,-1,-1,-1,-1,10,0,192,0,3,3
RC_CHANNELS_RAW,70291141,3,369931860,-1220604626,0,65535,65535,91,9656,255,0,0,0,0,0,0,70311,0,172,992,1100,951,172,172,172,1811,255,53,2367,14286,-793,-1082,251,88,-171,-331,0,1184,954,894,-3,1608,-1,-1,-1,-1,10,0,192,0,3,3
RAW_IMU,70311145,3,369931860,-1220604626,0,65535,65535,91,9656,255,0,0,0,0,0,0,70311,0,172,992,1100,951,172,172,172,1811,255,-1291,6507,15735,-340,948,193,92,-168,-339,0,1120,954,894,-3,1608,-1,-1,-1,-1,10,0,192,0,3,3
RC_CHANNELS_SCALED,70311145,3,369931860,-1220604626,0,65535,65535,91,9656,255,0,0,0,0,0,0,70311,1,172,992,1100,951,172,172,172,1811,255,-1291,6507,15735,-340,948,193,92,-168,-339,0,1120,1028,1058,0,1612,-1,-1,-1,-1,10,0,192,0,3,3
RC_CHANNELS_RAW,70311145,3,369931860,-1220604626,0,65535,65535,91,9656,255,0,0,0,0,0,0,70331,0,172,989,1100,951,172,172,172,1811,255,-1291,6507,15735,-340,948,193,92,-168,-339,0,1120,1028,1058,0,1612,-1,-1,-1,-1,10,0,192,0,3,3
RAW_IMU,70331148,3,369931860,-1220604626,0,65535,65535,91,9656,255,0,0,0,0,0,0,70331,0,172,989,1100,951,172,172,172,1811,255,2853,-11529,16540,-165,-776,-354,76,-158,-342,0,1136,1028,1058,0,1612,-1,-1,-1,-1,10,0,192,0,3,3
RC_CHANNELS_SCALED,70331148,3,369931860,-1220604626,0,65535,65535,91,9656,255,0,0,0,0,0,0,70331,1,172,989,1100,951,172,172,172,1811,255,2853,-11529,16540,-165,-776,-354,76,-158,-342,0,1136,819,820,-1,1612,-1,-1,-1,-1,10,0,192,0,3,3
GPS_RAW_INT,70345009,3,369931860,-1220604613,0,65535,65535,100,9680,255,0,0,0,0,0,0,70331,1,172,989,1100,951,172,172,172,1811,255,2853,-11529,16540,-165,-776,-354,76,-158,-342,0,1136,819,820,-1,1612,-1,-1,-1,-1,10,0,192,0,3,3
RC_CHANNELS_RAW,70345009,3,369931860,-1220604613,0,65535,65535,100,9680,255,0,0,0,0,0,0,70351,0,172,992,1101,951,172,172,172,1811,255,2853,-11529,16540,-165,-776,-354,76,-158,-342,0,1136,819,820,-1,1612,-1,-1,-1,-1,10,0,192,0,3,3
RAW_IMU,70351146,3,369931860,-1220604613,0,65535,65535,100,9680,255,0,0,0,0,0,0,70351,0,172,992,1101,951,172,172,172,1811,255,6460,1516,19510,156,794,-182,92,-175,-325,0,1232,819,820,-1,1612,-1,-1,-1,-1,10,0,192,0,3,3
RC_CHANNELS_SCALED,70351146,3,369931860,-1220604613,0,65535,65535,100,9680,255,0,0,0,0,0,0,70351,1,172,992,1101,951,172,172,172,1811,255,6460,1516,19510,156,794,-182,92,-175,-325,0,1232,719,734,0,1612,-1,-1,-1,-1,10,0,192,0,3,3
RC_CHANNELS_RAW,70351146,3,369931860,-1220604613,0,65535,65535,100,9680,255,0,0,0,0,0,0,70371,0,172,992,1101,951,172,172,172,1811,255,6460,1516,19510,156,794,-182,92,-175,-325,0,1232,719,734,0,1612,-1,-1,-1,-1,10,0,192,0,3,3
RAW_IMU,70371143,3,369931860,-1220604613,0,65535,65535,100,9680,255,0,0,0,0,0,0,70371,0,172,992,1101,951,172,172,172,1811,255,-1536,-5608,16637,-329,-199,-11,92,-170,-344,0,1136,719,734,0,1612,-1,-1,-1,-1,10,0,192,0,3,3
RC_CHANNELS_SCALED,70371143,3,369931860,-1220604613,0,65535,65535,100,9680,255,0,0,0,0,0,0,70371,1,172,992,1101,951,172,172,172,1811,255,-1536,-5608,16637,-329,-199,-11,92,-170,-344,0,1136,777,721,0,1611,-1,-1,-1,-1,10,0,192,0,3,3
RC_CHANNELS_RAW,70371143,3,369931860,-1220604613,0,65535,65535,100,9680,255,0,0,0,0,0,0,70391,0,172,992,1101,951,172,172,172,1811,255,-1536,-5608,16637,-329,-199,-11,92,-170,-344,0,1136,777,721,0,1611,-1,-1,-1,-1,10,0,192,0,3,3
RAW_IMU,70391141,3,369931860,-1220604613,0,65535,65535,100,9680,255,0,0,0,0,0,0,70391,0,172,992,1101,951,172,172,172,1811,255,4338,1916,18955,-191,425,-40,105,-151,-359,0,1136,777,721,0,1611,-1,-1,-1,-1,10,0,192,0,3,3
RC_CHANNELS_SCALED,70391141,3,369931860,-1220604613,0,65535,65535,100,9680,255,0,0,0,0,0,0,70391,1,172,992,1101,951,172,172,172,1811,255,4338,1916,18955,-191,425,-40,105,-151,-359,0,1136,981,790,-1,1612,-1,-1,-1,-1,10,0,192,0,3,3
RC_CHANNELS_RAW,70391141,3,369931860,-1220604613,0,65535,65535,100,9680,255,0,0,0,0,0,0,70411,0,172,992,1101,951,172,172,172,1811,255,4338,1916,18955,-191,425,-40,105,-151,-359,0,1136,981,790,-1,1612,-1,-1,-1,-1,10,0,192,0,3,3
RAW_IMU,70411142,3,369931860,-1220604613,0,65535,65535,100,9680,255,0,0,0,0,0,0,70411,0,172,992,1101,951,172,172,172,1811,255,2791,-3253,15495,330,446,-249,101,-162,-348,0,1232,981,790,-1,1612,-1,-1,-1,-1,10,0,192,0,3,3
RC_CHANNELS_SCALED,70411142,3,369931860,-1220604613,0,65535,65535,100,9680,255,0,0,0,0,0,0,70411,1,172,992,1101,951,172,172,172,1811,255,2791,-3253,15495,330,446,-249,101,-162,-348,0,1232,1026,1044,-3,1610,-1,-1,-1,-1,10,0,192,0,3,3
RC_CHANNELS_RAW,70411142,3,369931860,-1220604613,0,65535,65535,100,9680,255,0,0,0,0,0,0,70431,0,172,992,1101,951,172,172,172,1811,255,2791,-3253,15495,330,446,-249,101,-162,-348,0,1232,1026,1044,-3,1610,-1,-1,-1,-1,10,0,192,0,3,3
RAW_IMU,70431144,3,369931860,-1220604613,0,65535,65535,100,9680,255,0,0,0,0,0,0,70431,0,172,992,1101,951,172,172,172,1811,255,-11387,-7550,18580,-117,-277,338,96,-179,-350,0,1184,1026,1044,-3,1610,-1,-1,-1,-1,10,0,192,0,3,3
RC_CHANNELS_SCALED,70431144,3,369931860,-1220604613,0,65535,65535,100,9680,255,0,0,0,0,0,0,70431,1,172,992,1101,951,172,172,172,1811,255,-11387,-7550,18580,-117,-277,338,96,-179,-350,0,1184,782,955,0,1610,-1,-1,-1,-1,10,0,192,0,3,3
GPS_RAW_INT,70446008,3,369931860,-1220604596,0,65535,65535,111,9515,255,0,0,0,0,0,0,70431,1,172,992,1101,951,172,172,172,1811,255,-11387,-7550,18580,-117,-277,338,96,-179,-350,0,1184,782,955,0,1610,-1,-1,-1,-1,10,0,192,0,3,3
RC_CHANNELS_RAW,70446008,3,369931860,-1220604596,0,65535,65535,111,9515,255,0,0,0,0,0,0,70451,0,172,992,1101,951,172,172,172,1811,255,-11387,-7550,18580,-117,-277,338,96,-179,-350,0,1184,782,955,0,1610,-1,-1,-1,-1,10,0,192,0,3,3
RAW_IMU,70451146,3,369931860,-1220604596,0,65535,65535,111,9515,255,0,0,0,0,0,0,70451,0,172,992,1101,951,172,172,172,1811,255,6165,10419,11825,-242,641,96,99,-164,-350,0,1152,782,955,0,1610,-1,-1,-1,-1,10,0,192,0,3,3
RC_CHANNELS_SCALED,70451146,3,369931860,-1220604596,0,65535,65535,111,9515,255,0,0,0,0,0,0,70451,1,172,992,1101,951,172,172,172,1811,255,6165,10419,11825,-242,641,96,99,-164,-350,0,1152,735,771,-4,1608,-1,-1,-1,-1,10,0,192,0,3,3
RC_CHANNELS_RAW,70451146,3,369931860,-1220604596,0,65535,65535,111,9515,255,0,0,0,0,0,0,70471,0,172,992,1101,951,172,172,172,1811,255,6165,10419,11825,-242,641,96,99,-164,-350,0,1152,735,771,-4,1608,-1,-1,-1,-1,10,0,192,0,3,3
RAW_IMU,70471144,3,369931860,-1220604596,0,65535,65535,111,9515,255,0,0,0,0,0,0,70471,0,172,992,1101,951,172,172,172,1811,255,526,-1686,17033,-304,-567,-19,88,-169,-340,0,1136,735,771,-4,1608,-1,-1,-1,-1,10,0,192,0,3,3
RC_CHANNELS_SCALED,70471144,3,369931860,-1220604596,0,65535,65535,111,9515,255,0,0,0,0,0,0,70471,1,172,992,1101,951,172,172,172,1811,255,526,-1686,17033,-304,-567,-19,88,-169,-340,0,1136,888,821,-1,1611,-1,-1,-1,-1,10,0,192,0,3,3
RC_CHANNELS_RAW,70471144,3,369931860,-1220604596,0,65535,65535,111,9515,255,0,0,0,0,0,0,70491,0,172,992,1104,951,172,172,172,1811,255,526,-1686,17033,-304,-567,-19,88,-169,-340,0,1136,888,821,-1,1611,-1,-1,-1,-1,10,0,192,0,3,3
RAW_IMU,70491142,3,369931860,-1220604596,0,65535,65535,111,9515,255,0,0,0,0,0,0,70491,0,172,992,1104,951,172,172,172,1811,255,7701,7982,16923,-345,595,45,87,-165,-332,0,1232,888,821,-1,1611,-1,-1,-1,-1,10,0,192,0,3,3
RC_CHANNELS_SCALED,70491142,3,369931860,-1220604596,0,65535,65535,111,9515,255,0,0,0,0,0,0,70491,1,172,992,1104,951,172,172,172,1811,255,7701,7982,16923,-345,595,45,87,-165,-332,0,1232,1099,1023,3,1612,-1,-1,-1,-1,10,0,192,0,3,3
RC_CHANNELS_RAW,70491142,3,369931860,-1220604596,0,65535,65535,111,9515,255,0,0,0,0,0,0,70511,0,172,992,1104,951,172,172,172,1811,255,7701,7982,16923,-345,595,45,87,-165,-332,0,1232,1099,1023,3,1612,-1,-1,-1,-1,10,0,192,0,3,3
RAW_IMU,70511144,3,369931860,-1220604596,0,65535,65535,111,9515,255,0,0,0,0,0,0,70511,0,172,992,1104,951,172,172,172,1811,255,-8012,-2823,15975,-673,-401,-15,91,-167,-350,0,1120,1099,1023,3,1612,-1,-1,-1,-1,10,0,192,0,3,3
RC_CHANNELS_SCALED,70511144,3,369931860,-1220604596,0,65535,65535,111,9515,255,0,0,0,0,0,0,70511,1,172,992,1104,951,172,172,172,1811,255,-8012,-2823,15975,-673,-401,-15,91,-167,-350,0,1120,883,945,0,1611,-1,-1,-1,-1,10,0,192,0,3,3
RC_CHANNELS_RAW,70511144,3,369931860,-1220604596,0,65535,65535,111,9515,255,0,0,0,0,0,0,70531,0,172,992,1104,951,172,172,172,1811,255,-8012,-2823,15975,-673,-401,-15,91,-167,-350,0,1120,883,945,0,1611,-1,-1,-1,-1,10,0,192,0,3,3
RAW_IMU,70531146,3,369931860,-1220604596,0,65535,65535,111,9515,255,0,0,0,0,0,0,70531,0,172,992,1104,951,172,172,172,1811,255,3092,4383,17878,305,253,128,90,-173,-352,0,1200,883,945,0,1611,-1,-1,-1,-1,10,0,192,0,3,3
RC_CHANNELS_SCALED,70531146,3,369931860,-1220604596,0,65535,65535,111,9515,255,0,0,0,0,0,0,70531,1,172,992,1104,951,172,172,172,1811,255,3092,4383,17878,305,253,128,90,-173,-352,0,1200,748,767,1,1612,-1,-1,-1,-1,10,0,192,0,3,3
GPS_RAW_INT,70547005,3,369931861,-1220604585,0,65535,65535,111,9230,255,0,0,0,0,0,0,70531,1,172,992,1104,951,172,172,172,1811,255,3092,4383,17878,305,253,128,90,-173,-352,0,1200,748,767,1,1612,-1,-1,-1,-1,10,0,192,0,3,3
RC_CHANNELS_RAW,70547005,3,369931861,-1220604585,0,65535,65535,111,9230,255,0,0,0,0,0,0,70551,0,172,992,1104,951,172,172,172,1811,255,3092,4383,17878,305,253,128,90,-173,-352,0,1200,748,767,1,1612,-1,-1,-1,-1,10,0,192,0,3,3
RAW_IMU,70551143,3,369931861,-1220604585,0,65535,65535,111,9230,255,0,0,0,0,0,0,70551,0,172,992,1104,951,172,172,172,1811,255,1269,5896,16631,-227,292,-321,87,-161,-329,0,1184,748,767,1,1612,-1,-1,-1,-1,10,0,192,0,3,3
RC_CHANNELS_SCALED,70551143,3,369931861,-1220604585,0,65535,65535,111,9230,255,0,0,0,0,0,0,70551,1,172,992,1104,951,172,172,172,1811,255,1269,5896,16631,-227,292,-321,87,-161,-329,0,1184,727,731,-4,1609,-1,-1,-1,-1,10,0,192,0,3,3
RC_CHANNELS_RAW,70551143,3,369931861,-1220604585,0,65535,65535,111,9230,255,0,0,0,0,0,0,70571,0,172,992,1104,951,172,172,172,1811,255,1269,5896,16631,-227,292,-321,87,-161,-329,0,1184,727,731,-4,1609,-1,-1,-1,-1,10,0,192,0,3,3
RAW_IMU,70571145,3,369931861,-1220604585,0,65535,65535,111,9230,255,0,0,0,0,0,0,70571,0,172,992,1104,951,172,172,172,1811,255,2621,-1070,15764,90,23,54,99,-167,-343,0,1200,727,731,-4,1609,-1,-1,-1,-1,10,0,192,0,3,3
RC_CHANNELS_SCALED,70571145,3,369931861,-1220604585,0,65535,65535,111,9230,255,0,0,0,0,0,0,70571,1,172,992,1104,951,172,172,172,1811,255,2621,-1070,15764,90,23,54,99,-167,-343,0,1200,884,776,2,1613,-1,-1,-1,-1,10,0,192,0,3,3
RC_CHANNELS_RAW,70571145,3,369931861,-1220604585,0,65535,65535,111,9230,255,0,0,0,0,0,0,70591,0,172,989,1104,951,172,172,172,1811,255,2621,-1070,15764,90,23,54,99,-167,-343,0,1200,884,776,2,1613,-1,-1,-1,-1,10,0,192,0,3,3
RAW_IMU,70591146,3,369931861,-1220604585,0,65535,65535,111,9230,255,0,0,0,0,0,0,70591,0,172,989,1104,951,172,172,172,1811,255,1334,-8534,15462,111,46,-192,96,-164,-358,0,1120,884,776,2,1613,-1,-1,-1,-1,10,0,192,0,3,3
RC_CHANNELS_SCALED,70591146,3,369931861,-1220604585,0,65535,65535,111,9230,255,0,0,0,0,0,0,70591,1,172,989,1104,951,172,172,172,1811,255,1334,-8534,15462,111,46,-192,96,-164,-358,0,1120,1109,971,-2,1610,-1,-1,-1,-1,10,0,192,0,3,3
RC_CHANNELS_RAW,70591146,3,369931861,-1220604585,0,65535,65535,111,9230,255,0,0,0,0,0,0,70611,0,172,992,1104,951,172,172,172,1811,255,1334,-8534,15462,111,46,-192,96,-164,-358,0,1120,1109,971,-2,1610,-1,-1,-1,-1,10,0,192,0,3,3
RAW_IMU,70611147,3,369931861,-1220604585,0,65535,65535,111,9230,255,0,0,0,0,0,0,70611,0,172,992,1104,951,172,172,172,1811,255,-9675,6051,25113,46,653,-53,100,-165,-337,0,1200,1109,971,-2,1610,-1,-1,-1,-1,10,0,192,0,3,3
RC_CHANNELS_SCALED,70611147,3,369931861,-1220604585,0,65535,65535,111,9230,255,0,0,0,0,0,0,70611,1,172,992,1104,951,172,172,172,1811,255,-9675,6051,25113,46,653,-53,100,-165,-337,0,1200,879,1051,0,1610,-1,-1,-1,-1,10,0,192,0,3,3
RC_CHANNELS_RAW,70611147,3,369931861,-1220604585,0,65535,65535,111,9230,255,0,0,0,0,0,0,70631,0,172,992,1104,951,172,172,172,1811,255,-9675,6051,25113,46,653,-53,100,-165,-337,0,1200,879,1051,0,1610,-1,-1,-1,-1,10,0,192,0,3,3
RAW_IMU,70631143,3,369931861,-1220604585,0,65535,65535,111,9230,255,0,0,0,0,0,0,70631,0,172,992,1104,951,172,172,172,1811,255,7086,9825,14327,269,137,-83,95,-168,-337,0,1136,879,1051,0,1610,-1,-1,-1,-1,10,0,192,0,3,3
RC_CHANNELS_SCALED,70631143,3,369931861,-1220604585,0,65535,65535,111,9230,255,0,0,0,0,0,0,70631,1,172,992,1104,951,172,172,172,1811,255,7086,9825,14327,269,137,-83,95,-168,-337,0,1136,747,822,0,1608,-1,-1,-1,-1,10,0,192,0,3,3
GPS_RAW_INT,70648009,3,369931861,-1220604570,0,65535,65535,115,9048,255,0,0,0,0,0,0,70631,1,172,992,1104,951,172,172,172,1811,255,7086,9825,14327,269,137,-83,95,-168,-337,0,1136,747,822,0,1608,-1,-1,-1,-1,10,0,192,0,3,3
RC_CHANNELS_RAW,70648009,3,369931861,-1220604570,0,65535,65535,115,9048,255,0,0,0,0,0,0,70651,0,172,989,1104,951,172,172,172,1811,255,7086,9825,14327,269,137,-83,95,-168,-337,0,1136,747,822,0,1608,-1,-1,-1,-1,10,0,192,0,3,3
RAW_IMU,70651147,3,369931861,-1220604570,0,65535,65535,115,9048,255,0,0,0,0,0,0,70651,0,172,989,1104,951,172,172,172,1811,255,-8232,1222,21055,31,813,-145,110,-178,-337,0,1152,747,822,0,1608,-1,-1,-1,-1,10,0,192,0,3,3
RC_CHANNELS_SCALED,70651147,3,369931861,-1220604570,0,65535,65535,115,9048,255,0,0,0,0,0,0,70651,1,172,989,1104,951,172,172,172,1811,255,-8232,1222,21055,31,813,-145,110,-178,-337,0,1152,849,832,3,1613,-1,-1,-1,-1,10,0,192,0,3,3
RC_CHANNELS_RAW,70651147,3,369931861,-1220604570,0,65535,65535,115,9048,255,0,0,0,0,0,0,70671,0,172,989,1101,951,172,172,172,1811,255,-8232,1222,21055,31,813,-145,110,-178,-337,0,1152,849,832,3,1613,-1,-1,-1,-1,10,0,192,0,3,3
RAW_IMU,70671141,3,369931861,-1220604570,0,65535,65535,115,9048,255,0,0,0,0,0,0,70671,0,172,989,1101,951,172,172,172,1811,255,4081,-2356,13421,-217,-642,-49,93,-167,-350,0,1200,849,832,3,1613,-1,-1,-1,-1,10,0,192,0,3,3
RC_CHANNELS_SCALED,70671141,3,369931861,-1220604570,0,65535,65535,115,9048,255,0,0,0,0,0,0,70671,1,172,989,1101,951,172,172,172,1811,255,4081,-2356,13421,-217,-642,-49,93,-167,-350,0,1200,1068,960,-1,1611,-1,-1,-1,-1,10,0,192,0,3,3
RC_CHANNELS_RAW,70671141,3,369931861,-1220604570,0,65535,65535,115,9048,255,0,0,0,0,0,0,70691,0,172,992,1101,951,172,172,172,1811,255,4081,-2356,13421,-217,-642,-49,93,-167,-350,0,1200,1068,960,-1,1611,-1,-1,-1,-1,10,0,192,0,3,3
RAW_IMU,70691143,3,369931861,-1220604570,0,65535,65535,115,9048,255,0,0,0,0,0,0,70691,0,172,992,1101,951,172,172,172,1811,255,-3886,2579,19785,-96,675,79,78,-159,-340,0,1136,1068,960,-1,1611,-1,-1,-1,-1,10,0,192,0,3,3
RC_CHANNELS_SCALED,70691143,3,369931861,-1220604570,0,65535,65535,115,9048,255,0,0,0,0,0,0,70691,1,172,992,1101,951,172,172,172,1811,255,-3886,2579,19785,-96,675,79,78,-159,-340,0,1136,972,1065,0,1611,-1,-1,-1,-1,10,0,192,0,3,3
RC_CHANNELS_RAW,70691143,3,369931861,-1220604570,0,65535,65535,115,9048,255,0,0,0,0,0,0,70711,0,172,992,1100,951,172,172,172,1811,255,-3886,2579,19785,-96,675,79,78,-159,-340,0,1136,972,1065,0,1611,-1,-1,-1,-1,10,0,192,0,3,3
RAW_IMU,70711148,3,369931861,-1220604570,0,65535,65535,115,9048,255,0,0,0,0,0,0,70711,0,172,992,1100,951,172,172,172,1811,255,3579,-5730,12428,392,-192,-191,92,-168,-342,0,1184,972,1065,0,1611,-1,-1,-1,-1,10,0,192,0,3,3
RC_CHANNELS_SCALED,70711148,3,369931861,-1220604570,0,65535,65535,115,9048,255,0,0,0,0,0,0,70711,1,172,992,1100,951,172,172,172,1811,255,3579,-5730,12428,392,-192,-191,92,-168,-342,0,1184,759,812,2,1612,-1,-1,-1,-1,10,0,192,0,3,3
RC_CHANNELS_RAW,70711148,3,369931861,-1220604570,0,65535,65535,115,9048,255,0,0,0,0,0,0,70731,0,172,992,1098,969,172,172,172,1811,255,3579,-5730,12428,392,-192,-191,92,-168,-342,0,1184,759,812,2,1612,-1,-1,-1,-1,10,0,192,0,3,3
RAW_IMU,70731147,3,369931861,-1220604570,0,65535,65535,115,9048,255,0,0,0,0,0,0,70731,0,172,992,1098,969,172,172,172,1811,255,1616,4955,19379,160,693,-92,108,-173,-339,0,1152,759,812,2,1612,-1,-1,-1,-1,10,0,192,0,3,3
RC_CHANNELS_SCALED,70731147,3,369931861,-1220604570,0,65535,65535,115,9048,255,0,0,0,0,0,0,70731,1,172,992,1098,969,172,172,172,1811,255,1616,4955,19379,160,693,-92,108,-173,-339,0,1152,723,742,-4,1609,-1,-1,-1,-1,10,0,192,0,3,3
GPS_RAW_INT,70749009,3,369931861,-1220604556,0,65535,65535,116,9106,255,0,0,0,0,0,0,70731,1,172,992,1098,969,172,172,172,1811,255,1616,4955,19379,160,693,-92,108,-173,-339,0,1152,723,742,-4,1609,-1,-1,-1,-1,10,0,192,0,3,3
RC_CHANNELS_RAW,70749009,3,369931861,-1220604556,0,65535,65535,116,9106,255,0,0,0,0,0,0,70751,0,172,992,1098,982,172,172,172,1811,255,1616,4955,19379,160,693,-92,108,-173,-339,0,1152,723,742,-4,1609,-1,-1,-1,-1,10,0,192,0,3,3
RAW_IMU,70751149,3,369931861,-1220604556,0,65535,65535,116,9106,255,0,0,0,0,0,0,70751,0,172,992,1098,982,172,172,172,1811,255,-1794,-4521,17615,-519,-230,218,106,-157,-353,0,1184,723,742,-4,1609,-1,-1,-1,-1,10,0,192,0,3,3
RC_CHANNELS_SCALED,70751149,3,369931861,-1220604556,0,65535,65535,116,9106,255,0,0,0,0,0,0,70751,1,172,992,1098,982,172,172,172,1811,255,-1794,-4521,17615,-519,-230,218,106,-157,-353,0,1184,850,731,-4,1609,-1,-1,-1,-1,10,0,192,0,3,3
RC_CHANNELS_RAW,70751149,3,369931861,-1220604556,0,65535,65535,116,9106,255,0,0,0,0,0,0,70771,0,172,992,1097,1009,172,172,172,1811,255,-1794,-4521,17615,-519,-230,218,106,-157,-353,0,1184,850,731,-4,1609,-1,-1,-1,-1,10,0,192,0,3,3
RAW_IMU,70771144,3,369931861,-1220604556,0,65535,65535,116,9106,255,0,0,0,0,0,0,70771,0,172,992,1097,1009,172,172,172,1811,255,-674,1542,14966,440,778,-229,103,-161,-347,0,1264,850,731,-4,1609,-1,-1,-1,-1,10,0,192,0,3,3
RC_CHANNELS_SCALED,70771144,3,369931861,-1220604556,0,65535,65535,116,9106,255,0,0,0,0,0,0,70771,1,172,992,1097,1009,172,172,172,1811,255,-674,1542,14966,440,778,-229,103,-161,-347,0,1264,1076,868,1,1609,-1,-1,-1,-1,10,0,192,0,3,3
RC_CHANNELS_RAW,70771144,3,369931861,-1220604556,0,65535,65535,116,9106,255,0,0,0,0,0,0,70791,0,172,992,1097,1053,172,172,172,1811,255,-674,1542,14966,440,778,-229,103,-161,-347,0,1264,1076,868,1,1609,-1,-1,-1,-1,10,0,192,0,3,3
RAW_IMU,70791141,3,369931861,-1220604556,0,65535,65535,116,9106,255,0,0,0,0,0,0,70791,0,172,992,1097,1053,172,172,172,1811,255,-4667,-1009,17539,-278,-131,397,93,-162,-355,0,1152,1076,868,1,1609,-1,-1,-1,-1,10,0,192,0,3,3
RC_CHANNELS_SCALED,70791141,3,369931861,-1220604556,0,65535,65535,116,9106,255,0,0,0,0,0,0,70791,1,172,992,1097,1053,172,172,172,1811,255,-4667,-1009,17539,-278,-131,397,93,-162,-355,0,1152,928,1041,-1,1611,-1,-1,-1,-1,10,0,192,0,3,3
RC_CHANNELS_RAW,70791141,3,369931861,-1220604556,0,65535,65535,116,9106,255,0,0,0,0,0,0,70811,0,172,992,1095,1082,172,172,172,1811,255,-4667,-1009,17539,-278,-131,397,93,-162,-355,0,1152,928,1041,-1,1611,-1,-1,-1,-1,10,0,192,0,3,3
RAW_IMU,70811145,3,369931861,-1220604556,0,65535,65535,116,9106,255,0,0,0,0,0,0,70811,0,172,992,1095,1082,172,172,172,1811,255,2580,-7348,15457,429,-345,-214,90,-170,-332,0,1184,928,1041,-1,1611,-1,-1,-1,-1,10,0,192,0,3,3
RC_CHANNELS_SCALED,70811145,3,369931861,-1220604556,0,65535,65535,116,9106,255,0,0,0,0,0,0,70811,1,172,992,1095,1082,172,172,172,1811,255,2580,-7348,15457,429,-345,-214,90,-170,-332,0,1184,737,877,3,1610,-1,-1,-1,-1,10,0,192,0,3,3
RC_CHANNELS_RAW,70811145,3,369931861,-1220604556,0,65535,65535,116,9106,255,0,0,0,0,0,0,70831,0,172,992,1094,1097,172,172,172,1811,255,2580,-7348,15457,429,-345,-214,90,-170,-332,0,1184,737,877,3,1610,-1,-1,-1,-1,10,0,192,0,3,3
RAW_IMU,70831151,3,369931861,-1220604556,0,65535,65535,116,9106,255,0,0,0,0,0,0,70831,0,172,992,1094,1097,172,172,172,1811,255,-1153,1221,17698,-73,350,-49,104,-174,-358,0,1088,737,877,3,1610,-1,-1,-1,-1,10,0,192,0,3,3
RC_CHANNELS_SCALED,70831151,3,369931861,-1220604556,0,65535,65535,116,9106,255,0,0,0,0,0,0,70831,1,172,992,1094,1097,172,172,172,1811,255,-1153,1221,17698,-73,350,-49,104,-174,-358,0,1088,750,762,2,1612,-1,-1,-1,-1,10,0,192,0,3,3
GPS_RAW_INT,70850006,3,369931863,-1220604543,0,65535,65535,119,8901,255,0,0,0,0,0,0,70831,1,172,992,1094,1097,172,172,172,1811,255,-1153,1221,17698,-73,350,-49,104,-174,-358,0,1088,750,762,2,1612,-1,-1,-1,-1,10,0,192,0,3,3
RC_CHANNELS_RAW,70850006,3,369931863,-1220604543,0,65535,65535,119,8901,255,0,0,0,0,0,0,70851,0,172,992,1093,1113,172,172,172,1811,255,-1153,1221,17698,-73,350,-49,104,-174,-358,0,1088,750,762,2,1612,-1,-1,-1,-1,10,0,192,0,3,3
RAW_IMU,70851149,3,369931863,-1220604543,0,65535,65535,119,8901,255,0,0,0,0,0,0,70851,0,172,992,1093,1113,172,172,172,1811,255,4066,-8689,16317,-225,-468,45,92,-163,-332,0,1152,750,762,2,1612,-1,-1,-1,-1,10,0,192,0,3,3
RC_CHANNELS_SCALED,70851149,3,369931863,-1220604543,0,65535,65535,119,8901,255,0,0,0,0,0,0,70851,1,172,992,1093,1113,172,172,172,1811,255,4066,-8689,16317,-225,-468,45,92,-163,-332,0,1152,929,833,0,1612,-1,-1,-1,-1,10,0,192,0,3,3
RC_CHANNELS_RAW,70851149,3,369931863,-1220604543,0,65535,65535,119,8901,255,0,0,0,0,0,0,70871,0,172,992,1092,1131,172,172,172,1811,255,4066,-8689,16317,-225,-468,45,92,-163,-332,0,1152,929,833,0,1612,-1,-1,-1,-1,10,0,192,0,3,3
RAW_IMU,70871143,3,369931863,-1220604543,0,65535,65535,119,8901,255,0,0,0,0,0,0,70871,0,172,992,1092,1131,172,172,172,1811,255,6671,2865,21136,-31,-63,-85,84,-165,-325,0,1200,929,833,0,1612,-1,-1,-1,-1,10,0,192,0,3,3
RC_CHANNELS_SCALED,70871143,3,369931863,-1220604543,0,65535,65535,119,8901,255,0,0,0,0,0,0,70871,1,172,992,1092,1131,172,172,172,1811,255,6671,2865,21136,-31,-63,-85,84,-165,-325,0,1200,1015,1002,0,1614,-1,-1,-1,-1,10,0,192,0,3,3
RC_CHANNELS_RAW,70871143,3,369931863,-1220604543,0,65535,65535,119,8901,255,0,0,0,0,0,0,70891,0,172,992,1090,1165,172,172,172,1811,255,6671,2865,21136,-31,-63,-85,84,-165,-325,0,1200,1015,1002,0,1614,-1,-1,-1,-1,10,0,192,0,3,3
RAW_IMU,70891143,3,369931863,-1220604543,0,65535,65535,119,8901,255,0,0,0,0,0,0,70891,0,172,992,1090,1165,172,172,172,1811,255,-4560,-6026,17000,-337,-75,-104,104,-176,-331,0,1136,1015,1002,0,1614,-1,-1,-1,-1,10,0,192,0,3,3
RC_CHANNELS_SCALED,70891143,3,369931863,-1220604543,0,65535,65535,119,8901,255,0,0,0,0,0,0,70891,1,172,992,1090,1165,172,172,172,1811,255,-4560,-6026,17000,-337,-75,-104,104,-176,-331,0,1136,824,866,14,1648,-1,-1,-1,-1,10,0,192,0,3,3
RC_CHANNELS_RAW,70891143,3,369931863,-1220604543,0,65535,65535,119,8901,255,0,0,0,0,0,0,70911,0,172,992,1089,1180,172,172,172,1811,255,-4560,-6026,17000,-337,-75,-104,104,-176,-331,0,1136,824,866,14,1648,-1,-1,-1,-1,10,0,192,0,3,3
RAW_IMU,70911142,3,369931863,-1220604543,0,65535,65535,119,8901,255,0,0,0,0,0,0,70911,0,172,992,1089,1180,172,172,172,1811,255,3418,-4412,16321,477,4,-238,96,-157,-345,0,1152,824,866,14,1648,-1,-1,-1,-1,10,0,192,0,3,3
RC_CHANNELS_SCALED,70911142,3,369931863,-1220604543,0,65535,65535,119,8901,255,0,0,0,0,0,0,70911,1,172,992,1089,1180,172,172,172,1811,255,3418,-4412,16321,477,4,-238,96,-157,-345,0,1152,699,718,18,1678,-1,-1,-1,-1,10,0,192,0,3,3
RC_CHANNELS_RAW,70911142,3,369931863,-1220604543,0,65535,65535,119,8901,255,0,0,0,0,0,0,70931,0,172,992,1088,1196,172,172,172,1811,255,3418,-4412,16321,477,4,-238,96,-157,-345,0,1152,699,718,18,1678,-1,-1,-1,-1,10,0,192,0,3,3
RAW_IMU,70931143,3,369931863,-1220604543,0,65535,65535,119,8901,255,0,0,0,0,0,0,70931,0,172,992,1088,1196,172,172,172,1811,255,-3829,-416,17554,231,-71,-153,92,-161,-334,0,1088,699,718,18,1678,-1,-1,-1,-1,10,0,192,0,3,3
RC_CHANNELS_SCALED,70931143,3,369931863,-1220604543,0,65535,65535,119,8901,255,0,0,0,0,0,0,70931,1,172,992,1088,1196,172,172,172,1811,255,-3829,-416,17554,231,-71,-153,92,-161,-334,0,1088,699,688,16,1714,-1,-1,-1,-1,10,0,192,0,3,3
RC_CHANNELS_RAW,70931143,3,369931863,-1220604543,0,65535,65535,119,8901,255,0,0,0,0,0,0,70951,0,172,992,1088,1198,172,172,172,1811,255,-3829,-416,17554,231,-71,-153,92,-161,-334,0,1088,699,688,16,1714,-1,-1,-1,-1,10,0,192,0,3,3
RAW_IMU,70951144,3,369931863,-1220604543,0,65535,65535,119,8901,255,0,0,0,0,0,0,70951,0,172,992,1088,1198,172,172,172,1811,255,5748,-826,14056,-51,-634,-671,108,-163,-329,0,1184,699,688,16,1714,-1,-1,-1,-1,10,0,192,0,3,3
RC_CHANNELS_SCALED,70951144,3,369931863,-1220604543,0,65535,65535,119,8901,255,0,0,0,0,0,0,70951,1,172,992,1088,1198,172,172,172,1811,255,5748,-826,14056,-51,-634,-671,108,-163,-329,0,1184,856,707,21,1757,-1,-1,-1,-1,10,0,192,0,3,3
GPS_RAW_INT,70951431,3,369931865,-1220604526,0,65535,65535,126,8665,255,0,0,0,0,0,0,70951,1,172,992,1088,1198,172,172,172,1811,255,5748,-826,14056,-51,-634,-671,108,-163,-329,0,1184,856,707,21,1757,-1,-1,-1,-1,10,0,192,0,3,3
RC_CHANNELS_RAW,70951431,3,369931865,-1220604526,0,65535,65535,126,8665,255,0,0,0,0,0,0,70971,0,172,992,1085,1213,172,172,172,1811,255,5748,-826,14056,-51,-634,-671,108,-163,-329,0,1184,856,707,21,1757,-1,-1,-1,-1,10,0,192,0,3,3
RAW_IMU,70971144,3,369931865,-1220604526,0,65535,65535,126,8665,255,0,0,0,0,0,0,70971,0,172,992,1085,1213,172,172,172,1811,255,1149,431,18262,-80,662,-539,106,-159,-358,0,1120,856,707,21,1757,-1,-1,-1,-1,10,0,192,0,3,3
RC_CHANNELS_SCALED,70971144,3,369931865,-1220604526,0,65535,65535,126,8665,255,0,0,0,0,0,0,70971,1,172,992,1085,1213,172,172,172,1811,255,1149,431,18262,-80,662,-539,106,-159,-358,0,1120,1030,840,18,1796,-1,-1,-1,-1,10,0,192,0,3,3
RC_CHANNELS_RAW,70971144,3,369931865,-1220604526,0,65535,65535,126,8665,255,0,0,0,0,0,0,70991,0,172,992,1085,1227,172,172,172,1811,255,1149,431,18262,-80,662,-539,106,-159,-358,0,1120,1030,840,18,1796,-1,-1,-1,-1,10,0,192,0,3,3
RAW_IMU,70991146,3,369931865,-1220604526,0,65535,65535,126,8665,255,0,0,0,0,0,0,70991,0,172,992,1085,1227,172,172,172,1811,255,1154,7908,20023,-465,118,-787,113,-173,-339,0,1152,1030,840,18,1796,-1,-1,-1,-1,10,0,192,0,3,3
RC_CHANNELS_SCALED,70991146,3,369931865,-1220604526,0,65535,65535,126,8665,255,0,0,0,0,0,0,70991,1,172,992,1085,1227,172,172,172,1811,255,1154,7908,20023,-465,118,-787,113,-173,-339,0,1152,818,951,24,1834,-1,-1,-1,-1,10,0,192,0,3,3
HEARTBEAT,70991146,3,369931865,-1220604526,0,65535,65535,126,8665,255,0,0,0,0,0,0,70991,1,172,992,1085,1227,172,172,172,1811,255,1154,7908,20023,-465,118,-787,113,-173,-339,0,1152,818,951,24,1834,-1,-1,-1,-1,10,0,192,0,3,3
RC_CHANNELS_RAW,70991146,3,369931865,-1220604526,0,65535,65535,126,8665,255,0,0,0,0,0,0,71011,0,172,992,1084,1243,172,172,172,1811,255,1154,7908,20023,-465,118,-787,113,-173,-339,0,1152,818,951,24,1834,-1,-1,-1,-1,10,0,192,0,3,3
RAW_IMU,71011141,3,369931865,-1220604526,0,65535,65535,126,8665,255,0,0,0,0,0,0,71011,0,172,992,1084,1243,172,172,172,1811,255,-1779,-1100,17355,406,-117,-1220,100,-170,-344,0,1120,818,951,24,1834,-1,-1,-1,-1,10,0,192,0,3,3
RC_CHANNELS_SCALED,71011141,3,369931865,-1220604526,0,65535,65535,126,8665,255,0,0,0,0,0,0,71011,1,172,992,1084,1243,172,172,172,1811,255,-1779,-1100,17355,406,-117,-1220,100,-170,-344,0,1120,678,795,16,1865,-1,-1,-1,-1,10,0,192,0,3,3
RC_CHANNELS_RAW,71011141,3,369931865,-1220604526,0,65535,65535,126,8665,255,0,0,0,0,0,0,71031,0,172,992,1084,1245,172,172,172,1811,255,-1779,-1100,17355,406,-117,-1220,100,-170,-344,0,1120,678,795,16,1865,-1,-1,-1,-1,10,0,192,0,3,3
RAW_IMU,71031143,3,369931865,-1220604526,0,65535,65535,126,8665,255,0,0,0,0,0,0,71031,0,172,992,1084,1245,172,172,172,1811,255,2361,387,11076,-413,63,-1078,103,-165,-359,0,1184,678,795,16,1865,-1,-1,-1,-1,10,0,192,0,3,3
RC_CHANNELS_SCALED,71031143,3,369931865,-1220604526,0,65535,65535,126,8665,255,0,0,0,0,0,0,71031,1,172,992,1084,1245,172,172,172,1811,255,2361,387,11076,-413,63,-1078,103,-165,-359,0,1184,712,677,26,1906,-1,-1,-1,-1,10,0,192,0,3,3
RC_CHANNELS_RAW,71031143,3,369931865,-1220604526,0,65535,65535,126,8665,255,0,0,0,0,0,0,71051,0,172,992,1084,1260,172,172,172,1811,255,2361,387,11076,-413,63,-1078,103,-165,-359,0,1184,712,677,26,1906,-1,-1,-1,-1,10,0,192,0,3,3
RAW_IMU,71051144,3,369931865,-1220604526,0,65535,65535,126,8665,255,0,0,0,0,0,0,71051,0,172,992,1084,1260,172,172,172,1811,255,-2958,7072,17758,-231,-255,-1044,95,-161,-337,0,1200,712,677,26,1906,-1,-1,-1,-1,10,0,192,0,3,3
RC_CHANNELS_SCALED,71051144,3,369931865,-1220604526,0,65535,65535,126,8665,255,0,0,0,0,0,0,71051,1,172,992,1084,1260,172,172,172,1811,255,-2958,7072,17758,-231,-255,-1044,95,-161,-337,0,1200,876,725,19,1951,-1,-1,-1,-1,10,0,192,0,3,3
GPS_RAW_INT,71052007,3,369931865,-1220604513,0,65535,65535,126,8694,255,0,0,0,0,0,0,71051,1,172,992,1084,1260,172,172,172,1811,255,-2958,7072,17758,-231,-255,-1044,95,-161,-337,0,1200,876,725,19,1951,-1,-1,-1,-1,10,0,192,0,3,3
RC_CHANNELS_RAW,71052007,3,369931865,-1220604513,0,65535,65535,126,8694,255,0,0,0,0,0,0,71071,0,172,992,1084,1260,172,172,172,1811,255,-2958,7072,17758,-231,-255,-1044,95,-161,-337,0,1200,876,725,19,1951,-1,-1,-1,-1,10,0,192,0,3,3
RAW_IMU,71071147,3,369931865,-1220604513,0,65535,65535,126,8694,255,0,0,0,0,0,0,71071,0,172,992,1084,1260,172,172,172,1811,255,4043,5232,14342,-412,-179,-1216,91,-162,-333,0,1152,876,725,19,1951,-1,-1,-1,-1,10,0,192,0,3,3
RC_CHANNELS_SCALED,71071147,3,369931865,-1220604513,0,65535,65535,126,8694,255,0,0,0,0,0,0,71071,1,172,992,1084,1260,172,172,172,1811,255,4043,5232,14342,-412,-179,-1216,91,-162,-333,0,1152,956,853,15,1982,-1,-1,-1,-1,10,0,192,0,3,3
RC_CHANNELS_RAW,71071147,3,369931865,-1220604513,0,65535,65535,126,8694,255,0,0,0,0,0,0,71091,0,172,992,1083,1277,172,172,172,1811,255,4043,5232,14342,-412,-179,-1216,91,-162,-333,0,1152,956,853,15,1982,-1,-1,-1,-1,10,0,192,0,3,3
RAW_IMU,71091145,3,369931865,-1220604513,0,65535,65535,126,8694,255,0,0,0,0,0,0,71091,0,172,992,1083,1277,172,172,172,1811,255,-566,1193,18027,-651,313,-1552,99,-176,-331,0,1152,956,853,15,1982,-1,-1,-1,-1,10,0,192,0,3,3
RC_CHANNELS_SCALED,71091145,3,369931865,-1220604513,0,65535,65535,126,8694,255,0,0,0,0,0,0,71091,1,172,992,1083,1277,172,172,172,1811,255,-566,1193,18027,-651,313,-1552,99,-176,-331,0,1152,793,863,19,2019,-1,-1,-1,-1,10,0,192,0,3,3
RC_CHANNELS_RAW,71091145,3,369931865,-1220604513,0,65535,65535,126,8694,255,0,0,0,0,0,0,71111,0,172,992,1083,1305,172,172,172,1811,255,-566,1193,18027,-651,313,-1552,99,-176,-331,0,1152,793,863,19,2019,-1,-1,-1,-1,10,0,192,0,3,3
RAW_IMU,71111147,3,369931865,-1220604513,0,65535,65535,126,8694,255,0,0,0,0,0,0,71111,0,172,992,1083,1305,172,172,172,1811,255,2672,3609,16351,641,63,-2050,92,-175,-325,0,1152,793,863,19,2019,-1,-1,-1,-1,10,0,192,0,3,3
RC_CHANNELS_SCALED,71111147,3,369931865,-1220604513,0,65535,65535,126,8694,255,0,0,0,0,0,0,71111,1,172,992,1083,1305,172,172,172,1811,255,2672,3609,16351,641,63,-2050,92,-175,-325,0,1152,662,681,10,2053,-1,-1,-1,-1,10,0,192,0,3,3
RC_CHANNELS_RAW,71111147,3,369931865,-1220604513,0,65535,65535,126,8694,255,0,0,0,0,0,0,71131,0,172,992,1082,1306,172,172,172,1811,255,2672,3609,16351,641,63,-2050,92,-175,-325,0,1152,662,681,10,2053,-1,-1,-1,-1,10,0,192,0,3,3
RAW_IMU,71131142,3,369931865,-1220604513,0,65535,65535,126,8694,255,0,0,0,0,0,0,71131,0,172,992,1082,1306,172,172,172,1811,255,7546,5130,19302,147,176,-1797,112,-167,-328,0,1200,662,681,10,2053,-1,-1,-1,-1,10,0,192,0,3,3
RC_CHANNELS_SCALED,71131142,3,369931865,-1220604513,0,65535,65535,126,8694,255,0,0,0,0,0,0,71131,1,172,992,1082,1306,172,172,172,1811,255,7546,5130,19302,147,176,-1797,112,-167,-328,0,1200,649,610,18,2085,-1,-1,-1,-1,10,0,192,0,3,3
RC_CHANNELS_RAW,71131142,3,369931865,-1220604513,0,65535,65535,126,8694,255,0,0,0,0,0,0,71151,0,172,992,1082,1307,172,172,172,1811,255,7546,5130,19302,147,176,-1797,112,-167,-328,0,1200,649,610,18,2085,-1,-1,-1,-1,10,0,192,0,3,3
RAW_IMU,71151141,3,369931865,-1220604513,0,65535,65535,126,8694,255,0,0,0,0,0,0,71151,0,172,992,1082,1307,172,172,172,1811,255,-2704,-3495,14903,-246,410,-1762,96,-169,-333,0,1232,649,610,18,2085,-1,-1,-1,-1,10,0,192,0,3,3
RC_CHANNELS_SCALED,71151141,3,369931865,-1220604513,0,65535,65535,126,8694,255,0,0,0,0,0,0,71151,1,172,992,1082,1307,172,172,172,1811,255,-2704,-3495,14903,-246,410,-1762,96,-169,-333,0,1232,763,596,18,2124,-1,-1,-1,-1,10,0,192,0,3,3
GPS_RAW_INT,71153005,3,369931865,-1220604503,0,65535,65535,112,8766,255,0,0,0,0,0,0,71151,1,172,992,1082,1307,172,172,172,1811,255,-2704,-3495,14903,-246,410,-1762,96,-169,-333,0,1232,763,596,18,2124,-1,-1,-1,-1,10,0,192,0,3,3
RC_CHANNELS_RAW,71153005,3,369931865,-1220604503,0,65535,65535,112,8766,255,0,0,0,0,0,0,71171,0,172,992,1081,1309,172,172,172,1811,255,-2704,-3495,14903,-246,410,-1762,96,-169,-333,0,1232,763,596,18,2124,-1,-1,-1,-1,10,0,192,0,3,3
RAW_IMU,71171144,3,369931865,-1220604503,0,65535,65535,112,8766,255,0,0,0,0,0,0,71171,0,172,992,1081,1309,172,172,172,1811,255,-288,1247,15495,219,-681,-2381,117,-159,-348,0,1200,763,596,18,2124,-1,-1,-1,-1,10,0,192,0,3,3
RC_CHANNELS_SCALED,71171144,3,369931865,-1220604503,0,65535,65535,112,8766,255,0,0,0,0,0,0,71171,1,172,992,1081,1309,172,172,172,1811,255,-288,1247,15495,219,-681,-2381,117,-159,-348,0,1200,950,609,13,2154,-1,-1,-1,-1,10,0,192,0,3,3
RC_CHANNELS_RAW,71171144,3,369931865,-1220604503,0,65535,65535,112,8766,255,0,0,0,0,0,0,71191,0,172,992,1081,1325,172,172,172,1811,255,-288,1247,15495,219,-681,-2381,117,-159,-348,0,1200,950,609,13,2154,-1,-1,-1,-1,10,0,192,0,3,3
RAW_IMU,71191141,3,369931865,-1220604503,0,65535,65535,112,8766,255,0,0,0,0,0,0,71191,0,172,992,1081,1325,172,172,172,1811,255,-704,9475,16646,528,414,-2347,125,-159,-348,0,1136,950,609,13,2154,-1,-1,-1,-1,10,0,192,0,3,3
RC_CHANNELS_SCALED,71191141,3,369931865,-1220604503,0,65535,65535,112,8766,255,0,0,0,0,0,0,71191,1,172,992,1081,1325,172,172,172,1811,255,-704,9475,16646,528,414,-2347,125,-159,-348,0,1136,858,719,7,2174,-1,-1,-1,-1,10,0,192,0,3,3
RC_CHANNELS_RAW,71191141,3,369931865,-1220604503,0,65535,65535,112,8766,255,0,0,0,0,0,0,71211,0,172,992,1082,1326,172,172,172,1811,255,-704,9475,16646,528,414,-2347,125,-159,-348,0,1136,858,719,7,2174,-1,-1,-1,-1,10,0,192,0,3,3
RAW_IMU,71211145,3,369931865,-1220604503,0,65535,65535,112,8766,255,0,0,0,0,0,0,71211,0,172,992,1082,1326,172,172,172,1811,255,4737,-481,16780,252,-312,-2197,126,-173,-342,0,1184,858,719,7,2174,-1,-1,-1,-1,10,0,192,0,3,3
RC_CHANNELS_SCALED,71211145,3,369931865,-1220604503,0,65535,65535,112,8766,255,0,0,0,0,0,0,71211,1,172,992,1082,1326,172,172,172,1811,255,4737,-481,16780,252,-312,-2197,126,-173,-342,0,1184,674,846,13,2198,-1,-1,-1,-1,10,0,192,0,3,3
RC_CHANNELS_RAW,71211145,3,369931865,-1220604503,0,65535,65535,112,8766,255,0,0,0,0,0,0,71231,0,172,992,1081,1329,172,172,172,1811,255,4737,-481,16780,252,-312,-2197,126,-173,-342,0,1184,674,846,13,2198,-1,-1,-1,-1,10,0,192,0,3,3
RAW_IMU,71231148,3,369931865,-1220604503,0,65535,65535,112,8766,255,0,0,0,0,0,0,71231,0,172,992,1081,1329,172,172,172,1811,255,-248,-4916,18449,-62,538,-2552,117,-152,-360,0,1200,674,846,13,2198,-1,-1,-1,-1,10,0,192,0,3,3
RC_CHANNELS_SCALED,71231148,3,369931865,-1220604503,0,65535,65535,112,8766,255,0,0,0,0,0,0,71231,1,172,992,1081,1329,172,172,172,1811,255,-248,-4916,18449,-62,538,-2552,117,-152,-360,0,1200,648,774,6,2217,-1,-1,-1,-1,10,0,192,0,3,3
RC_CHANNELS_RAW,71231148,3,369931865,-1220604503,0,65535,65535,112,8766,255,0,0,0,0,0,0,71251,0,172,992,1081,1345,172,172,172,1811,255,-248,-4916,18449,-62,538,-2552,117,-152,-360,0,1200,648,774,6,2217,-1,-1,-1,-1,10,0,192,0,3,3
RAW_IMU,71251143,3,369931865,-1220604503,0,65535,65535,112,8766,255,0,0,0,0,0,0,71251,0,172,992,1081,1345,172,172,172,1811,255,3208,-373,16332,-103,-735,-2547,122,-174,-345,0,1056,648,774,6,2217,-1,-1,-1,-1,10,0,192,0,3,3
RC_CHANNELS_SCALED,71251143,3,369931865,-1220604503,0,65535,65535,112,8766,255,0,0,0,0,0,0,71251,1,172,992,1081,1345,172,172,172,1811,255,3208,-373,16332,-103,-735,-2547,122,-174,-345,0,1056,777,615,14,2239,-1,-1,-1,-1,10,0,192,0,3,3
GPS_RAW_INT,71254010,3,369931863,-1220604491,0,65535,65535,110,8977,255,0,0,0,0,0,0,71251,1,172,992,1081,1345,172,172,172,1811,255,3208,-373,16332,-103,-735,-2547,122,-174,-345,0,1056,777,615,14,2239,-1,-1,-1,-1,10,0,192,0,3,3
RC_CHANNELS_RAW,71254010,3,369931863,-1220604491,0,65535,65535,110,8977,255,0,0,0,0,0,0,71271,0,172,992,1081,1345,172,172,172,1811,255,3208,-373,16332,-103,-735,-2547,122,-174,-345,0,1056,777,615,14,2239,-1,-1,-1,-1,10,0,192,0,3,3
RAW_IMU,71271144,3,369931863,-1220604491,0,65535,65535,110,8977,255,0,0,0,0,0,0,71271,0,172,992,1081,1345,172,172,172,1811,255,-597,-7956,12817,-73,225,-2627,114,-176,-336,0,1152,777,615,14,2239,-1,-1,-1,-1,10,0,192,0,3,3
RC_CHANNELS_SCALED,71271144,3,369931863,-1220604491,0,65535,65535,110,8977,255,0,0,0,0,0,0,71271,1,172,992,1081,1345,172,172,172,1811,255,-597,-7956,12817,-73,225,-2627,114,-176,-336,0,1152,941,655,1,2261,-1,-1,-1,-1,10,0,192,0,3,3
RC_CHANNELS_RAW,71271144,3,369931863,-1220604491,0,65535,65535,110,8977,255,0,0,0,0,0,0,71291,0,172,992,1081,1344,172,172,172,1811,255,-597,-7956,12817,-73,225,-2627,114,-176,-336,0,1152,941,655,1,2261,-1,-1,-1,-1,10,0,192,0,3,3
RAW_IMU,71291141,3,369931863,-1220604491,0,65535,65535,110,8977,255,0,0,0,0,0,0,71291,0,172,992,1081,1344,172,172,172,1811,255,2538,10092,21449,-204,-383,-2677,109,-176,-336,0,1120,941,655,1,2261,-1,-1,-1,-1,10,0,192,0,3,3
RC_CHANNELS_SCALED,71291141,3,369931863,-1220604491,0,65535,65535,110,8977,255,0,0,0,0,0,0,71291,1,172,992,1081,1344,172,172,172,1811,255,2538,10092,21449,-204,-383,-2677,109,-176,-336,0,1120,851,692,5,2277,-1,-1,-1,-1,10,0,192,0,3,3
RC_CHANNELS_RAW,71291141,3,369931863,-1220604491,0,65535,65535,110,8977,255,0,0,0,0,0,0,71311,0,172,992,1080,1325,172,172,172,1811,255,2538,10092,21449,-204,-383,-2677,109,-176,-336,0,1120,851,692,5,2277,-1,-1,-1,-1,10,0,192,0,3,3
RAW_IMU,71311143,3,369931863,-1220604491,0,65535,65535,110,8977,255,0,0,0,0,0,0,71311,0,172,992,1080,1325,172,172,172,1811,255,1409,-3718,12251,-156,101,-3020,120,-169,-316,0,1152,851,692,5,2277,-1,-1,-1,-1,10,0,192,0,3,3
RC_CHANNELS_SCALED,71311143,3,369931863,-1220604491,0,65535,65535,110,8977,255,0,0,0,0,0,0,71311,1,172,992,1080,1325,172,172,172,1811,255,1409,-3718,12251,-156,101,-3020,120,-169,-316,0,1152,685,830,12,2296,-1,-1,-1,-1,10,0,192,0,3,3
RC_CHANNELS_RAW,71311143,3,369931863,-1220604491,0,65535,65535,110,8977,255,0,0,0,0,0,0,71331,0,172,992,1080,1306,172,172,172,1811,255,1409,-3718,12251,-156,101,-3020,120,-169,-316,0,1152,685,830,12,2296,-1,-1,-1,-1,10,0,192,0,3,3
RAW_IMU,71331144,3,369931863,-1220604491,0,65535,65535,110,8977,255,0,0,0,0,0,0,71331,0,172,992,1080,1306,172,172,172,1811,255,1232,-1450,22633,213,255,-3122,114,-162,-331,0,1152,685,830,12,2296,-1,-1,-1,-1,10,0,192,0,3,3
RC_CHANNELS_SCALED,71331144,3,369931863,-1220604491,0,65535,65535,110,8977,255,0,0,0,0,0,0,71331,1,172,992,1080,1306,172,172,172,1811,255,1232,-1450,22633,213,255,-3122,114,-162,-331,0,1152,626,746,0,2298,-1,-1,-1,-1,10,0,192,0,3,3
RC_CHANNELS_RAW,71331144,3,369931863,-1220604491,0,65535,65535,110,8977,255,0,0,0,0,0,0,71351,0,172,992,1079,1258,172,172,172,1811,255,1232,-1450,22633,213,255,-3122,114,-162,-331,0,1152,626,746,0,2298,-1,-1,-1,-1,10,0,192,0,3,3
RAW_IMU,71351147,3,369931863,-1220604491,0,65535,65535,110,8977,255,0,0,0,0,0,0,71351,0,172,992,1079,1258,172,172,172,1811,255,4529,5827,12815,-73,-67,-3209,121,-161,-320,0,1232,626,746,0,2298,-1,-1,-1,-1,10,0,192,0,3,3
