mavpackettype,index,frequency,time_boot_ms,q1,q2,q3,q4,rollspeed,pitchspeed,yawspeed,repr_offset_q,x,y,z,vx,vy,vz,time_usec,fix_type,lat,lon,alt,eph,epv,vel,cog,satellites_visible,alt_ellipsoid,h_acc,v_acc,vel_acc,hdg_acc,yaw,type,autopilot,base_mode,custom_mode,system_status,mavlink_version,data
RAW_RPM,1,0.0,266693,0.6513720750808716,0.0037394415121525526,0.009278060868382454,-0.7586926221847534,-0.005859133321791887,0.010120321065187454,-0.005326484329998493,"[0.0, 0.0, 0.0, 0.0]",0.05417940020561218,0.6781758666038513,0.0,3.467705028015189e-05,0.00022630483726970851,0.0,266654422,3,0,0,0,65535,65535,0,0,255,0,0,0,0,0,0,10,0,192,0,3,3,"array('B', [253, 32, 0, 0, 1, 1, 0, 1, 31, 0, 0, 103, 214, 3, 0, 38, 173, 38, 63, 198, 119, 13, 59, 17, 241, 20, 60, 175, 74, 66, 191, 226, 67, 183, 187, 141, 183, 120, 60, 111, 161, 11, 187, 26])"
RAW_RPM,2,0.00983665231615305,266693,0.6513720750808716,0.0037394415121525526,0.009278060868382454,-0.7586926221847534,-0.005859133321791887,0.010120321065187454,-0.005326484329998493,"[0.0, 0.0, 0.0, 0.0]",0.05417940020561218,0.6781758666038513,0.0,3.467705028015189e-05,0.00022630483726970851,0.0,266654422,3,0,0,0,65535,65535,0,0,255,0,0,0,0,0,0,10,0,192,0,3,3,"array('B', [253, 32, 0, 0, 1, 1, 0, 1, 31, 0, 0, 103, 214, 3, 0, 38, 173, 38, 63, 198, 119, 13, 59, 17, 241, 20, 60, 175, 74, 66, 191, 226, 67, 183, 187, 141, 183, 120, 60, 111, 161, 11, 187, 26])"
ATTITUDE_QUATERNION,2,0.00983665231615305,266744,0.6518346071243286,0.0030362866818904877,0.010089416056871414,-0.7582879662513733,-0.0066581061109900475,0.014914157800376415,-0.008788700215518475,"[0.0, 0.0, 0.0, 0.0]",0.05417940020561218,0.6781758666038513,0.0,3.467705028015189e-05,0.00022630483726970851,0.0,266654422,3,0,0,0,65535,65535,0,0,255,0,0,0,0,0,0,10,0,192,0,3,3,"array('B', [253, 32, 0, 0, 1, 1, 0, 1, 31, 0, 0, 103, 214, 3, 0, 38, 173, 38, 63, 198, 119, 13, 59, 17, 241, 20, 60, 175, 74, 66, 191, 226, 67, 183, 187, 141, 183, 120, 60, 111, 161, 11, 187, 26])"
LOCAL_POSITION_NED,2,0.00983665231615305,266745,0.6518346071243286,0.0030362866818904877,0.010089416056871414,-0.7582879662513733,-0.0066581061109900475,0.014914157800376415,-0.008788700215518475,"[0.0, 0.0, 0.0, 0.0]",0.054183416068553925,0.678202211856842,0.0,6.34244570392184e-05,0.0004169477615505457,0.0,266654422,3,0,0,0,65535,65535,0,0,255,0,0,0,0,0,0,10,0,192,0,3,3,"array('B', [253, 32, 0, 0, 1, 1, 0, 1, 31, 0, 0, 103, 214, 3, 0, 38, 173, 38, 63, 198, 119, 13, 59, 17, 241, 20, 60, 175, 74, 66, 191, 226, 67, 183, 187, 141, 183, 120, 60, 111, 161, 11, 187, 26])"
GPS_RAW_INT,2,0.00983665231615305,266745,0.6518346071243286,0.0030362866818904877,0.010089416056871414,-0.7582879662513733,-0.0066581061109900475,0.014914157800376415,-0.008788700215518475,"[0.0, 0.0, 0.0, 0.0]",0.054183416068553925,0.678202211856842,0.0,6.34244570392184e-05,0.0004169477615505457,0.0,266755002,3,0,0,0,65535,65535,0,0,255,0,0,0,0,0,0,10,0,192,0,3,3,"array('B', [253, 32, 0, 0, 1, 1, 0, 1, 31, 0, 0, 103, 214, 3, 0, 38, 173, 38, 63, 198, 119, 13, 59, 17, 241, 20, 60, 175, 74, 66, 191, 226, 67, 183, 187, 141, 183, 120, 60, 111, 161, 11, 187, 26])"
RAW_RPM,0,0.0003834952076431364,266745,0.6518346071243286,0.0030362866818904877,0.010089416056871414,-0.7582879662513733,-0.0066581061109900475,0.014914157800376415,-0.008788700215518475,"[0.0, 0.0, 0.0, 0.0]",0.054183416068553925,0.678202211856842,0.0,6.34244570392184e-05,0.0004169477615505457,0.0,266755002,3,0,0,0,65535,65535,0,0,255,0,0,0,0,0,0,10,0,192,0,3,3,"array('B', [253, 32, 0, 0, 1, 1, 0, 1, 31, 0, 0, 103, 214, 3, 0, 38, 173, 38, 63, 198, 119, 13, 59, 17, 241, 20, 60, 175, 74, 66, 191, 226, 67, 183, 187, 141, 183, 120, 60, 111, 161, 11, 187, 26])"
RAW_RPM,1,0.0003834952076431364,266745,0.6518346071243286,0.0030362866818904877,0.010089416056871414,-0.7582879662513733,-0.0066581061109900475,0.014914157800376415,-0.008788700215518475,"[0.0, 0.0, 0.0, 0.0]",0.054183416068553925,0.678202211856842,0.0,6.34244570392184e-05,0.0004169477615505457,0.0,266755002,3,0,0,0,65535,65535,0,0,255,0,0,0,0,0,0,10,0,192,0,3,3,"array('B', [253, 32, 0, 0, 1, 1, 0, 1, 31, 0, 0, 103, 214, 3, 0, 38, 173, 38, 63, 198, 119, 13, 59, 17, 241, 20, 60, 175, 74, 66, 191, 226, 67, 183, 187, 141, 183, 120, 60, 111, 161, 11, 187, 26])"
RAW_RPM,2,0.009577793069183826,266745,0.6518346071243286,0.0030362866818904877,0.010089416056871414,-0.7582879662513733,-0.0066581061109900475,0.014914157800376415,-0.008788700215518475,"[0.0, 0.0, 0.0, 0.0]",0.054183416068553925,0.678202211856842,0.0,6.34244570392184e-05,0.0004169477615505457,0.0,266755002,3,0,0,0,65535,65535,0,0,255,0,0,0,0,0,0,10,0,192,0,3,3,"array('B', [253, 32, 0, 0, 1, 1, 0, 1, 31, 0, 0, 103, 214, 3, 0, 38, 173, 38, 63, 198, 119, 13, 59, 17, 241, 20, 60, 175, 74, 66, 191, 226, 67, 183, 187, 141, 183, 120, 60, 111, 161, 11, 187, 26])"
ATTITUDE_QUATERNION,2,0.009577793069183826,266795,0.651761531829834,0.0033450410701334476,0.009942425414919853,-0.7583515048027039,-0.00452751200646162,0.010386645793914795,-0.005326484329998493,"[0.0, 0.0, 0.0, 0.0]",0.054183416068553925,0.678202211856842,0.0,6.34244570392184e-05,0.0004169477615505457,0.0,266755002,3,0,0,0,65535,65535,0,0,255,0,0,0,0,0,0,10,0,192,0,3,3,"array('B', [253, 32, 0, 0, 1, 1, 0, 1, 31, 0, 0, 103, 214, 3, 0, 38, 173, 38, 63, 198, 119, 13, 59, 17, 241, 20, 60, 175, 74, 66, 191, 226, 67, 183, 187, 141, 183, 120, 60, 111, 161, 11, 187, 26])"
LOCAL_POSITION_NED,2,0.009577793069183826,266795,0.651761531829834,0.0033450410701334476,0.009942425414919853,-0.7583515048027039,-0.00452751200646162,0.010386645793914795,-0.005326484329998493,"[0.0, 0.0, 0.0, 0.0]",0.05418612062931061,0.6782200336456299,0.0,6.511341052828357e-05,0.00042822008254006505,0.0,266755002,3,0,0,0,65535,65535,0,0,255,0,0,0,0,0,0,10,0,192,0,3,3,"array('B', [253, 32, 0, 0, 1, 1, 0, 1, 31, 0, 0, 103, 214, 3, 0, 38, 173, 38, 63, 198, 119, 13, 59, 17, 241, 20, 60, 175, 74, 66, 191, 226, 67, 183, 187, 141, 183, 120, 60, 111, 161, 11, 187, 26])"
RAW_RPM,0,0.0,266795,0.651761531829834,0.0033450410701334476,0.009942425414919853,-0.7583515048027039,-0.00452751200646162,0.010386645793914795,-0.005326484329998493,"[0.0, 0.0, 0.0, 0.0]",0.05418612062931061,0.6782200336456299,0.0,6.511341052828357e-05,0.00042822008254006505,0.0,266755002,3,0,0,0,65535,65535,0,0,255,0,0,0,0,0,0,10,0,192,0,3,3,"array('B', [253, 32, 0, 0, 1, 1, 0, 1, 31, 0, 0, 103, 214, 3, 0, 38, 173, 38, 63, 198, 119, 13, 59, 17, 241, 20, 60, 175, 74, 66, 191, 226, 67, 183, 187, 141, 183, 120, 60, 111, 161, 11, 187, 26])"
RAW_RPM,1,0.0,266795,0.651761531829834,0.0033450410701334476,0.009942425414919853,-0.7583515048027039,-0.00452751200646162,0.010386645793914795,-0.005326484329998493,"[0.0, 0.0, 0.0, 0.0]",0.05418612062931061,0.6782200336456299,0.0,6.511341052828357e-05,0.00042822008254006505,0.0,266755002,3,0,0,0,65535,65535,0,0,255,0,0,0,0,0,0,10,0,192,0,3,3,"array('B', [253, 32, 0, 0, 1, 1, 0, 1, 31, 0, 0, 103, 214, 3, 0, 38, 173, 38, 63, 198, 119, 13, 59, 17, 241, 20, 60, 175, 74, 66, 191, 226, 67, 183, 187, 141, 183, 120, 60, 111, 161, 11, 187, 26])"
RAW_RPM,2,0.00906007457524538,266795,0.651761531829834,0.0033450410701334476,0.009942425414919853,-0.7583515048027039,-0.00452751200646162,0.010386645793914795,-0.005326484329998493,"[0.0, 0.0, 0.0, 0.0]",0.05418612062931061,0.6782200336456299,0.0,6.511341052828357e-05,0.00042822008254006505,0.0,266755002,3,0,0,0,65535,65535,0,0,255,0,0,0,0,0,0,10,0,192,0,3,3,"array('B', [253, 32, 0, 0, 1, 1, 0, 1, 31, 0, 0, 103, 214, 3, 0, 38, 173, 38, 63, 198, 119, 13, 59, 17, 241, 20, 60, 175, 74, 66, 191, 226, 67, 183, 187, 141, 183, 120, 60, 111, 161, 11, 187, 26])"
ATTITUDE_QUATERNION,2,0.00906007457524538,266846,0.651633083820343,0.0036612460389733315,0.009630091488361359,-0.7584644556045532,-0.00452751200646162,0.011984591372311115,-0.005060160532593727,"[0.0, 0.0, 0.0, 0.0]",0.05418612062931061,0.6782200336456299,0.0,6.511341052828357e-05,0.00042822008254006505,0.0,266755002,3,0,0,0,65535,65535,0,0,255,0,0,0,0,0,0,10,0,192,0,3,3,"array('B', [253, 32, 0, 0, 1, 1, 0, 1, 31, 0, 0, 103, 214, 3, 0, 38, 173, 38, 63, 198, 119, 13, 59, 17, 241, 20, 60, 175, 74, 66, 191, 226, 67, 183, 187, 141, 183, 120, 60, 111, 161, 11, 187, 26])"
LOCAL_POSITION_NED,2,0.00906007457524538,266846,0.651633083820343,0.0036612460389733315,0.009630091488361359,-0.7584644556045532,-0.00452751200646162,0.011984591372311115,-0.005060160532593727,"[0.0, 0.0, 0.0, 0.0]",0.05418877676129341,0.6782374978065491,0.0,6.91047971486114e-05,0.0004526478296611458,0.0,266755002,3,0,0,0,65535,65535,0,0,255,0,0,0,0,0,0,10,0,192,0,3,3,"array('B', [253, 32, 0, 0, 1, 1, 0, 1, 31, 0, 0, 103, 214, 3, 0, 38, 173, 38, 63, 198, 119, 13, 59, 17, 241, 20, 60, 175, 74, 66, 191, 226, 67, 183, 187, 141, 183, 120, 60, 111, 161, 11, 187, 26])"
GPS_RAW_INT,2,0.00906007457524538,266846,0.651633083820343,0.0036612460389733315,0.009630091488361359,-0.7584644556045532,-0.00452751200646162,0.011984591372311115,-0.005060160532593727,"[0.0, 0.0, 0.0, 0.0]",0.05418877676129341,0.6782374978065491,0.0,6.91047971486114e-05,0.0004526478296611458,0.0,266856003,3,0,0,0,65535,65535,0,0,255,0,0,0,0,0,0,10,0,192,0,3,3,"array('B', [253, 32, 0, 0, 1, 1, 0, 1, 31, 0, 0, 103, 214, 3, 0, 38, 173, 38, 63, 198, 119, 13, 59, 17, 241, 20, 60, 175, 74, 66, 191, 226, 67, 183, 187, 141, 183, 120, 60, 111, 161, 11, 187, 26])"
RAW_RPM,0,0.0,266846,0.651633083820343,0.0036612460389733315,0.009630091488361359,-0.7584644556045532,-0.00452751200646162,0.011984591372311115,-0.005060160532593727,"[0.0, 0.0, 0.0, 0.0]",0.05418877676129341,0.6782374978065491,0.0,6.91047971486114e-05,0.0004526478296611458,0.0,266856003,3,0,0,0,65535,65535,0,0,255,0,0,0,0,0,0,10,0,192,0,3,3,"array('B', [253, 32, 0, 0, 1, 1, 0, 1, 31, 0, 0, 103, 214, 3, 0, 38, 173, 38, 63, 198, 119, 13, 59, 17, 241, 20, 60, 175, 74, 66, 191, 226, 67, 183, 187, 141, 183, 120, 60, 111, 161, 11, 187, 26])"
RAW_RPM,1,0.0007669904152862728,266846,0.651633083820343,0.0036612460389733315,0.009630091488361359,-0.7584644556045532,-0.00452751200646162,0.011984591372311115,-0.005060160532593727,"[0.0, 0.0, 0.0, 0.0]",0.05418877676129341,0.6782374978065491,0.0,6.91047971486114e-05,0.0004526478296611458,0.0,266856003,3,0,0,0,65535,65535,0,0,255,0,0,0,0,0,0,10,0,192,0,3,3,"array('B', [253, 32, 0, 0, 1, 1, 0, 1, 31, 0, 0, 103, 214, 3, 0, 38, 173, 38, 63, 198, 119, 13, 59, 17, 241, 20, 60, 175, 74, 66, 191, 226, 67, 183, 187, 141, 183, 120, 60, 111, 161, 11, 187, 26])"
RAW_RPM,2,0.010095511563122272,266846,0.651633083820343,0.0036612460389733315,0.009630091488361359,-0.7584644556045532,-0.00452751200646162,0.011984591372311115,-0.005060160532593727,"[0.0, 0.0, 0.0, 0.0]",0.05418877676129341,0.6782374978065491,0.0,6.91047971486114e-05,0.0004526478296611458,0.0,266856003,3,0,0,0,65535,65535,0,0,255,0,0,0,0,0,0,10,0,192,0,3,3,"array('B', [253, 32, 0, 0, 1, 1, 0, 1, 31, 0, 0, 103, 214, 3, 0, 38, 173, 38, 63, 198, 119, 13, 59, 17, 241, 20, 60, 175, 74, 66, 191, 226, 67, 183, 187, 141, 183, 120, 60, 111, 161, 11, 187, 26])"
ATTITUDE_QUATERNION,2,0.010095511563122272,266897,0.6514102816581726,0.002968296641483903,0.008404215797781944,-0.7586732506752014,-0.005859133321791887,0.011718266643583775,-0.005859133321791887,"[0.0, 0.0, 0.0, 0.0]",0.05418877676129341,0.6782374978065491,0.0,6.91047971486114e-05,0.0004526478296611458,0.0,266856003,3,0,0,0,65535,65535,0,0,255,0,0,0,0,0,0,10,0,192,0,3,3,"array('B', [253, 32, 0, 0, 1, 1, 0, 1, 31, 0, 0, 103, 214, 3, 0, 38, 173, 38, 63, 198, 119, 13, 59, 17, 241, 20, 60, 175, 74, 66, 191, 226, 67, 183, 187, 141, 183, 120, 60, 111, 161, 11, 187, 26])"
LOCAL_POSITION_NED,2,0.010095511563122272,266897,0.6514102816581726,0.002968296641483903,0.008404215797781944,-0.7586732506752014,-0.005859133321791887,0.011718266643583775,-0.005859133321791887,"[0.0, 0.0, 0.0, 0.0]",0.05419182777404785,0.6782575249671936,0.0,6.223305535968393e-05,0.00040619075298309326,0.0,266856003,3,0,0,0,65535,65535,0,0,255,0,0,0,0,0,0,10,0,192,0,3,3,"array('B', [253, 32, 0, 0, 1, 1, 0, 1, 31, 0, 0, 103, 214, 3, 0, 38, 173, 38, 63, 198, 119, 13, 59, 17, 241, 20, 60, 175, 74, 66, 191, 226, 67, 183, 187, 141, 183, 120, 60, 111, 161, 11, 187, 26])"
RAW_RPM,0,0.0,266897,0.6514102816581726,0.002968296641483903,0.008404215797781944,-0.7586732506752014,-0.005859133321791887,0.011718266643583775,-0.005859133321791887,"[0.0, 0.0, 0.0, 0.0]",0.05419182777404785,0.6782575249671936,0.0,6.223305535968393e-05,0.00040619075298309326,0.0,266856003,3,0,0,0,65535,65535,0,0,255,0,0,0,0,0,0,10,0,192,0,3,3,"array('B', [253, 32, 0, 0, 1, 1, 0, 1, 31, 0, 0, 103, 214, 3, 0, 38, 173, 38, 63, 198, 119, 13, 59, 17, 241, 20, 60, 175, 74, 66, 191, 226, 67, 183, 187, 141, 183, 120, 60, 111, 161, 11, 187, 26])"
RAW_RPM,1,0.0,266897,0.6514102816581726,0.002968296641483903,0.008404215797781944,-0.7586732506752014,-0.005859133321791887,0.011718266643583775,-0.005859133321791887,"[0.0, 0.0, 0.0, 0.0]",0.05419182777404785,0.6782575249671936,0.0,6.223305535968393e-05,0.00040619075298309326,0.0,266856003,3,0,0,0,65535,65535,0,0,255,0,0,0,0,0,0,10,0,192,0,3,3,"array('B', [253, 32, 0, 0, 1, 1, 0, 1, 31, 0, 0, 103, 214, 3, 0, 38, 173, 38, 63, 198, 119, 13, 59, 17, 241, 20, 60, 175, 74, 66, 191, 226, 67, 183, 187, 141, 183, 120, 60, 111, 161, 11, 187, 26])"
RAW_RPM,2,0.009577793069183826,266897,0.6514102816581726,0.002968296641483903,0.008404215797781944,-0.7586732506752014,-0.005859133321791887,0.011718266643583775,-0.005859133321791887,"[0.0, 0.0, 0.0, 0.0]",0.05419182777404785,0.6782575249671936,0.0,6.223305535968393e-05,0.00040619075298309326,0.0,266856003,3,0,0,0,65535,65535,0,0,255,0,0,0,0,0,0,10,0,192,0,3,3,"array('B', [253, 32, 0, 0, 1, 1, 0, 1, 31, 0, 0, 103, 214, 3, 0, 38, 173, 38, 63, 198, 119, 13, 59, 17, 241, 20, 60, 175, 74, 66, 191, 226, 67, 183, 187, 141, 183, 120, 60, 111, 161, 11, 187, 26])"
ATTITUDE_QUATERNION,2,0.009577793069183826,266948,0.6515886187553406,0.002917348872870207,0.008994419127702713,-0.7585135698318481,-0.009853996336460114,0.014647833071649075,-0.010386645793914795,"[0.0, 0.0, 0.0, 0.0]",0.05419182777404785,0.6782575249671936,0.0,6.223305535968393e-05,0.00040619075298309326,0.0,266856003,3,0,0,0,65535,65535,0,0,255,0,0,0,0,0,0,10,0,192,0,3,3,"array('B', [253, 32, 0, 0, 1, 1, 0, 1, 31, 0, 0, 103, 214, 3, 0, 38, 173, 38, 63, 198, 119, 13, 59, 17, 241, 20, 60, 175, 74, 66, 191, 226, 67, 183, 187, 141, 183, 120, 60, 111, 161, 11, 187, 26])"
LOCAL_POSITION_NED,2,0.009577793069183826,266948,0.6515886187553406,0.002917348872870207,0.008994419127702713,-0.7585135698318481,-0.009853996336460114,0.014647833071649075,-0.010386645793914795,"[0.0, 0.0, 0.0, 0.0]",0.05419481173157692,0.6782770752906799,0.0,6.542182381963357e-05,0.00042817305075004697,0.0,266856003,3,0,0,0,65535,65535,0,0,255,0,0,0,0,0,0,10,0,192,0,3,3,"array('B', [253, 32, 0, 0, 1, 1, 0, 1, 31, 0, 0, 103, 214, 3, 0, 38, 173, 38, 63, 198, 119, 13, 59, 17, 241, 20, 60, 175, 74, 66, 191, 226, 67, 183, 187, 141, 183, 120, 60, 111, 161, 11, 187, 26])"
GPS_RAW_INT,2,0.009577793069183826,266948,0.6515886187553406,0.002917348872870207,0.008994419127702713,-0.7585135698318481,-0.009853996336460114,0.014647833071649075,-0.010386645793914795,"[0.0, 0.0, 0.0, 0.0]",0.05419481173157692,0.6782770752906799,0.0,6.542182381963357e-05,0.00042817305075004697,0.0,266957005,3,0,0,0,65535,65535,0,0,255,0,0,0,0,0,0,10,0,192,0,3,3,"array('B', [253, 32, 0, 0, 1, 1, 0, 1, 31, 0, 0, 103, 214, 3, 0, 38, 173, 38, 63, 198, 119, 13, 59, 17, 241, 20, 60, 175, 74, 66, 191, 226, 67, 183, 187, 141, 183, 120, 60, 111, 161, 11, 187, 26])"
RAW_RPM,0,0.0,266948,0.6515886187553406,0.002917348872870207,0.008994419127702713,-0.7585135698318481,-0.009853996336460114,0.014647833071649075,-0.010386645793914795,"[0.0, 0.0, 0.0, 0.0]",0.05419481173157692,0.6782770752906799,0.0,6.542182381963357e-05,0.00042817305075004697,0.0,266957005,3,0,0,0,65535,65535,0,0,255,0,0,0,0,0,0,10,0,192,0,3,3,"array('B', [253, 32, 0, 0, 1, 1, 0, 1, 31, 0, 0, 103, 214, 3, 0, 38, 173, 38, 63, 198, 119, 13, 59, 17, 241, 20, 60, 175, 74, 66, 191, 226, 67, 183, 187, 141, 183, 120, 60, 111, 161, 11, 187, 26])"
RAW_RPM,1,-0.0007669904152862728,266948,0.6515886187553406,0.002917348872870207,0.008994419127702713,-0.7585135698318481,-0.009853996336460114,0.014647833071649075,-0.010386645793914795,"[0.0, 0.0, 0.0, 0.0]",0.05419481173157692,0.6782770752906799,0.0,6.542182381963357e-05,0.00042817305075004697,0.0,266957005,3,0,0,0,65535,65535,0,0,255,0,0,0,0,0,0,10,0,192,0,3,3,"array('B', [253, 32, 0, 0, 1, 1, 0, 1, 31, 0, 0, 103, 214, 3, 0, 38, 173, 38, 63, 198, 119, 13, 59, 17, 241, 20, 60, 175, 74, 66, 191, 226, 67, 183, 187, 141, 183, 120, 60, 111, 161, 11, 187, 26])"
RAW_RPM,2,0.009577793069183826,266948,0.6515886187553406,0.002917348872870207,0.008994419127702713,-0.7585135698318481,-0.009853996336460114,0.014647833071649075,-0.010386645793914795,"[0.0, 0.0, 0.0, 0.0]",0.05419481173157692,0.6782770752906799,0.0,6.542182381963357e-05,0.00042817305075004697,0.0,266957005,3,0,0,0,65535,65535,0,0,255,0,0,0,0,0,0,10,0,192,0,3,3,"array('B', [253, 32, 0, 0, 1, 1, 0, 1, 31, 0, 0, 103, 214, 3, 0, 38, 173, 38, 63, 198, 119, 13, 59, 17, 241, 20, 60, 175, 74, 66, 191, 226, 67, 183, 187, 141, 183, 120, 60, 111, 161, 11, 187, 26])"
ATTITUDE_QUATERNION,2,0.009577793069183826,266999,0.651528000831604,0.002771515166386962,0.008873307146131992,-0.7585676908493042,-0.0034622149541974068,0.010652968659996986,-0.00905502401292324,"[0.0, 0.0, 0.0, 0.0]",0.05419481173157692,0.6782770752906799,0.0,6.542182381963357e-05,0.00042817305075004697,0.0,266957005,3,0,0,0,65535,65535,0,0,255,0,0,0,0,0,0,10,0,192,0,3,3,"array('B', [253, 32, 0, 0, 1, 1, 0, 1, 31, 0, 0, 103, 214, 3, 0, 38, 173, 38, 63, 198, 119, 13, 59, 17, 241, 20, 60, 175, 74, 66, 191, 226, 67, 183, 187, 141, 183, 120, 60, 111, 161, 11, 187, 26])"
LOCAL_POSITION_NED,2,0.009577793069183826,266999,0.651528000831604,0.002771515166386962,0.008873307146131992,-0.7585676908493042,-0.0034622149541974068,0.010652968659996986,-0.00905502401292324,"[0.0, 0.0, 0.0, 0.0]",0.054197438061237335,0.67829430103302,0.0,3.268951331847347e-05,0.00021408979955594987,0.0,266957005,3,0,0,0,65535,65535,0,0,255,0,0,0,0,0,0,10,0,192,0,3,3,"array('B', [253, 32, 0, 0, 1, 1, 0, 1, 31, 0, 0, 103, 214, 3, 0, 38, 173, 38, 63, 198, 119, 13, 59, 17, 241, 20, 60, 175, 74, 66, 191, 226, 67, 183, 187, 141, 183, 120, 60, 111, 161, 11, 187, 26])"
HEARTBEAT,2,0.009577793069183826,266999,0.651528000831604,0.002771515166386962,0.008873307146131992,-0.7585676908493042,-0.0034622149541974068,0.010652968659996986,-0.00905502401292324,"[0.0, 0.0, 0.0, 0.0]",0.054197438061237335,0.67829430103302,0.0,3.268951331847347e-05,0.00021408979955594987,0.0,266957005,3,0,0,0,65535,65535,0,0,255,0,0,0,0,0,0,10,0,192,0,3,3,"array('B', [253, 32, 0, 0, 1, 1, 0, 1, 31, 0, 0, 103, 214, 3, 0, 38, 173, 38, 63, 198, 119, 13, 59, 17, 241, 20, 60, 175, 74, 66, 191, 226, 67, 183, 187, 141, 183, 120, 60, 111, 161, 11, 187, 26])"
RAW_RPM,0,0.0007669904152862728,266999,0.651528000831604,0.002771515166386962,0.008873307146131992,-0.7585676908493042,-0.0034622149541974068,0.010652968659996986,-0.00905502401292324,"[0.0, 0.0, 0.0, 0.0]",0.054197438061237335,0.67829430103302,0.0,3.268951331847347e-05,0.00021408979955594987,0.0,266957005,3,0,0,0,65535,65535,0,0,255,0,0,0,0,0,0,10,0,192,0,3,3,"array('B', [253, 32, 0, 0, 1, 1, 0, 1, 31, 0, 0, 103, 214, 3, 0, 38, 173, 38, 63, 198, 119, 13, 59, 17, 241, 20, 60, 175, 74, 66, 191, 226, 67, 183, 187, 141, 183, 120, 60, 111, 161, 11, 187, 26])"
RAW_RPM,1,-0.0007669904152862728,266999,0.651528000831604,0.002771515166386962,0.008873307146131992,-0.7585676908493042,-0.0034622149541974068,0.010652968659996986,-0.00905502401292324,"[0.0, 0.0, 0.0, 0.0]",0.054197438061237335,0.67829430103302,0.0,3.268951331847347e-05,0.00021408979955594987,0.0,266957005,3,0,0,0,65535,65535,0,0,255,0,0,0,0,0,0,10,0,192,0,3,3,"array('B', [253, 32, 0, 0, 1, 1, 0, 1, 31, 0, 0, 103, 214, 3, 0, 38, 173, 38, 63, 198, 119, 13, 59, 17, 241, 20, 60, 175, 74, 66, 191, 226, 67, 183, 187, 141, 183, 120, 60, 111, 161, 11, 187, 26])"
RAW_RPM,2,0.009577793069183826,266999,0.651528000831604,0.002771515166386962,0.008873307146131992,-0.7585676908493042,-0.0034622149541974068,0.010652968659996986,-0.00905502401292324,"[0.0, 0.0, 0.0, 0.0]",0.054197438061237335,0.67829430103302,0.0,3.268951331847347e-05,0.00021408979955594987,0.0,266957005,3,0,0,0,65535,65535,0,0,255,0,0,0,0,0,0,10,0,192,0,3,3,"array('B', [253, 32, 0, 0, 1, 1, 0, 1, 31, 0, 0, 103, 214, 3, 0, 38, 173, 38, 63, 198, 119, 13, 59, 17, 241, 20, 60, 175, 74, 66, 191, 226, 67, 183, 187, 141, 183, 120, 60, 111, 161, 11, 187, 26])"
ATTITUDE_QUATERNION,2,0.009577793069183826,267050,0.651452362537384,0.002628801856189966,0.008431040681898594,-0.7586381435394287,-0.0015979454619809985,0.014914157800376415,-0.008256050758063793,"[0.0, 0.0, 0.0, 0.0]",0.054197438061237335,0.67829430103302,0.0,3.268951331847347e-05,0.00021408979955594987,0.0,266957005,3,0,0,0,65535,65535,0,0,255,0,0,0,0,0,0,10,0,192,0,3,3,"array('B', [253, 32, 0, 0, 1, 1, 0, 1, 31, 0, 0, 103, 214, 3, 0, 38, 173, 38, 63, 198, 119, 13, 59, 17, 241, 20, 60, 175, 74, 66, 191, 226, 67, 183, 187, 141, 183, 120, 60, 111, 161, 11, 187, 26])"
LOCAL_POSITION_NED,2,0.009577793069183826,267050,0.651452362537384,0.002628801856189966,0.008431040681898594,-0.7586381435394287,-0.0015979454619809985,0.014914157800376415,-0.008256050758063793,"[0.0, 0.0, 0.0, 0.0]",0.054199449717998505,0.6783074736595154,0.0,6.541610491694883e-05,0.00042817392386496067,0.0,266957005,3,0,0,0,65535,65535,0,0,255,0,0,0,0,0,0,10,0,192,0,3,3,"array('B', [253, 32, 0, 0, 1, 1, 0, 1, 31, 0, 0, 103, 214, 3, 0, 38, 173, 38, 63, 198, 119, 13, 59, 17, 241, 20, 60, 175, 74, 66, 191, 226, 67, 183, 187, 141, 183, 120, 60, 111, 161, 11, 187, 26])"
GPS_RAW_INT,2,0.009577793069183826,267050,0.651452362537384,0.002628801856189966,0.008431040681898594,-0.7586381435394287,-0.0015979454619809985,0.014914157800376415,-0.008256050758063793,"[0.0, 0.0, 0.0, 0.0]",0.054199449717998505,0.6783074736595154,0.0,6.541610491694883e-05,0.00042817392386496067,0.0,267058009,3,0,0,0,65535,65535,0,0,255,0,0,0,0,0,0,10,0,192,0,3,3,"array('B', [253, 32, 0, 0, 1, 1, 0, 1, 31, 0, 0, 103, 214, 3, 0, 38, 173, 38, 63, 198, 119, 13, 59, 17, 241, 20, 60, 175, 74, 66, 191, 226, 67, 183, 187, 141, 183, 120, 60, 111, 161, 11, 187, 26])"
RAW_RPM,0,-0.0007669904152862728,267050,0.651452362537384,0.002628801856189966,0.008431040681898594,-0.7586381435394287,-0.0015979454619809985,0.014914157800376415,-0.008256050758063793,"[0.0, 0.0, 0.0, 0.0]",0.054199449717998505,0.6783074736595154,0.0,6.541610491694883e-05,0.00042817392386496067,0.0,267058009,3,0,0,0,65535,65535,0,0,255,0,0,0,0,0,0,10,0,192,0,3,3,"array('B', [253, 32, 0, 0, 1, 1, 0, 1, 31, 0, 0, 103, 214, 3, 0, 38, 173, 38, 63, 198, 119, 13, 59, 17, 241, 20, 60, 175, 74, 66, 191, 226, 67, 183, 187, 141, 183, 120, 60, 111, 161, 11, 187, 26])"
RAW_RPM,1,0.0003834952076431364,267050,0.651452362537384,0.002628801856189966,0.008431040681898594,-0.7586381435394287,-0.0015979454619809985,0.014914157800376415,-0.008256050758063793,"[0.0, 0.0, 0.0, 0.0]",0.054199449717998505,0.6783074736595154,0.0,6.541610491694883e-05,0.00042817392386496067,0.0,267058009,3,0,0,0,65535,65535,0,0,255,0,0,0,0,0,0,10,0,192,0,3,3,"array('B', [253, 32, 0, 0, 1, 1, 0, 1, 31, 0, 0, 103, 214, 3, 0, 38, 173, 38, 63, 198, 119, 13, 59, 17, 241, 20, 60, 175, 74, 66, 191, 226, 67, 183, 187, 141, 183, 120, 60, 111, 161, 11, 187, 26])"
RAW_RPM,2,0.009318933822214603,267050,0.651452362537384,0.002628801856189966,0.008431040681898594,-0.7586381435394287,-0.0015979454619809985,0.014914157800376415,-0.008256050758063793,"[0.0, 0.0, 0.0, 0.0]",0.054199449717998505,0.6783074736595154,0.0,6.541610491694883e-05,0.00042817392386496067,0.0,267058009,3,0,0,0,65535,65535,0,0,255,0,0,0,0,0,0,10,0,192,0,3,3,"array('B', [253, 32, 0, 0, 1, 1, 0, 1, 31, 0, 0, 103, 214, 3, 0, 38, 173, 38, 63, 198, 119, 13, 59, 17, 241, 20, 60, 175, 74, 66, 191, 226, 67, 183, 187, 141, 183, 120, 60, 111, 161, 11, 187, 26])"
ATTITUDE_QUATERNION,2,0.009318933822214603,267101,0.651509702205658,0.002212358871474862,0.008236945606768131,-0.7585923075675964,-0.0034622149541974068,0.014115184545516968,-0.009853996336460114,"[0.0, 0.0, 0.0, 0.0]",0.054199449717998505,0.6783074736595154,0.0,6.541610491694883e-05,0.00042817392386496067,0.0,267058009,3,0,0,0,65535,65535,0,0,255,0,0,0,0,0,0,10,0,192,0,3,3,"array('B', [253, 32, 0, 0, 1, 1, 0, 1, 31, 0, 0, 103, 214, 3, 0, 38, 173, 38, 63, 198, 119, 13, 59, 17, 241, 20, 60, 175, 74, 66, 191, 226, 67, 183, 187, 141, 183, 120, 60, 111, 161, 11, 187, 26])"
LOCAL_POSITION_NED,2,0.009318933822214603,267101,0.651509702205658,0.002212358871474862,0.008236945606768131,-0.7585923075675964,-0.0034622149541974068,0.014115184545516968,-0.009853996336460114,"[0.0, 0.0, 0.0, 0.0]",0.05420207604765892,0.6783246397972107,0.0,6.72624955768697e-05,0.0004400628386065364,0.0,267058009,3,0,0,0,65535,65535,0,0,255,0,0,0,0,0,0,10,0,192,0,3,3,"array('B', [253, 32, 0, 0, 1, 1, 0, 1, 31, 0, 0, 103, 214, 3, 0, 38, 173, 38, 63, 198, 119, 13, 59, 17, 241, 20, 60, 175, 74, 66, 191, 226, 67, 183, 187, 141, 183, 120, 60, 111, 161, 11, 187, 26])"
RAW_RPM,0,0.0003834952076431364,267101,0.651509702205658,0.002212358871474862,0.008236945606768131,-0.7585923075675964,-0.0034622149541974068,0.014115184545516968,-0.009853996336460114,"[0.0, 0.0, 0.0, 0.0]",0.05420207604765892,0.6783246397972107,0.0,6.72624955768697e-05,0.0004400628386065364,0.0,267058009,3,0,0,0,65535,65535,0,0,255,0,0,0,0,0,0,10,0,192,0,3,3,"array('B', [253, 32, 0, 0, 1, 1, 0, 1, 31, 0, 0, 103, 214, 3, 0, 38, 173, 38, 63, 198, 119, 13, 59, 17, 241, 20, 60, 175, 74, 66, 191, 226, 67, 183, 187, 141, 183, 120, 60, 111, 161, 11, 187, 26])"
RAW_RPM,1,0.0003834952076431364,267101,0.651509702205658,0.002212358871474862,0.008236945606768131,-0.7585923075675964,-0.0034622149541974068,0.014115184545516968,-0.009853996336460114,"[0.0, 0.0, 0.0, 0.0]",0.05420207604765892,0.6783246397972107,0.0,6.72624955768697e-05,0.0004400628386065364,0.0,267058009,3,0,0,0,65535,65535,0,0,255,0,0,0,0,0,0,10,0,192,0,3,3,"array('B', [253, 32, 0, 0, 1, 1, 0, 1, 31, 0, 0, 103, 214, 3, 0, 38, 173, 38, 63, 198, 119, 13, 59, 17, 241, 20, 60, 175, 74, 66, 191, 226, 67, 183, 187, 141, 183, 120, 60, 111, 161, 11, 187, 26])"
RAW_RPM,2,0.009318933822214603,267101,0.651509702205658,0.002212358871474862,0.008236945606768131,-0.7585923075675964,-0.0034622149541974068,0.014115184545516968,-0.009853996336460114,"[0.0, 0.0, 0.0, 0.0]",0.05420207604765892,0.6783246397972107,0.0,6.72624955768697e-05,0.0004400628386065364,0.0,267058009,3,0,0,0,65535,65535,0,0,255,0,0,0,0,0,0,10,0,192,0,3,3,"array('B', [253, 32, 0, 0, 1, 1, 0, 1, 31, 0, 0, 103, 214, 3, 0, 38, 173, 38, 63, 198, 119, 13, 59, 17, 241, 20, 60, 175, 74, 66, 191, 226, 67, 183, 187, 141, 183, 120, 60, 111, 161, 11, 187, 26])"
ATTITUDE_QUATERNION,2,0.009318933822214603,267152,0.6514047384262085,0.002305051777511835,0.008068455383181572,-0.7586840987205505,-0.007989726960659027,0.013316212221980095,-0.008522375486791134,"[0.0, 0.0, 0.0, 0.0]",0.05420207604765892,0.6783246397972107,0.0,6.72624955768697e-05,0.0004400628386065364,0.0,267058009,3,0,0,0,65535,65535,0,0,255,0,0,0,0,0,0,10,0,192,0,3,3,"array('B', [253, 32, 0, 0, 1, 1, 0, 1, 31, 0, 0, 103, 214, 3, 0, 38, 173, 38, 63, 198, 119, 13, 59, 17, 241, 20, 60, 175, 74, 66, 191, 226, 67, 183, 187, 141, 183, 120, 60, 111, 161, 11, 187, 26])"
LOCAL_POSITION_NED,2,0.009318933822214603,267152,0.6514047384262085,0.002305051777511835,0.008068455383181572,-0.7586840987205505,-0.007989726960659027,0.013316212221980095,-0.008522375486791134,"[0.0, 0.0, 0.0, 0.0]",0.05420510843396187,0.6783444881439209,0.0,3.3635667932685465e-05,0.00022003073536325246,0.0,267058009,3,0,0,0,65535,65535,0,0,255,0,0,0,0,0,0,10,0,192,0,3,3,"array('B', [253, 32, 0, 0, 1, 1, 0, 1, 31, 0, 0, 103, 214, 3, 0, 38, 173, 38, 63, 198, 119, 13, 59, 17, 241, 20, 60, 175, 74, 66, 191, 226, 67, 183, 187, 141, 183, 120, 60, 111, 161, 11, 187, 26])"
GPS_RAW_INT,2,0.009318933822214603,267152,0.6514047384262085,0.002305051777511835,0.008068455383181572,-0.7586840987205505,-0.007989726960659027,0.013316212221980095,-0.008522375486791134,"[0.0, 0.0, 0.0, 0.0]",0.05420510843396187,0.6783444881439209,0.0,3.3635667932685465e-05,0.00022003073536325246,0.0,267159002,3,0,0,0,65535,65535,0,0,255,0,0,0,0,0,0,10,0,192,0,3,3,"array('B', [253, 32, 0, 0, 1, 1, 0, 1, 31, 0, 0, 103, 214, 3, 0, 38, 173, 38, 63, 198, 119, 13, 59, 17, 241, 20, 60, 175, 74, 66, 191, 226, 67, 183, 187, 141, 183, 120, 60, 111, 161, 11, 187, 26])"
RAW_RPM,0,0.0011504855938255787,267152,0.6514047384262085,0.002305051777511835,0.008068455383181572,-0.7586840987205505,-0.007989726960659027,0.013316212221980095,-0.008522375486791134,"[0.0, 0.0, 0.0, 0.0]",0.05420510843396187,0.6783444881439209,0.0,3.3635667932685465e-05,0.00022003073536325246,0.0,267159002,3,0,0,0,65535,65535,0,0,255,0,0,0,0,0,0,10,0,192,0,3,3,"array('B', [253, 32, 0, 0, 1, 1, 0, 1, 31, 0, 0, 103, 214, 3, 0, 38, 173, 38, 63, 198, 119, 13, 59, 17, 241, 20, 60, 175, 74, 66, 191, 226, 67, 183, 187, 141, 183, 120, 60, 111, 161, 11, 187, 26])"
RAW_RPM,1,-0.0007669904152862728,267152,0.6514047384262085,0.002305051777511835,0.008068455383181572,-0.7586840987205505,-0.007989726960659027,0.013316212221980095,-0.008522375486791134,"[0.0, 0.0, 0.0, 0.0]",0.05420510843396187,0.6783444881439209,0.0,3.3635667932685465e-05,0.00022003073536325246,0.0,267159002,3,0,0,0,65535,65535,0,0,255,0,0,0,0,0,0,10,0,192,0,3,3,"array('B', [253, 32, 0, 0, 1, 1, 0, 1, 31, 0, 0, 103, 214, 3, 0, 38, 173, 38, 63, 198, 119, 13, 59, 17, 241, 20, 60, 175, 74, 66, 191, 226, 67, 183, 187, 141, 183, 120, 60, 111, 161, 11, 187, 26])"
RAW_RPM,2,0.009318933822214603,267152,0.6514047384262085,0.002305051777511835,0.008068455383181572,-0.7586840987205505,-0.007989726960659027,0.013316212221980095,-0.008522375486791134,"[0.0, 0.0, 0.0, 0.0]",0.05420510843396187,0.6783444881439209,0.0,3.3635667932685465e-05,0.00022003073536325246,0.0,267159002,3,0,0,0,65535,65535,0,0,255,0,0,0,0,0,0,10,0,192,0,3,3,"array('B', [253, 32, 0, 0, 1, 1, 0, 1, 31, 0, 0, 103, 214, 3, 0, 38, 173, 38, 63, 198, 119, 13, 59, 17, 241, 20, 60, 175, 74, 66, 191, 226, 67, 183, 187, 141, 183, 120, 60, 111, 161, 11, 187, 26])"
ATTITUDE_QUATERNION,2,0.009318933822214603,267203,0.6512747406959534,0.0019813498947769403,0.00747793260961771,-0.7588025331497192,-0.00026632423396222293,0.015979453921318054,-0.005326484329998493,"[0.0, 0.0, 0.0, 0.0]",0.05420510843396187,0.6783444881439209,0.0,3.3635667932685465e-05,0.00022003073536325246,0.0,267159002,3,0,0,0,65535,65535,0,0,255,0,0,0,0,0,0,10,0,192,0,3,3,"array('B', [253, 32, 0, 0, 1, 1, 0, 1, 31, 0, 0, 103, 214, 3, 0, 38, 173, 38, 63, 198, 119, 13, 59, 17, 241, 20, 60, 175, 74, 66, 191, 226, 67, 183, 187, 141, 183, 120, 60, 111, 161, 11, 187, 26])"
LOCAL_POSITION_NED,2,0.009318933822214603,267203,0.6512747406959534,0.0019813498947769403,0.00747793260961771,-0.7588025331497192,-0.00026632423396222293,0.015979453921318054,-0.005326484329998493,"[0.0, 0.0, 0.0, 0.0]",0.054207153618335724,0.6783578395843506,0.0,3.376421227585524e-05,0.00022001104662194848,0.0,267159002,3,0,0,0,65535,65535,0,0,255,0,0,0,0,0,0,10,0,192,0,3,3,"array('B', [253, 32, 0, 0, 1, 1, 0, 1, 31, 0, 0, 103, 214, 3, 0, 38, 173, 38, 63, 198, 119, 13, 59, 17, 241, 20, 60, 175, 74, 66, 191, 226, 67, 183, 187, 141, 183, 120, 60, 111, 161, 11, 187, 26])"
RAW_RPM,0,-0.0007669904152862728,267203,0.6512747406959534,0.0019813498947769403,0.00747793260961771,-0.7588025331497192,-0.00026632423396222293,0.015979453921318054,-0.005326484329998493,"[0.0, 0.0, 0.0, 0.0]",0.054207153618335724,0.6783578395843506,0.0,3.376421227585524e-05,0.00022001104662194848,0.0,267159002,3,0,0,0,65535,65535,0,0,255,0,0,0,0,0,0,10,0,192,0,3,3,"array('B', [253, 32, 0, 0, 1, 1, 0, 1, 31, 0, 0, 103, 214, 3, 0, 38, 173, 38, 63, 198, 119, 13, 59, 17, 241, 20, 60, 175, 74, 66, 191, 226, 67, 183, 187, 141, 183, 120, 60, 111, 161, 11, 187, 26])"
RAW_RPM,1,-0.0007669904152862728,267203,0.6512747406959534,0.0019813498947769403,0.00747793260961771,-0.7588025331497192,-0.00026632423396222293,0.015979453921318054,-0.005326484329998493,"[0.0, 0.0, 0.0, 0.0]",0.054207153618335724,0.6783578395843506,0.0,3.376421227585524e-05,0.00022001104662194848,0.0,267159002,3,0,0,0,65535,65535,0,0,255,0,0,0,0,0,0,10,0,192,0,3,3,"array('B', [253, 32, 0, 0, 1, 1, 0, 1, 31, 0, 0, 103, 214, 3, 0, 38, 173, 38, 63, 198, 119, 13, 59, 17, 241, 20, 60, 175, 74, 66, 191, 226, 67, 183, 187, 141, 183, 120, 60, 111, 161, 11, 187, 26])"
RAW_RPM,2,0.009318933822214603,267203,0.6512747406959534,0.0019813498947769403,0.00747793260961771,-0.7588025331497192,-0.00026632423396222293,0.015979453921318054,-0.005326484329998493,"[0.0, 0.0, 0.0, 0.0]",0.054207153618335724,0.6783578395843506,0.0,3.376421227585524e-05,0.00022001104662194848,0.0,267159002,3,0,0,0,65535,65535,0,0,255,0,0,0,0,0,0,10,0,192,0,3,3,"array('B', [253, 32, 0, 0, 1, 1, 0, 1, 31, 0, 0, 103, 214, 3, 0, 38, 173, 38, 63, 198, 119, 13, 59, 17, 241, 20, 60, 175, 74, 66, 191, 226, 67, 183, 187, 141, 183, 120, 60, 111, 161, 11, 187, 26])"
ATTITUDE_QUATERNION,2,0.009318933822214603,267254,0.6513659358024597,0.002925847889855504,0.00863006804138422,-0.7587091326713562,-0.006391781847923994,0.011185618117451668,-0.0066581061109900475,"[0.0, 0.0, 0.0, 0.0]",0.054207153618335724,0.6783578395843506,0.0,3.376421227585524e-05,0.00022001104662194848,0.0,267159002,3,0,0,0,65535,65535,0,0,255,0,0,0,0,0,0,10,0,192,0,3,3,"array('B', [253, 32, 0, 0, 1, 1, 0, 1, 31, 0, 0, 103, 214, 3, 0, 38, 173, 38, 63, 198, 119, 13, 59, 17, 241, 20, 60, 175, 74, 66, 191, 226, 67, 183, 187, 141, 183, 120, 60, 111, 161, 11, 187, 26])"
LOCAL_POSITION_NED,2,0.009318933822214603,267255,0.6513659358024597,0.002925847889855504,0.00863006804138422,-0.7587091326713562,-0.006391781847923994,0.011185618117451668,-0.0066581061109900475,"[0.0, 0.0, 0.0, 0.0]",0.05420982092618942,0.678375244140625,0.0,6.746545113855973e-05,0.00044003178481943905,0.0,267159002,3,0,0,0,65535,65535,0,0,255,0,0,0,0,0,0,10,0,192,0,3,3,"array('B', [253, 32, 0, 0, 1, 1, 0, 1, 31, 0, 0, 103, 214, 3, 0, 38, 173, 38, 63, 198, 119, 13, 59, 17, 241, 20, 60, 175, 74, 66, 191, 226, 67, 183, 187, 141, 183, 120, 60, 111, 161, 11, 187, 26])"
GPS_RAW_INT,2,0.009318933822214603,267255,0.6513659358024597,0.002925847889855504,0.00863006804138422,-0.7587091326713562,-0.006391781847923994,0.011185618117451668,-0.0066581061109900475,"[0.0, 0.0, 0.0, 0.0]",0.05420982092618942,0.678375244140625,0.0,6.746545113855973e-05,0.00044003178481943905,0.0,267260004,3,0,0,0,65535,65535,0,0,255,0,0,0,0,0,0,10,0,192,0,3,3,"array('B', [253, 32, 0, 0, 1, 1, 0, 1, 31, 0, 0, 103, 214, 3, 0, 38, 173, 38, 63, 198, 119, 13, 59, 17, 241, 20, 60, 175, 74, 66, 191, 226, 67, 183, 187, 141, 183, 120, 60, 111, 161, 11, 187, 26])"
RAW_RPM,0,0.0007669904152862728,267255,0.6513659358024597,0.002925847889855504,0.00863006804138422,-0.7587091326713562,-0.006391781847923994,0.011185618117451668,-0.0066581061109900475,"[0.0, 0.0, 0.0, 0.0]",0.05420982092618942,0.678375244140625,0.0,6.746545113855973e-05,0.00044003178481943905,0.0,267260004,3,0,0,0,65535,65535,0,0,255,0,0,0,0,0,0,10,0,192,0,3,3,"array('B', [253, 32, 0, 0, 1, 1, 0, 1, 31, 0, 0, 103, 214, 3, 0, 38, 173, 38, 63, 198, 119, 13, 59, 17, 241, 20, 60, 175, 74, 66, 191, 226, 67, 183, 187, 141, 183, 120, 60, 111, 161, 11, 187, 26])"
RAW_RPM,1,0.0,267255,0.6513659358024597,0.002925847889855504,0.00863006804138422,-0.7587091326713562,-0.006391781847923994,0.011185618117451668,-0.0066581061109900475,"[0.0, 0.0, 0.0, 0.0]",0.05420982092618942,0.678375244140625,0.0,6.746545113855973e-05,0.00044003178481943905,0.0,267260004,3,0,0,0,65535,65535,0,0,255,0,0,0,0,0,0,10,0,192,0,3,3,"array('B', [253, 32, 0, 0, 1, 1, 0, 1, 31, 0, 0, 103, 214, 3, 0, 38, 173, 38, 63, 198, 119, 13, 59, 17, 241, 20, 60, 175, 74, 66, 191, 226, 67, 183, 187, 141, 183, 120, 60, 111, 161, 11, 187, 26])"
RAW_RPM,2,0.00906007457524538,267255,0.6513659358024597,0.002925847889855504,0.00863006804138422,-0.7587091326713562,-0.006391781847923994,0.011185618117451668,-0.0066581061109900475,"[0.0, 0.0, 0.0, 0.0]",0.05420982092618942,0.678375244140625,0.0,6.746545113855973e-05,0.00044003178481943905,0.0,267260004,3,0,0,0,65535,65535,0,0,255,0,0,0,0,0,0,10,0,192,0,3,3,"array('B', [253, 32, 0, 0, 1, 1, 0, 1, 31, 0, 0, 103, 214, 3, 0, 38, 173, 38, 63, 198, 119, 13, 59, 17, 241, 20, 60, 175, 74, 66, 191, 226, 67, 183, 187, 141, 183, 120, 60, 111, 161, 11, 187, 26])"
ATTITUDE_QUATERNION,2,0.00906007457524538,267305,0.6512699723243713,0.003258488606661558,0.008693518117070198,-0.7587893605232239,-0.005060160532593727,0.014914157800376415,-0.007989726960659027,"[0.0, 0.0, 0.0, 0.0]",0.05420982092618942,0.678375244140625,0.0,6.746545113855973e-05,0.00044003178481943905,0.0,267260004,3,0,0,0,65535,65535,0,0,255,0,0,0,0,0,0,10,0,192,0,3,3,"array('B', [253, 32, 0, 0, 1, 1, 0, 1, 31, 0, 0, 103, 214, 3, 0, 38, 173, 38, 63, 198, 119, 13, 59, 17, 241, 20, 60, 175, 74, 66, 191, 226, 67, 183, 187, 141, 183, 120, 60, 111, 161, 11, 187, 26])"
LOCAL_POSITION_NED,2,0.00906007457524538,267305,0.6512699723243713,0.003258488606661558,0.008693518117070198,-0.7587893605232239,-0.005060160532593727,0.014914157800376415,-0.007989726960659027,"[0.0, 0.0, 0.0, 0.0]",0.05421224236488342,0.6783910393714905,0.0,6.945821223780513e-05,0.00045259372564032674,0.0,267260004,3,0,0,0,65535,65535,0,0,255,0,0,0,0,0,0,10,0,192,0,3,3,"array('B', [253, 32, 0, 0, 1, 1, 0, 1, 31, 0, 0, 103, 214, 3, 0, 38, 173, 38, 63, 198, 119, 13, 59, 17, 241, 20, 60, 175, 74, 66, 191, 226, 67, 183, 187, 141, 183, 120, 60, 111, 161, 11, 187, 26])"
RAW_RPM,0,0.0003834952076431364,267305,0.6512699723243713,0.003258488606661558,0.008693518117070198,-0.7587893605232239,-0.005060160532593727,0.014914157800376415,-0.007989726960659027,"[0.0, 0.0, 0.0, 0.0]",0.05421224236488342,0.6783910393714905,0.0,6.945821223780513e-05,0.00045259372564032674,0.0,267260004,3,0,0,0,65535,65535,0,0,255,0,0,0,0,0,0,10,0,192,0,3,3,"array('B', [253, 32, 0, 0, 1, 1, 0, 1, 31, 0, 0, 103, 214, 3, 0, 38, 173, 38, 63, 198, 119, 13, 59, 17, 241, 20, 60, 175, 74, 66, 191, 226, 67, 183, 187, 141, 183, 120, 60, 111, 161, 11, 187, 26])"
RAW_RPM,1,0.0003834952076431364,267305,0.6512699723243713,0.003258488606661558,0.008693518117070198,-0.7587893605232239,-0.005060160532593727,0.014914157800376415,-0.007989726960659027,"[0.0, 0.0, 0.0, 0.0]",0.05421224236488342,0.6783910393714905,0.0,6.945821223780513e-05,0.00045259372564032674,0.0,267260004,3,0,0,0,65535,65535,0,0,255,0,0,0,0,0,0,10,0,192,0,3,3,"array('B', [253, 32, 0, 0, 1, 1, 0, 1, 31, 0, 0, 103, 214, 3, 0, 38, 173, 38, 63, 198, 119, 13, 59, 17, 241, 20, 60, 175, 74, 66, 191, 226, 67, 183, 187, 141, 183, 120, 60, 111, 161, 11, 187, 26])"
RAW_RPM,2,0.009318933822214603,267305,0.6512699723243713,0.003258488606661558,0.008693518117070198,-0.7587893605232239,-0.005060160532593727,0.014914157800376415,-0.007989726960659027,"[0.0, 0.0, 0.0, 0.0]",0.05421224236488342,0.6783910393714905,0.0,6.945821223780513e-05,0.00045259372564032674,0.0,267260004,3,0,0,0,65535,65535,0,0,255,0,0,0,0,0,0,10,0,192,0,3,3,"array('B', [253, 32, 0, 0, 1, 1, 0, 1, 31, 0, 0, 103, 214, 3, 0, 38, 173, 38, 63, 198, 119, 13, 59, 17, 241, 20, 60, 175, 74, 66, 191, 226, 67, 183, 187, 141, 183, 120, 60, 111, 161, 11, 187, 26])"
ATTITUDE_QUATERNION,2,0.009318933822214603,267356,0.6514367461204529,0.002814286155626178,0.008980713784694672,-0.7586446404457092,-0.0066581061109900475,0.013582535088062286,-0.0066581061109900475,"[0.0, 0.0, 0.0, 0.0]",0.05421224236488342,0.6783910393714905,0.0,6.945821223780513e-05,0.00045259372564032674,0.0,267260004,3,0,0,0,65535,65535,0,0,255,0,0,0,0,0,0,10,0,192,0,3,3,"array('B', [253, 32, 0, 0, 1, 1, 0, 1, 31, 0, 0, 103, 214, 3, 0, 38, 173, 38, 63, 198, 119, 13, 59, 17, 241, 20, 60, 175, 74, 66, 191, 226, 67, 183, 187, 141, 183, 120, 60, 111, 161, 11, 187, 26])"
LOCAL_POSITION_NED,2,0.009318933822214603,267356,0.6514367461204529,0.002814286155626178,0.008980713784694672,-0.7586446404457092,-0.0066581061109900475,0.013582535088062286,-0.0066581061109900475,"[0.0, 0.0, 0.0, 0.0]",0.05421563982963562,0.6784132122993469,0.0,6.739049422321841e-05,0.00044004322262480855,0.0,267260004,3,0,0,0,65535,65535,0,0,255,0,0,0,0,0,0,10,0,192,0,3,3,"array('B', [253, 32, 0, 0, 1, 1, 0, 1, 31, 0, 0, 103, 214, 3, 0, 38, 173, 38, 63, 198, 119, 13, 59, 17, 241, 20, 60, 175, 74, 66, 191, 226, 67, 183, 187, 141, 183, 120, 60, 111, 161, 11, 187, 26])"
GPS_RAW_INT,2,0.009318933822214603,267356,0.6514367461204529,0.002814286155626178,0.008980713784694672,-0.7586446404457092,-0.0066581061109900475,0.013582535088062286,-0.0066581061109900475,"[0.0, 0.0, 0.0, 0.0]",0.05421563982963562,0.6784132122993469,0.0,6.739049422321841e-05,0.00044004322262480855,0.0,267361003,3,0,0,0,65535,65535,0,0,255,0,0,0,0,0,0,10,0,192,0,3,3,"array('B', [253, 32, 0, 0, 1, 1, 0, 1, 31, 0, 0, 103, 214, 3, 0, 38, 173, 38, 63, 198, 119, 13, 59, 17, 241, 20, 60, 175, 74, 66, 191, 226, 67, 183, 187, 141, 183, 120, 60, 111, 161, 11, 187, 26])"
RAW_RPM,0,0.0007669904152862728,267356,0.6514367461204529,0.002814286155626178,0.008980713784694672,-0.7586446404457092,-0.0066581061109900475,0.013582535088062286,-0.0066581061109900475,"[0.0, 0.0, 0.0, 0.0]",0.05421563982963562,0.6784132122993469,0.0,6.739049422321841e-05,0.00044004322262480855,0.0,267361003,3,0,0,0,65535,65535,0,0,255,0,0,0,0,0,0,10,0,192,0,3,3,"array('B', [253, 32, 0, 0, 1, 1, 0, 1, 31, 0, 0, 103, 214, 3, 0, 38, 173, 38, 63, 198, 119, 13, 59, 17, 241, 20, 60, 175, 74, 66, 191, 226, 67, 183, 187, 141, 183, 120, 60, 111, 161, 11, 187, 26])"
RAW_RPM,1,0.0,267356,0.6514367461204529,0.002814286155626178,0.008980713784694672,-0.7586446404457092,-0.0066581061109900475,0.013582535088062286,-0.0066581061109900475,"[0.0, 0.0, 0.0, 0.0]",0.05421563982963562,0.6784132122993469,0.0,6.739049422321841e-05,0.00044004322262480855,0.0,267361003,3,0,0,0,65535,65535,0,0,255,0,0,0,0,0,0,10,0,192,0,3,3,"array('B', [253, 32, 0, 0, 1, 1, 0, 1, 31, 0, 0, 103, 214, 3, 0, 38, 173, 38, 63, 198, 119, 13, 59, 17, 241, 20, 60, 175, 74, 66, 191, 226, 67, 183, 187, 141, 183, 120, 60, 111, 161, 11, 187, 26])"
RAW_RPM,2,0.009318933822214603,267356,0.6514367461204529,0.002814286155626178,0.008980713784694672,-0.7586446404457092,-0.0066581061109900475,0.013582535088062286,-0.0066581061109900475,"[0.0, 0.0, 0.0, 0.0]",0.05421563982963562,0.6784132122993469,0.0,6.739049422321841e-05,0.00044004322262480855,0.0,267361003,3,0,0,0,65535,65535,0,0,255,0,0,0,0,0,0,10,0,192,0,3,3,"array('B', [253, 32, 0, 0, 1, 1, 0, 1, 31, 0, 0, 103, 214, 3, 0, 38, 173, 38, 63, 198, 119, 13, 59, 17, 241, 20, 60, 175, 74, 66, 191, 226, 67, 183, 187, 141, 183, 120, 60, 111, 161, 11, 187, 26])"
ATTITUDE_QUATERNION,2,0.009318933822214603,267407,0.6512850522994995,0.002817973494529724,0.008655925281345844,-0.7587786316871643,-0.0005326484679244459,0.012783563695847988,-0.011984591372311115,"[0.0, 0.0, 0.0, 0.0]",0.05421563982963562,0.6784132122993469,0.0,6.739049422321841e-05,0.00044004322262480855,0.0,267361003,3,0,0,0,65535,65535,0,0,255,0,0,0,0,0,0,10,0,192,0,3,3,"array('B', [253, 32, 0, 0, 1, 1, 0, 1, 31, 0, 0, 103, 214, 3, 0, 38, 173, 38, 63, 198, 119, 13, 59, 17, 241, 20, 60, 175, 74, 66, 191, 226, 67, 183, 187, 141, 183, 120, 60, 111, 161, 11, 187, 26])"
LOCAL_POSITION_NED,2,0.009318933822214603,267407,0.6512850522994995,0.002817973494529724,0.008655925281345844,-0.7587786316871643,-0.0005326484679244459,0.012783563695847988,-0.011984591372311115,"[0.0, 0.0, 0.0, 0.0]",0.05421901121735573,0.6784352660179138,0.0,6.739647506037727e-05,0.0004400423204060644,0.0,267361003,3,0,0,0,65535,65535,0,0,255,0,0,0,0,0,0,10,0,192,0,3,3,"array('B', [253, 32, 0, 0, 1, 1, 0, 1, 31, 0, 0, 103, 214, 3, 0, 38, 173, 38, 63, 198, 119, 13, 59, 17, 241, 20, 60, 175, 74, 66, 191, 226, 67, 183, 187, 141, 183, 120, 60, 111, 161, 11, 187, 26])"
RAW_RPM,0,-0.0003834952076431364,267407,0.6512850522994995,0.002817973494529724,0.008655925281345844,-0.7587786316871643,-0.0005326484679244459,0.012783563695847988,-0.011984591372311115,"[0.0, 0.0, 0.0, 0.0]",0.05421901121735573,0.6784352660179138,0.0,6.739647506037727e-05,0.0004400423204060644,0.0,267361003,3,0,0,0,65535,65535,0,0,255,0,0,0,0,0,0,10,0,192,0,3,3,"array('B', [253, 32, 0, 0, 1, 1, 0, 1, 31, 0, 0, 103, 214, 3, 0, 38, 173, 38, 63, 198, 119, 13, 59, 17, 241, 20, 60, 175, 74, 66, 191, 226, 67, 183, 187, 141, 183, 120, 60, 111, 161, 11, 187, 26])"
RAW_RPM,1,0.0003834952076431364,267407,0.6512850522994995,0.002817973494529724,0.008655925281345844,-0.7587786316871643,-0.0005326484679244459,0.012783563695847988,-0.011984591372311115,"[0.0, 0.0, 0.0, 0.0]",0.05421901121735573,0.6784352660179138,0.0,6.739647506037727e-05,0.0004400423204060644,0.0,267361003,3,0,0,0,65535,65535,0,0,255,0,0,0,0,0,0,10,0,192,0,3,3,"array('B', [253, 32, 0, 0, 1, 1, 0, 1, 31, 0, 0, 103, 214, 3, 0, 38, 173, 38, 63, 198, 119, 13, 59, 17, 241, 20, 60, 175, 74, 66, 191, 226, 67, 183, 187, 141, 183, 120, 60, 111, 161, 11, 187, 26])"
RAW_RPM,2,0.008542356081306934,267407,0.6512850522994995,0.002817973494529724,0.008655925281345844,-0.7587786316871643,-0.0005326484679244459,0.012783563695847988,-0.011984591372311115,"[0.0, 0.0, 0.0, 0.0]",0.05421901121735573,0.6784352660179138,0.0,6.739647506037727e-05,0.0004400423204060644,0.0,267361003,3,0,0,0,65535,65535,0,0,255,0,0,0,0,0,0,10,0,192,0,3,3,"array('B', [253, 32, 0, 0, 1, 1, 0, 1, 31, 0, 0, 103, 214, 3, 0, 38, 173, 38, 63, 198, 119, 13, 59, 17, 241, 20, 60, 175, 74, 66, 191, 226, 67, 183, 187, 141, 183, 120, 60, 111, 161, 11, 187, 26])"
ATTITUDE_QUATERNION,2,0.008542356081306934,267458,0.6511829495429993,0.0035380045883357525,0.008938506245613098,-0.7588599920272827,-0.0039948634803295135,0.015713129192590714,-0.003728539450094104,"[0.0, 0.0, 0.0, 0.0]",0.05421901121735573,0.6784352660179138,0.0,6.739647506037727e-05,0.0004400423204060644,0.0,267361003,3,0,0,0,65535,65535,0,0,255,0,0,0,0,0,0,10,0,192,0,3,3,"array('B', [253, 32, 0, 0, 1, 1, 0, 1, 31, 0, 0, 103, 214, 3, 0, 38, 173, 38, 63, 198, 119, 13, 59, 17, 241, 20, 60, 175, 74, 66, 191, 226, 67, 183, 187, 141, 183, 120, 60, 111, 161, 11, 187, 26])"
LOCAL_POSITION_NED,2,0.008542356081306934,267458,0.6511829495429993,0.0035380045883357525,0.008938506245613098,-0.7588599920272827,-0.0039948634803295135,0.015713129192590714,-0.003728539450094104,"[0.0, 0.0, 0.0, 0.0]",0.054222382605075836,0.6784572601318359,0.0,7.377554720733315e-05,0.00048000633250921965,0.0,267361003,3,0,0,0,65535,65535,0,0,255,0,0,0,0,0,0,10,0,192,0,3,3,"array('B', [253, 32, 0, 0, 1, 1, 0, 1, 31, 0, 0, 103, 214, 3, 0, 38, 173, 38, 63, 198, 119, 13, 59, 17, 241, 20, 60, 175, 74, 66, 191, 226, 67, 183, 187, 141, 183, 120, 60, 111, 161, 11, 187, 26])"
GPS_RAW_INT,2,0.008542356081306934,267458,0.6511829495429993,0.0035380045883357525,0.008938506245613098,-0.7588599920272827,-0.0039948634803295135,0.015713129192590714,-0.003728539450094104,"[0.0, 0.0, 0.0, 0.0]",0.054222382605075836,0.6784572601318359,0.0,7.377554720733315e-05,0.00048000633250921965,0.0,267462007,3,0,0,0,65535,65535,0,0,255,0,0,0,0,0,0,10,0,192,0,3,3,"array('B', [253, 32, 0, 0, 1, 1, 0, 1, 31, 0, 0, 103, 214, 3, 0, 38, 173, 38, 63, 198, 119, 13, 59, 17, 241, 20, 60, 175, 74, 66, 191, 226, 67, 183, 187, 141, 183, 120, 60, 111, 161, 11, 187, 26])"
RAW_RPM,0,0.0003834952076431364,267458,0.6511829495429993,0.0035380045883357525,0.008938506245613098,-0.7588599920272827,-0.0039948634803295135,0.015713129192590714,-0.003728539450094104,"[0.0, 0.0, 0.0, 0.0]",0.054222382605075836,0.6784572601318359,0.0,7.377554720733315e-05,0.00048000633250921965,0.0,267462007,3,0,0,0,65535,65535,0,0,255,0,0,0,0,0,0,10,0,192,0,3,3,"array('B', [253, 32, 0, 0, 1, 1, 0, 1, 31, 0, 0, 103, 214, 3, 0, 38, 173, 38, 63, 198, 119, 13, 59, 17, 241, 20, 60, 175, 74, 66, 191, 226, 67, 183, 187, 141, 183, 120, 60, 111, 161, 11, 187, 26])"
RAW_RPM,1,-0.0003834952076431364,267458,0.6511829495429993,0.0035380045883357525,0.008938506245613098,-0.7588599920272827,-0.0039948634803295135,0.015713129192590714,-0.003728539450094104,"[0.0, 0.0, 0.0, 0.0]",0.054222382605075836,0.6784572601318359,0.0,7.377554720733315e-05,0.00048000633250921965,0.0,267462007,3,0,0,0,65535,65535,0,0,255,0,0,0,0,0,0,10,0,192,0,3,3,"array('B', [253, 32, 0, 0, 1, 1, 0, 1, 31, 0, 0, 103, 214, 3, 0, 38, 173, 38, 63, 198, 119, 13, 59, 17, 241, 20, 60, 175, 74, 66, 191, 226, 67, 183, 187, 141, 183, 120, 60, 111, 161, 11, 187, 26])"
RAW_RPM,2,0.010095511563122272,267458,0.6511829495429993,0.0035380045883357525,0.008938506245613098,-0.7588599920272827,-0.0039948634803295135,0.015713129192590714,-0.003728539450094104,"[0.0, 0.0, 0.0, 0.0]",0.054222382605075836,0.6784572601318359,0.0,7.377554720733315e-05,0.00048000633250921965,0.0,267462007,3,0,0,0,65535,65535,0,0,255,0,0,0,0,0,0,10,0,192,0,3,3,"array('B', [253, 32, 0, 0, 1, 1, 0, 1, 31, 0, 0, 103, 214, 3, 0, 38, 173, 38, 63, 198, 119, 13, 59, 17, 241, 20, 60, 175, 74, 66, 191, 226, 67, 183, 187, 141, 183, 120, 60, 111, 161, 11, 187, 26])"
ATTITUDE_QUATERNION,2,0.010095511563122272,267509,0.6512454152107239,0.0035266405902802944,0.009187151677906513,-0.7588034868240356,-0.0026632421649992466,0.013582535088062286,-0.008256050758063793,"[0.0, 0.0, 0.0, 0.0]",0.054222382605075836,0.6784572601318359,0.0,7.377554720733315e-05,0.00048000633250921965,0.0,267462007,3,0,0,0,65535,65535,0,0,255,0,0,0,0,0,0,10,0,192,0,3,3,"array('B', [253, 32, 0, 0, 1, 1, 0, 1, 31, 0, 0, 103, 214, 3, 0, 38, 173, 38, 63, 198, 119, 13, 59, 17, 241, 20, 60, 175, 74, 66, 191, 226, 67, 183, 187, 141, 183, 120, 60, 111, 161, 11, 187, 26])"
LOCAL_POSITION_NED,2,0.010095511563122272,267509,0.6512454152107239,0.0035266405902802944,0.009187151677906513,-0.7588034868240356,-0.0026632421649992466,0.013582535088062286,-0.008256050758063793,"[0.0, 0.0, 0.0, 0.0]",0.05422573164105415,0.6784790754318237,0.0,6.23265586909838e-05,0.00040617637569084764,0.0,267462007,3,0,0,0,65535,65535,0,0,255,0,0,0,0,0,0,10,0,192,0,3,3,"array('B', [253, 32, 0, 0, 1, 1, 0, 1, 31, 0, 0, 103, 214, 3, 0, 38, 173, 38, 63, 198, 119, 13, 59, 17, 241, 20, 60, 175, 74, 66, 191, 226, 67, 183, 187, 141, 183, 120, 60, 111, 161, 11, 187, 26])"
RAW_RPM,0,0.0007669904152862728,267509,0.6512454152107239,0.0035266405902802944,0.009187151677906513,-0.7588034868240356,-0.0026632421649992466,0.013582535088062286,-0.008256050758063793,"[0.0, 0.0, 0.0, 0.0]",0.05422573164105415,0.6784790754318237,0.0,6.23265586909838e-05,0.00040617637569084764,0.0,267462007,3,0,0,0,65535,65535,0,0,255,0,0,0,0,0,0,10,0,192,0,3,3,"array('B', [253, 32, 0, 0, 1, 1, 0, 1, 31, 0, 0, 103, 214, 3, 0, 38, 173, 38, 63, 198, 119, 13, 59, 17, 241, 20, 60, 175, 74, 66, 191, 226, 67, 183, 187, 141, 183, 120, 60, 111, 161, 11, 187, 26])"
RAW_RPM,1,0.0007669904152862728,267509,0.6512454152107239,0.0035266405902802944,0.009187151677906513,-0.7588034868240356,-0.0026632421649992466,0.013582535088062286,-0.008256050758063793,"[0.0, 0.0, 0.0, 0.0]",0.05422573164105415,0.6784790754318237,0.0,6.23265586909838e-05,0.00040617637569084764,0.0,267462007,3,0,0,0,65535,65535,0,0,255,0,0,0,0,0,0,10,0,192,0,3,3,"array('B', [253, 32, 0, 0, 1, 1, 0, 1, 31, 0, 0, 103, 214, 3, 0, 38, 173, 38, 63, 198, 119, 13, 59, 17, 241, 20, 60, 175, 74, 66, 191, 226, 67, 183, 187, 141, 183, 120, 60, 111, 161, 11, 187, 26])"
RAW_RPM,2,0.008542356081306934,267509,0.6512454152107239,0.0035266405902802944,0.009187151677906513,-0.7588034868240356,-0.0026632421649992466,0.013582535088062286,-0.008256050758063793,"[0.0, 0.0, 0.0, 0.0]",0.05422573164105415,0.6784790754318237,0.0,6.23265586909838e-05,0.00040617637569084764,0.0,267462007,3,0,0,0,65535,65535,0,0,255,0,0,0,0,0,0,10,0,192,0,3,3,"array('B', [253, 32, 0, 0, 1, 1, 0, 1, 31, 0, 0, 103, 214, 3, 0, 38, 173, 38, 63, 198, 119, 13, 59, 17, 241, 20, 60, 175, 74, 66, 191, 226, 67, 183, 187, 141, 183, 120, 60, 111, 161, 11, 187, 26])"
ATTITUDE_QUATERNION,2,0.008542356081306934,267560,0.6511329412460327,0.0028827853966504335,0.00856598000973463,-0.7589098215103149,-0.0034622149541974068,0.011984591372311115,-0.005326484329998493,"[0.0, 0.0, 0.0, 0.0]",0.05422573164105415,0.6784790754318237,0.0,6.23265586909838e-05,0.00040617637569084764,0.0,267462007,3,0,0,0,65535,65535,0,0,255,0,0,0,0,0,0,10,0,192,0,3,3,"array('B', [253, 32, 0, 0, 1, 1, 0, 1, 31, 0, 0, 103, 214, 3, 0, 38, 173, 38, 63, 198, 119, 13, 59, 17, 241, 20, 60, 175, 74, 66, 191, 226, 67, 183, 187, 141, 183, 120, 60, 111, 161, 11, 187, 26])"
LOCAL_POSITION_NED,2,0.008542356081306934,267560,0.6511329412460327,0.0028827853966504335,0.00856598000973463,-0.7589098215103149,-0.0034622149541974068,0.011984591372311115,-0.005326484329998493,"[0.0, 0.0, 0.0, 0.0]",0.054228466004133224,0.6784968972206116,0.0,7.387791993096471e-05,0.000479990616440773,0.0,267462007,3,0,0,0,65535,65535,0,0,255,0,0,0,0,0,0,10,0,192,0,3,3,"array('B', [253, 32, 0, 0, 1, 1, 0, 1, 31, 0, 0, 103, 214, 3, 0, 38, 173, 38, 63, 198, 119, 13, 59, 17, 241, 20, 60, 175, 74, 66, 191, 226, 67, 183, 187, 141, 183, 120, 60, 111, 161, 11, 187, 26])"
GPS_RAW_INT,2,0.008542356081306934,267560,0.6511329412460327,0.0028827853966504335,0.00856598000973463,-0.7589098215103149,-0.0034622149541974068,0.011984591372311115,-0.005326484329998493,"[0.0, 0.0, 0.0, 0.0]",0.054228466004133224,0.6784968972206116,0.0,7.387791993096471e-05,0.000479990616440773,0.0,267563005,3,0,0,0,65535,65535,0,0,255,0,0,0,0,0,0,10,0,192,0,3,3,"array('B', [253, 32, 0, 0, 1, 1, 0, 1, 31, 0, 0, 103, 214, 3, 0, 38, 173, 38, 63, 198, 119, 13, 59, 17, 241, 20, 60, 175, 74, 66, 191, 226, 67, 183, 187, 141, 183, 120, 60, 111, 161, 11, 187, 26])"
RAW_RPM,0,0.0003834952076431364,267560,0.6511329412460327,0.0028827853966504335,0.00856598000973463,-0.7589098215103149,-0.0034622149541974068,0.011984591372311115,-0.005326484329998493,"[0.0, 0.0, 0.0, 0.0]",0.054228466004133224,0.6784968972206116,0.0,7.387791993096471e-05,0.000479990616440773,0.0,267563005,3,0,0,0,65535,65535,0,0,255,0,0,0,0,0,0,10,0,192,0,3,3,"array('B', [253, 32, 0, 0, 1, 1, 0, 1, 31, 0, 0, 103, 214, 3, 0, 38, 173, 38, 63, 198, 119, 13, 59, 17, 241, 20, 60, 175, 74, 66, 191, 226, 67, 183, 187, 141, 183, 120, 60, 111, 161, 11, 187, 26])"
RAW_RPM,1,0.0003834952076431364,267560,0.6511329412460327,0.0028827853966504335,0.00856598000973463,-0.7589098215103149,-0.0034622149541974068,0.011984591372311115,-0.005326484329998493,"[0.0, 0.0, 0.0, 0.0]",0.054228466004133224,0.6784968972206116,0.0,7.387791993096471e-05,0.000479990616440773,0.0,267563005,3,0,0,0,65535,65535,0,0,255,0,0,0,0,0,0,10,0,192,0,3,3,"array('B', [253, 32, 0, 0, 1, 1, 0, 1, 31, 0, 0, 103, 214, 3, 0, 38, 173, 38, 63, 198, 119, 13, 59, 17, 241, 20, 60, 175, 74, 66, 191, 226, 67, 183, 187, 141, 183, 120, 60, 111, 161, 11, 187, 26])"
RAW_RPM,2,0.009577793069183826,267560,0.6511329412460327,0.0028827853966504335,0.00856598000973463,-0.7589098215103149,-0.0034622149541974068,0.011984591372311115,-0.005326484329998493,"[0.0, 0.0, 0.0, 0.0]",0.054228466004133224,0.6784968972206116,0.0,7.387791993096471e-05,0.000479990616440773,0.0,267563005,3,0,0,0,65535,65535,0,0,255,0,0,0,0,0,0,10,0,192,0,3,3,"array('B', [253, 32, 0, 0, 1, 1, 0, 1, 31, 0, 0, 103, 214, 3, 0, 38, 173, 38, 63, 198, 119, 13, 59, 17, 241, 20, 60, 175, 74, 66, 191, 226, 67, 183, 187, 141, 183, 120, 60, 111, 161, 11, 187, 26])"
ATTITUDE_QUATERNION,2,0.009577793069183826,267611,0.6512042880058289,0.0028907535597682,0.008759413845837116,-0.7588464021682739,-0.0013316210824996233,0.010652968659996986,-0.005592809058725834,"[0.0, 0.0, 0.0, 0.0]",0.054228466004133224,0.6784968972206116,0.0,7.387791993096471e-05,0.000479990616440773,0.0,267563005,3,0,0,0,65535,65535,0,0,255,0,0,0,0,0,0,10,0,192,0,3,3,"array('B', [253, 32, 0, 0, 1, 1, 0, 1, 31, 0, 0, 103, 214, 3, 0, 38, 173, 38, 63, 198, 119, 13, 59, 17, 241, 20, 60, 175, 74, 66, 191, 226, 67, 183, 187, 141, 183, 120, 60, 111, 161, 11, 187, 26])"
LOCAL_POSITION_NED,2,0.009577793069183826,267611,0.6512042880058289,0.0028907535597682,0.008759413845837116,-0.7588464021682739,-0.0013316210824996233,0.010652968659996986,-0.005592809058725834,"[0.0, 0.0, 0.0, 0.0]",0.05423179268836975,0.6785185933113098,0.0,6.591923738596961e-05,0.0004280967405065894,0.0,267563005,3,0,0,0,65535,65535,0,0,255,0,0,0,0,0,0,10,0,192,0,3,3,"array('B', [253, 32, 0, 0, 1, 1, 0, 1, 31, 0, 0, 103, 214, 3, 0, 38, 173, 38, 63, 198, 119, 13, 59, 17, 241, 20, 60, 175, 74, 66, 191, 226, 67, 183, 187, 141, 183, 120, 60, 111, 161, 11, 187, 26])"
RAW_RPM,0,-0.0007669904152862728,267611,0.6512042880058289,0.0028907535597682,0.008759413845837116,-0.7588464021682739,-0.0013316210824996233,0.010652968659996986,-0.005592809058725834,"[0.0, 0.0, 0.0, 0.0]",0.05423179268836975,0.6785185933113098,0.0,6.591923738596961e-05,0.0004280967405065894,0.0,267563005,3,0,0,0,65535,65535,0,0,255,0,0,0,0,0,0,10,0,192,0,3,3,"array('B', [253, 32, 0, 0, 1, 1, 0, 1, 31, 0, 0, 103, 214, 3, 0, 38, 173, 38, 63, 198, 119, 13, 59, 17, 241, 20, 60, 175, 74, 66, 191, 226, 67, 183, 187, 141, 183, 120, 60, 111, 161, 11, 187, 26])"
RAW_RPM,1,0.0003834952076431364,267611,0.6512042880058289,0.0028907535597682,0.008759413845837116,-0.7588464021682739,-0.0013316210824996233,0.010652968659996986,-0.005592809058725834,"[0.0, 0.0, 0.0, 0.0]",0.05423179268836975,0.6785185933113098,0.0,6.591923738596961e-05,0.0004280967405065894,0.0,267563005,3,0,0,0,65535,65535,0,0,255,0,0,0,0,0,0,10,0,192,0,3,3,"array('B', [253, 32, 0, 0, 1, 1, 0, 1, 31, 0, 0, 103, 214, 3, 0, 38, 173, 38, 63, 198, 119, 13, 59, 17, 241, 20, 60, 175, 74, 66, 191, 226, 67, 183, 187, 141, 183, 120, 60, 111, 161, 11, 187, 26])"
RAW_RPM,2,0.009318933822214603,267611,0.6512042880058289,0.0028907535597682,0.008759413845837116,-0.7588464021682739,-0.0013316210824996233,0.010652968659996986,-0.005592809058725834,"[0.0, 0.0, 0.0, 0.0]",0.05423179268836975,0.6785185933113098,0.0,6.591923738596961e-05,0.0004280967405065894,0.0,267563005,3,0,0,0,65535,65535,0,0,255,0,0,0,0,0,0,10,0,192,0,3,3,"array('B', [253, 32, 0, 0, 1, 1, 0, 1, 31, 0, 0, 103, 214, 3, 0, 38, 173, 38, 63, 198, 119, 13, 59, 17, 241, 20, 60, 175, 74, 66, 191, 226, 67, 183, 187, 141, 183, 120, 60, 111, 161, 11, 187, 26])"
ATTITUDE_QUATERNION,2,0.009318933822214603,267662,0.651232898235321,0.0026758848689496517,0.00874559860676527,-0.7588228583335876,-0.007723402697592974,0.010386645793914795,-0.0066581061109900475,"[0.0, 0.0, 0.0, 0.0]",0.05423179268836975,0.6785185933113098,0.0,6.591923738596961e-05,0.0004280967405065894,0.0,267563005,3,0,0,0,65535,65535,0,0,255,0,0,0,0,0,0,10,0,192,0,3,3,"array('B', [253, 32, 0, 0, 1, 1, 0, 1, 31, 0, 0, 103, 214, 3, 0, 38, 173, 38, 63, 198, 119, 13, 59, 17, 241, 20, 60, 175, 74, 66, 191, 226, 67, 183, 187, 141, 183, 120, 60, 111, 161, 11, 187, 26])"
LOCAL_POSITION_NED,2,0.009318933822214603,267662,0.651232898235321,0.0026758848689496517,0.00874559860676527,-0.7588228583335876,-0.007723402697592974,0.010386645793914795,-0.0066581061109900475,"[0.0, 0.0, 0.0, 0.0]",0.054235171526670456,0.6785406470298767,0.0,6.753652996849269e-05,0.0004400208708830178,0.0,267563005,3,0,0,0,65535,65535,0,0,255,0,0,0,0,0,0,10,0,192,0,3,3,"array('B', [253, 32, 0, 0, 1, 1, 0, 1, 31, 0, 0, 103, 214, 3, 0, 38, 173, 38, 63, 198, 119, 13, 59, 17, 241, 20, 60, 175, 74, 66, 191, 226, 67, 183, 187, 141, 183, 120, 60, 111, 161, 11, 187, 26])"
GPS_RAW_INT,2,0.009318933822214603,267662,0.651232898235321,0.0026758848689496517,0.00874559860676527,-0.7588228583335876,-0.007723402697592974,0.010386645793914795,-0.0066581061109900475,"[0.0, 0.0, 0.0, 0.0]",0.054235171526670456,0.6785406470298767,0.0,6.753652996849269e-05,0.0004400208708830178,0.0,267664431,3,0,0,0,65535,65535,0,0,255,0,0,0,0,0,0,10,0,192,0,3,3,"array('B', [253, 32, 0, 0, 1, 1, 0, 1, 31, 0, 0, 103, 214, 3, 0, 38, 173, 38, 63, 198, 119, 13, 59, 17, 241, 20, 60, 175, 74, 66, 191, 226, 67, 183, 187, 141, 183, 120, 60, 111, 161, 11, 187, 26])"
