mavpackettype,time_boot_ms,port,chan1_raw,chan2_raw,chan3_raw,chan4_raw,chan5_raw,chan6_raw,chan7_raw,chan8_raw,rssi,time_usec,xacc,yacc,zacc,xgyro,ygyro,zgyro,xmag,ymag,zmag,id,temperature,chan1_scaled,chan2_scaled,chan3_scaled,chan4_scaled,chan5_scaled,chan6_scaled,chan7_scaled,chan8_scaled,fix_type,lat,lon,alt,eph,epv,vel,cog,satellites_visible,alt_ellipsoid,h_acc,v_acc,vel_acc,hdg_acc,yaw,type,autopilot,base_mode,custom_mode,system_status,mavlink_version
RC_CHANNELS_SCALED,475952,1,172,992,934,950,992,1811,992,1811,255,475952140,354,1032,16628,-37,78,-10,53,-107,-251,0,-384,-1,0,1,1568,-1,-1,-1,-1,3,369989920,-1220635963,0,65535,65535,3,0,255,0,0,0,0,0,0,10,0,192,0,3,3
GPS_RAW_INT,475952,1,172,992,934,950,992,1811,992,1811,255,475962006,354,1032,16628,-37,78,-10,53,-107,-251,0,-384,-1,0,1,1568,-1,-1,-1,-1,3,369989920,-1220635963,0,65535,65535,3,0,255,0,0,0,0,0,0,10,0,192,0,3,3
RC_CHANNELS_RAW,475972,0,172,992,934,950,992,1811,992,1811,255,475962006,354,1032,16628,-37,78,-10,53,-107,-251,0,-384,-1,0,1,1568,-1,-1,-1,-1,3,369989920,-1220635963,0,65535,65535,3,0,255,0,0,0,0,0,0,10,0,192,0,3,3
RAW_IMU,475972,0,172,992,934,950,992,1811,992,1811,255,475972144,378,940,16760,-31,75,-18,58,-112,-246,0,-272,-1,0,1,1568,-1,-1,-1,-1,3,369989920,-1220635963,0,65535,65535,3,0,255,0,0,0,0,0,0,10,0,192,0,3,3
RC_CHANNELS_SCALED,475972,1,172,992,934,950,992,1811,992,1811,255,475972144,378,940,16760,-31,75,-18,58,-112,-246,0,-272,6,2,0,1568,-1,-1,-1,-1,3,369989920,-1220635963,0,65535,65535,3,0,255,0,0,0,0,0,0,10,0,192,0,3,3
RC_CHANNELS_RAW,475992,0,172,992,934,950,992,1811,992,1811,255,475972144,378,940,16760,-31,75,-18,58,-112,-246,0,-272,6,2,0,1568,-1,-1,-1,-1,3,369989920,-1220635963,0,65535,65535,3,0,255,0,0,0,0,0,0,10,0,192,0,3,3
RAW_IMU,475992,0,172,992,934,950,992,1811,992,1811,255,475992141,397,1042,16675,-41,73,-4,61,-115,-248,0,-176,6,2,0,1568,-1,-1,-1,-1,3,369989920,-1220635963,0,65535,65535,3,0,255,0,0,0,0,0,0,10,0,192,0,3,3
RC_CHANNELS_SCALED,475992,1,172,992,934,950,992,1811,992,1811,255,475992141,397,1042,16675,-41,73,-4,61,-115,-248,0,-176,-3,2,-5,1564,-1,-1,-1,-1,3,369989920,-1220635963,0,65535,65535,3,0,255,0,0,0,0,0,0,10,0,192,0,3,3
HEARTBEAT,475992,1,172,992,934,950,992,1811,992,1811,255,475992141,397,1042,16675,-41,73,-4,61,-115,-248,0,-176,-3,2,-5,1564,-1,-1,-1,-1,3,369989920,-1220635963,0,65535,65535,3,0,255,0,0,0,0,0,0,10,0,192,0,3,3
RC_CHANNELS_RAW,476012,0,172,992,934,950,992,1811,992,1811,255,475992141,397,1042,16675,-41,73,-4,61,-115,-248,0,-176,-3,2,-5,1564,-1,-1,-1,-1,3,369989920,-1220635963,0,65535,65535,3,0,255,0,0,0,0,0,0,10,0,192,0,3,3
RAW_IMU,476012,0,172,992,934,950,992,1811,992,1811,255,476012147,452,1075,16677,-39,70,-22,52,-113,-247,0,-256,-3,2,-5,1564,-1,-1,-1,-1,3,369989920,-1220635963,0,65535,65535,3,0,255,0,0,0,0,0,0,10,0,192,0,3,3
RC_CHANNELS_SCALED,476012,1,172,992,934,950,992,1811,992,1811,255,476012147,452,1075,16677,-39,70,-22,52,-113,-247,0,-256,2,-1,-1,1568,-1,-1,-1,-1,3,369989920,-1220635963,0,65535,65535,3,0,255,0,0,0,0,0,0,10,0,192,0,3,3
RC_CHANNELS_RAW,476032,0,172,992,934,950,992,1811,992,1811,255,476012147,452,1075,16677,-39,70,-22,52,-113,-247,0,-256,2,-1,-1,1568,-1,-1,-1,-1,3,369989920,-1220635963,0,65535,65535,3,0,255,0,0,0,0,0,0,10,0,192,0,3,3
RAW_IMU,476032,0,172,992,934,950,992,1811,992,1811,255,476032149,340,1066,16689,-37,69,-27,65,-112,-246,0,-208,2,-1,-1,1568,-1,-1,-1,-1,3,369989920,-1220635963,0,65535,65535,3,0,255,0,0,0,0,0,0,10,0,192,0,3,3
RC_CHANNELS_SCALED,476032,1,172,992,934,950,992,1811,992,1811,255,476032149,340,1066,16689,-37,69,-27,65,-112,-246,0,-208,-2,-2,2,1568,-1,-1,-1,-1,3,369989920,-1220635963,0,65535,65535,3,0,255,0,0,0,0,0,0,10,0,192,0,3,3
RC_CHANNELS_RAW,476052,0,172,992,934,950,992,1811,992,1811,255,476032149,340,1066,16689,-37,69,-27,65,-112,-246,0,-208,-2,-2,2,1568,-1,-1,-1,-1,3,369989920,-1220635963,0,65535,65535,3,0,255,0,0,0,0,0,0,10,0,192,0,3,3
RAW_IMU,476052,0,172,992,934,950,992,1811,992,1811,255,476052144,392,983,16615,-27,67,-19,58,-102,-253,0,-288,-2,-2,2,1568,-1,-1,-1,-1,3,369989920,-1220635963,0,65535,65535,3,0,255,0,0,0,0,0,0,10,0,192,0,3,3
RC_CHANNELS_SCALED,476052,1,172,992,934,950,992,1811,992,1811,255,476052144,392,983,16615,-27,67,-19,58,-102,-253,0,-288,0,-2,2,1569,-1,-1,-1,-1,3,369989920,-1220635963,0,65535,65535,3,0,255,0,0,0,0,0,0,10,0,192,0,3,3
GPS_RAW_INT,476052,1,172,992,934,950,992,1811,992,1811,255,476063006,392,983,16615,-27,67,-19,58,-102,-253,0,-288,0,-2,2,1569,-1,-1,-1,-1,3,369989923,-1220635963,0,65535,65535,4,0,255,0,0,0,0,0,0,10,0,192,0,3,3
RC_CHANNELS_RAW,476072,0,172,992,934,950,992,1811,992,1811,255,476063006,392,983,16615,-27,67,-19,58,-102,-253,0,-288,0,-2,2,1569,-1,-1,-1,-1,3,369989923,-1220635963,0,65535,65535,4,0,255,0,0,0,0,0,0,10,0,192,0,3,3
RAW_IMU,476072,0,172,992,934,950,992,1811,992,1811,255,476072144,308,1006,16692,-45,61,-11,58,-102,-253,0,-256,0,-2,2,1569,-1,-1,-1,-1,3,369989923,-1220635963,0,65535,65535,4,0,255,0,0,0,0,0,0,10,0,192,0,3,3
RC_CHANNELS_SCALED,476072,1,172,992,934,950,992,1811,992,1811,255,476072144,308,1006,16692,-45,61,-11,58,-102,-253,0,-256,2,0,2,1568,-1,-1,-1,-1,3,369989923,-1220635963,0,65535,65535,4,0,255,0,0,0,0,0,0,10,0,192,0,3,3
RC_CHANNELS_RAW,476092,0,172,992,934,950,992,1811,992,1811,255,476072144,308,1006,16692,-45,61,-11,58,-102,-253,0,-256,2,0,2,1568,-1,-1,-1,-1,3,369989923,-1220635963,0,65535,65535,4,0,255,0,0,0,0,0,0,10,0,192,0,3,3
RAW_IMU,476092,0,172,992,934,950,992,1811,992,1811,255,476092141,389,1029,16647,-38,71,-19,60,-116,-247,0,-272,2,0,2,1568,-1,-1,-1,-1,3,369989923,-1220635963,0,65535,65535,4,0,255,0,0,0,0,0,0,10,0,192,0,3,3
RC_CHANNELS_SCALED,476092,1,172,992,934,950,992,1811,992,1811,255,476092141,389,1029,16647,-38,71,-19,60,-116,-247,0,-272,1,-5,-1,1567,-1,-1,-1,-1,3,369989923,-1220635963,0,65535,65535,4,0,255,0,0,0,0,0,0,10,0,192,0,3,3
RC_CHANNELS_RAW,476112,0,172,992,934,950,992,1811,992,1811,255,476092141,389,1029,16647,-38,71,-19,60,-116,-247,0,-272,1,-5,-1,1567,-1,-1,-1,-1,3,369989923,-1220635963,0,65535,65535,4,0,255,0,0,0,0,0,0,10,0,192,0,3,3
RAW_IMU,476112,0,172,992,934,950,992,1811,992,1811,255,476112143,432,1012,16659,-32,72,-23,54,-113,-255,0,-176,1,-5,-1,1567,-1,-1,-1,-1,3,369989923,-1220635963,0,65535,65535,4,0,255,0,0,0,0,0,0,10,0,192,0,3,3
RC_CHANNELS_SCALED,476112,1,172,992,934,950,992,1811,992,1811,255,476112143,432,1012,16659,-32,72,-23,54,-113,-255,0,-176,2,2,2,1568,-1,-1,-1,-1,3,369989923,-1220635963,0,65535,65535,4,0,255,0,0,0,0,0,0,10,0,192,0,3,3
RC_CHANNELS_RAW,476132,0,172,992,934,950,992,1811,992,1811,255,476112143,432,1012,16659,-32,72,-23,54,-113,-255,0,-176,2,2,2,1568,-1,-1,-1,-1,3,369989923,-1220635963,0,65535,65535,4,0,255,0,0,0,0,0,0,10,0,192,0,3,3
RAW_IMU,476132,0,172,992,934,950,992,1811,992,1811,255,476132143,344,969,16631,-35,67,-23,56,-110,-244,0,-288,2,2,2,1568,-1,-1,-1,-1,3,369989923,-1220635963,0,65535,65535,4,0,255,0,0,0,0,0,0,10,0,192,0,3,3
RC_CHANNELS_SCALED,476132,1,172,992,934,950,992,1811,992,1811,255,476132143,344,969,16631,-35,67,-23,56,-110,-244,0,-288,-1,4,1,1569,-1,-1,-1,-1,3,369989923,-1220635963,0,65535,65535,4,0,255,0,0,0,0,0,0,10,0,192,0,3,3
RC_CHANNELS_RAW,476152,0,172,992,934,950,992,1811,992,1811,255,476132143,344,969,16631,-35,67,-23,56,-110,-244,0,-288,-1,4,1,1569,-1,-1,-1,-1,3,369989923,-1220635963,0,65535,65535,4,0,255,0,0,0,0,0,0,10,0,192,0,3,3
RAW_IMU,476152,0,172,992,934,950,992,1811,992,1811,255,476152153,352,997,16668,-49,63,-28,61,-115,-248,0,-320,-1,4,1,1569,-1,-1,-1,-1,3,369989923,-1220635963,0,65535,65535,4,0,255,0,0,0,0,0,0,10,0,192,0,3,3
RC_CHANNELS_SCALED,476152,1,172,992,934,950,992,1811,992,1811,255,476152153,352,997,16668,-49,63,-28,61,-115,-248,0,-320,-1,-3,0,1568,-1,-1,-1,-1,3,369989923,-1220635963,0,65535,65535,4,0,255,0,0,0,0,0,0,10,0,192,0,3,3
GPS_RAW_INT,476152,1,172,992,934,950,992,1811,992,1811,255,476164007,352,997,16668,-49,63,-28,61,-115,-248,0,-320,-1,-3,0,1568,-1,-1,-1,-1,3,369989923,-1220635963,0,65535,65535,1,0,255,0,0,0,0,0,0,10,0,192,0,3,3
RC_CHANNELS_RAW,476172,0,172,992,934,950,992,1811,992,1811,255,476164007,352,997,16668,-49,63,-28,61,-115,-248,0,-320,-1,-3,0,1568,-1,-1,-1,-1,3,369989923,-1220635963,0,65535,65535,1,0,255,0,0,0,0,0,0,10,0,192,0,3,3
RAW_IMU,476172,0,172,992,934,950,992,1811,992,1811,255,476172145,408,1013,16703,-51,62,-16,54,-108,-252,0,-320,-1,-3,0,1568,-1,-1,-1,-1,3,369989923,-1220635963,0,65535,65535,1,0,255,0,0,0,0,0,0,10,0,192,0,3,3
RC_CHANNELS_SCALED,476172,1,172,992,934,950,992,1811,992,1811,255,476172145,408,1013,16703,-51,62,-16,54,-108,-252,0,-320,-1,-2,0,1568,-1,-1,-1,-1,3,369989923,-1220635963,0,65535,65535,1,0,255,0,0,0,0,0,0,10,0,192,0,3,3
RC_CHANNELS_RAW,476192,0,172,992,934,950,992,1811,992,1811,255,476172145,408,1013,16703,-51,62,-16,54,-108,-252,0,-320,-1,-2,0,1568,-1,-1,-1,-1,3,369989923,-1220635963,0,65535,65535,1,0,255,0,0,0,0,0,0,10,0,192,0,3,3
RAW_IMU,476192,0,172,992,934,950,992,1811,992,1811,255,476192141,329,987,16768,-42,67,-14,57,-113,-250,0,-224,-1,-2,0,1568,-1,-1,-1,-1,3,369989923,-1220635963,0,65535,65535,1,0,255,0,0,0,0,0,0,10,0,192,0,3,3
RC_CHANNELS_SCALED,476192,1,172,992,934,950,992,1811,992,1811,255,476192141,329,987,16768,-42,67,-14,57,-113,-250,0,-224,-3,-2,0,1568,-1,-1,-1,-1,3,369989923,-1220635963,0,65535,65535,1,0,255,0,0,0,0,0,0,10,0,192,0,3,3
RC_CHANNELS_RAW,476212,0,172,992,934,950,992,1811,992,1811,255,476192141,329,987,16768,-42,67,-14,57,-113,-250,0,-224,-3,-2,0,1568,-1,-1,-1,-1,3,369989923,-1220635963,0,65535,65535,1,0,255,0,0,0,0,0,0,10,0,192,0,3,3
RAW_IMU,476212,0,172,992,934,950,992,1811,992,1811,255,476212142,447,1060,16667,-39,67,-12,60,-113,-245,0,-320,-3,-2,0,1568,-1,-1,-1,-1,3,369989923,-1220635963,0,65535,65535,1,0,255,0,0,0,0,0,0,10,0,192,0,3,3
RC_CHANNELS_SCALED,476212,1,172,992,934,950,992,1811,992,1811,255,476212142,447,1060,16667,-39,67,-12,60,-113,-245,0,-320,-1,0,0,1569,-1,-1,-1,-1,3,369989923,-1220635963,0,65535,65535,1,0,255,0,0,0,0,0,0,10,0,192,0,3,3
RC_CHANNELS_RAW,476232,0,172,992,934,951,992,1811,992,1811,255,476212142,447,1060,16667,-39,67,-12,60,-113,-245,0,-320,-1,0,0,1569,-1,-1,-1,-1,3,369989923,-1220635963,0,65535,65535,1,0,255,0,0,0,0,0,0,10,0,192,0,3,3
RAW_IMU,476232,0,172,992,934,951,992,1811,992,1811,255,476232143,385,957,16671,-36,52,-23,60,-113,-245,0,-336,-1,0,0,1569,-1,-1,-1,-1,3,369989923,-1220635963,0,65535,65535,1,0,255,0,0,0,0,0,0,10,0,192,0,3,3
RC_CHANNELS_SCALED,476232,1,172,992,934,951,992,1811,992,1811,255,476232143,385,957,16671,-36,52,-23,60,-113,-245,0,-336,0,-1,1,1567,-1,-1,-1,-1,3,369989923,-1220635963,0,65535,65535,1,0,255,0,0,0,0,0,0,10,0,192,0,3,3
RC_CHANNELS_RAW,476252,0,172,992,934,950,992,1811,992,1811,255,476232143,385,957,16671,-36,52,-23,60,-113,-245,0,-336,0,-1,1,1567,-1,-1,-1,-1,3,369989923,-1220635963,0,65535,65535,1,0,255,0,0,0,0,0,0,10,0,192,0,3,3
RAW_IMU,476252,0,172,992,934,950,992,1811,992,1811,255,476252147,384,992,16712,-45,68,-20,54,-111,-255,0,-224,0,-1,1,1567,-1,-1,-1,-1,3,369989923,-1220635963,0,65535,65535,1,0,255,0,0,0,0,0,0,10,0,192,0,3,3
RC_CHANNELS_SCALED,476252,1,172,992,934,950,992,1811,992,1811,255,476252147,384,992,16712,-45,68,-20,54,-111,-255,0,-224,-2,-2,0,1569,-1,-1,-1,-1,3,369989923,-1220635963,0,65535,65535,1,0,255,0,0,0,0,0,0,10,0,192,0,3,3
GPS_RAW_INT,476252,1,172,992,934,950,992,1811,992,1811,255,476265006,384,992,16712,-45,68,-20,54,-111,-255,0,-224,-2,-2,0,1569,-1,-1,-1,-1,3,369989925,-1220635961,0,65535,65535,1,0,255,0,0,0,0,0,0,10,0,192,0,3,3
RC_CHANNELS_RAW,476272,0,172,992,934,950,992,1811,992,1811,255,476265006,384,992,16712,-45,68,-20,54,-111,-255,0,-224,-2,-2,0,1569,-1,-1,-1,-1,3,369989925,-1220635961,0,65535,65535,1,0,255,0,0,0,0,0,0,10,0,192,0,3,3
RAW_IMU,476272,0,172,992,934,950,992,1811,992,1811,255,476272149,386,947,16632,-29,69,-20,56,-115,-256,0,-352,-2,-2,0,1569,-1,-1,-1,-1,3,369989925,-1220635961,0,65535,65535,1,0,255,0,0,0,0,0,0,10,0,192,0,3,3
RC_CHANNELS_SCALED,476272,1,172,992,934,950,992,1811,992,1811,255,476272149,386,947,16632,-29,69,-20,56,-115,-256,0,-352,-7,0,0,1567,-1,-1,-1,-1,3,369989925,-1220635961,0,65535,65535,1,0,255,0,0,0,0,0,0,10,0,192,0,3,3
RC_CHANNELS_RAW,476292,0,172,992,934,950,992,1811,992,1811,255,476272149,386,947,16632,-29,69,-20,56,-115,-256,0,-352,-7,0,0,1567,-1,-1,-1,-1,3,369989925,-1220635961,0,65535,65535,1,0,255,0,0,0,0,0,0,10,0,192,0,3,3
RAW_IMU,476292,0,172,992,934,950,992,1811,992,1811,255,476292145,364,1009,16663,-33,57,-33,58,-119,-248,0,-256,-7,0,0,1567,-1,-1,-1,-1,3,369989925,-1220635961,0,65535,65535,1,0,255,0,0,0,0,0,0,10,0,192,0,3,3
RC_CHANNELS_SCALED,476292,1,172,992,934,950,992,1811,992,1811,255,476292145,364,1009,16663,-33,57,-33,58,-119,-248,0,-256,-3,0,2,1569,-1,-1,-1,-1,3,369989925,-1220635961,0,65535,65535,1,0,255,0,0,0,0,0,0,10,0,192,0,3,3
RC_CHANNELS_RAW,476312,0,172,992,934,950,992,1811,992,1811,255,476292145,364,1009,16663,-33,57,-33,58,-119,-248,0,-256,-3,0,2,1569,-1,-1,-1,-1,3,369989925,-1220635961,0,65535,65535,1,0,255,0,0,0,0,0,0,10,0,192,0,3,3
RAW_IMU,476312,0,172,992,934,950,992,1811,992,1811,255,476312141,362,1003,16644,-53,62,-12,58,-119,-248,0,-224,-3,0,2,1569,-1,-1,-1,-1,3,369989925,-1220635961,0,65535,65535,1,0,255,0,0,0,0,0,0,10,0,192,0,3,3
RC_CHANNELS_SCALED,476312,1,172,992,934,950,992,1811,992,1811,255,476312141,362,1003,16644,-53,62,-12,58,-119,-248,0,-224,1,-1,1,1568,-1,-1,-1,-1,3,369989925,-1220635961,0,65535,65535,1,0,255,0,0,0,0,0,0,10,0,192,0,3,3
RC_CHANNELS_RAW,476332,0,172,992,934,950,992,1811,992,1811,255,476312141,362,1003,16644,-53,62,-12,58,-119,-248,0,-224,1,-1,1,1568,-1,-1,-1,-1,3,369989925,-1220635961,0,65535,65535,1,0,255,0,0,0,0,0,0,10,0,192,0,3,3
RAW_IMU,476332,0,172,992,934,950,992,1811,992,1811,255,476332142,343,1067,16688,-42,62,-14,52,-113,-247,0,-272,1,-1,1,1568,-1,-1,-1,-1,3,369989925,-1220635961,0,65535,65535,1,0,255,0,0,0,0,0,0,10,0,192,0,3,3
RC_CHANNELS_SCALED,476332,1,172,992,934,950,992,1811,992,1811,255,476332142,343,1067,16688,-42,62,-14,52,-113,-247,0,-272,-2,0,0,1569,-1,-1,-1,-1,3,369989925,-1220635961,0,65535,65535,1,0,255,0,0,0,0,0,0,10,0,192,0,3,3
RC_CHANNELS_RAW,476352,0,172,992,934,950,992,1811,992,1811,255,476332142,343,1067,16688,-42,62,-14,52,-113,-247,0,-272,-2,0,0,1569,-1,-1,-1,-1,3,369989925,-1220635961,0,65535,65535,1,0,255,0,0,0,0,0,0,10,0,192,0,3,3
RAW_IMU,476352,0,172,992,934,950,992,1811,992,1811,255,476352148,387,1020,16721,-39,80,-11,58,-112,-253,0,-224,-2,0,0,1569,-1,-1,-1,-1,3,369989925,-1220635961,0,65535,65535,1,0,255,0,0,0,0,0,0,10,0,192,0,3,3
RC_CHANNELS_SCALED,476352,1,172,992,934,950,992,1811,992,1811,255,476352148,387,1020,16721,-39,80,-11,58,-112,-253,0,-224,3,-1,-2,1566,-1,-1,-1,-1,3,369989925,-1220635961,0,65535,65535,1,0,255,0,0,0,0,0,0,10,0,192,0,3,3
GPS_RAW_INT,476352,1,172,992,934,950,992,1811,992,1811,255,476366007,387,1020,16721,-39,80,-11,58,-112,-253,0,-224,3,-1,-2,1566,-1,-1,-1,-1,3,369989926,-1220635961,0,65535,65535,0,0,255,0,0,0,0,0,0,10,0,192,0,3,3
RC_CHANNELS_RAW,476372,0,172,992,934,950,992,1811,992,1811,255,476366007,387,1020,16721,-39,80,-11,58,-112,-253,0,-224,3,-1,-2,1566,-1,-1,-1,-1,3,369989926,-1220635961,0,65535,65535,0,0,255,0,0,0,0,0,0,10,0,192,0,3,3
RAW_IMU,476372,0,172,992,934,950,992,1811,992,1811,255,476372142,397,976,16678,-37,76,-16,58,-122,-253,0,-320,3,-1,-2,1566,-1,-1,-1,-1,3,369989926,-1220635961,0,65535,65535,0,0,255,0,0,0,0,0,0,10,0,192,0,3,3
RC_CHANNELS_SCALED,476372,1,172,992,934,950,992,1811,992,1811,255,476372142,397,976,16678,-37,76,-16,58,-122,-253,0,-320,-2,2,-2,1568,-1,-1,-1,-1,3,369989926,-1220635961,0,65535,65535,0,0,255,0,0,0,0,0,0,10,0,192,0,3,3
RC_CHANNELS_RAW,476392,0,172,992,934,950,992,1811,992,1811,255,476372142,397,976,16678,-37,76,-16,58,-122,-253,0,-320,-2,2,-2,1568,-1,-1,-1,-1,3,369989926,-1220635961,0,65535,65535,0,0,255,0,0,0,0,0,0,10,0,192,0,3,3
RAW_IMU,476392,0,172,992,934,950,992,1811,992,1811,255,476392145,386,980,16671,-29,67,-19,60,-111,-247,0,-208,-2,2,-2,1568,-1,-1,-1,-1,3,369989926,-1220635961,0,65535,65535,0,0,255,0,0,0,0,0,0,10,0,192,0,3,3
RC_CHANNELS_SCALED,476392,1,172,992,934,950,992,1811,992,1811,255,476392145,386,980,16671,-29,67,-19,60,-111,-247,0,-208,2,2,0,1568,-1,-1,-1,-1,3,369989926,-1220635961,0,65535,65535,0,0,255,0,0,0,0,0,0,10,0,192,0,3,3
RC_CHANNELS_RAW,476412,0,172,992,934,950,992,1811,992,1811,255,476392145,386,980,16671,-29,67,-19,60,-111,-247,0,-208,2,2,0,1568,-1,-1,-1,-1,3,369989926,-1220635961,0,65535,65535,0,0,255,0,0,0,0,0,0,10,0,192,0,3,3
RAW_IMU,476412,0,172,992,934,950,992,1811,992,1811,255,476412149,308,1010,16665,-51,71,-25,57,-121,-242,0,-352,2,2,0,1568,-1,-1,-1,-1,3,369989926,-1220635961,0,65535,65535,0,0,255,0,0,0,0,0,0,10,0,192,0,3,3
RC_CHANNELS_SCALED,476412,1,172,992,934,950,992,1811,992,1811,255,476412149,308,1010,16665,-51,71,-25,57,-121,-242,0,-352,2,3,-1,1567,-1,-1,-1,-1,3,369989926,-1220635961,0,65535,65535,0,0,255,0,0,0,0,0,0,10,0,192,0,3,3
RC_CHANNELS_RAW,476432,0,172,992,934,950,992,1811,992,1811,255,476412149,308,1010,16665,-51,71,-25,57,-121,-242,0,-352,2,3,-1,1567,-1,-1,-1,-1,3,369989926,-1220635961,0,65535,65535,0,0,255,0,0,0,0,0,0,10,0,192,0,3,3
RAW_IMU,476432,0,172,992,934,950,992,1811,992,1811,255,476432140,407,1058,16646,-31,74,-22,60,-104,-252,0,-224,2,3,-1,1567,-1,-1,-1,-1,3,369989926,-1220635961,0,65535,65535,0,0,255,0,0,0,0,0,0,10,0,192,0,3,3
RC_CHANNELS_SCALED,476432,1,172,992,934,950,992,1811,992,1811,255,476432140,407,1058,16646,-31,74,-22,60,-104,-252,0,-224,-1,-3,1,1569,-1,-1,-1,-1,3,369989926,-1220635961,0,65535,65535,0,0,255,0,0,0,0,0,0,10,0,192,0,3,3
RC_CHANNELS_RAW,476452,0,172,992,934,950,992,1811,992,1811,255,476432140,407,1058,16646,-31,74,-22,60,-104,-252,0,-224,-1,-3,1,1569,-1,-1,-1,-1,3,369989926,-1220635961,0,65535,65535,0,0,255,0,0,0,0,0,0,10,0,192,0,3,3
RAW_IMU,476452,0,172,992,934,950,992,1811,992,1811,255,476452142,345,976,16700,-44,68,-19,60,-116,-247,0,-256,-1,-3,1,1569,-1,-1,-1,-1,3,369989926,-1220635961,0,65535,65535,0,0,255,0,0,0,0,0,0,10,0,192,0,3,3
RC_CHANNELS_SCALED,476452,1,172,992,934,950,992,1811,992,1811,255,476452142,345,976,16700,-44,68,-19,60,-116,-247,0,-256,1,3,2,1568,-1,-1,-1,-1,3,369989926,-1220635961,0,65535,65535,0,0,255,0,0,0,0,0,0,10,0,192,0,3,3
GPS_RAW_INT,476452,1,172,992,934,950,992,1811,992,1811,255,476467006,345,976,16700,-44,68,-19,60,-116,-247,0,-256,1,3,2,1568,-1,-1,-1,-1,3,369989926,-1220635961,0,65535,65535,0,0,255,0,0,0,0,0,0,10,0,192,0,3,3
RC_CHANNELS_RAW,476472,0,172,992,934,950,992,1811,992,1811,255,476467006,345,976,16700,-44,68,-19,60,-116,-247,0,-256,1,3,2,1568,-1,-1,-1,-1,3,369989926,-1220635961,0,65535,65535,0,0,255,0,0,0,0,0,0,10,0,192,0,3,3
RAW_IMU,476472,0,172,992,934,950,992,1811,992,1811,255,476472146,413,984,16692,-35,74,-18,58,-107,-244,0,-208,1,3,2,1568,-1,-1,-1,-1,3,369989926,-1220635961,0,65535,65535,0,0,255,0,0,0,0,0,0,10,0,192,0,3,3
RC_CHANNELS_SCALED,476472,1,172,992,934,950,992,1811,992,1811,255,476472146,413,984,16692,-35,74,-18,58,-107,-244,0,-208,4,1,0,1569,-1,-1,-1,-1,3,369989926,-1220635961,0,65535,65535,0,0,255,0,0,0,0,0,0,10,0,192,0,3,3
RC_CHANNELS_RAW,476492,0,172,992,934,951,992,1811,992,1811,255,476472146,413,984,16692,-35,74,-18,58,-107,-244,0,-208,4,1,0,1569,-1,-1,-1,-1,3,369989926,-1220635961,0,65535,65535,0,0,255,0,0,0,0,0,0,10,0,192,0,3,3
RAW_IMU,476492,0,172,992,934,951,992,1811,992,1811,255,476492142,402,994,16683,-45,70,-14,53,-115,-239,0,-256,4,1,0,1569,-1,-1,-1,-1,3,369989926,-1220635961,0,65535,65535,0,0,255,0,0,0,0,0,0,10,0,192,0,3,3
RC_CHANNELS_SCALED,476492,1,172,992,934,951,992,1811,992,1811,255,476492142,402,994,16683,-45,70,-14,53,-115,-239,0,-256,5,-1,-3,1566,-1,-1,-1,-1,3,369989926,-1220635961,0,65535,65535,0,0,255,0,0,0,0,0,0,10,0,192,0,3,3
RC_CHANNELS_RAW,476512,0,172,992,934,951,992,1811,992,1811,255,476492142,402,994,16683,-45,70,-14,53,-115,-239,0,-256,5,-1,-3,1566,-1,-1,-1,-1,3,369989926,-1220635961,0,65535,65535,0,0,255,0,0,0,0,0,0,10,0,192,0,3,3
RAW_IMU,476512,0,172,992,934,951,992,1811,992,1811,255,476512146,400,1037,16587,-42,76,-19,56,-115,-253,0,-272,5,-1,-3,1566,-1,-1,-1,-1,3,369989926,-1220635961,0,65535,65535,0,0,255,0,0,0,0,0,0,10,0,192,0,3,3
RC_CHANNELS_SCALED,476512,1,172,992,934,951,992,1811,992,1811,255,476512146,400,1037,16587,-42,76,-19,56,-115,-253,0,-272,-2,-1,-1,1568,-1,-1,-1,-1,3,369989926,-1220635961,0,65535,65535,0,0,255,0,0,0,0,0,0,10,0,192,0,3,3
RC_CHANNELS_RAW,476532,0,172,992,934,950,992,1811,992,1811,255,476512146,400,1037,16587,-42,76,-19,56,-115,-253,0,-272,-2,-1,-1,1568,-1,-1,-1,-1,3,369989926,-1220635961,0,65535,65535,0,0,255,0,0,0,0,0,0,10,0,192,0,3,3
RAW_IMU,476532,0,172,992,934,950,992,1811,992,1811,255,476532148,377,1020,16689,-52,65,-23,50,-117,-244,0,-208,-2,-1,-1,1568,-1,-1,-1,-1,3,369989926,-1220635961,0,65535,65535,0,0,255,0,0,0,0,0,0,10,0,192,0,3,3
RC_CHANNELS_SCALED,476532,1,172,992,934,950,992,1811,992,1811,255,476532148,377,1020,16689,-52,65,-23,50,-117,-244,0,-208,-4,-2,-2,1567,-1,-1,-1,-1,3,369989926,-1220635961,0,65535,65535,0,0,255,0,0,0,0,0,0,10,0,192,0,3,3
RC_CHANNELS_RAW,476552,0,172,992,934,950,992,1811,992,1811,255,476532148,377,1020,16689,-52,65,-23,50,-117,-244,0,-208,-4,-2,-2,1567,-1,-1,-1,-1,3,369989926,-1220635961,0,65535,65535,0,0,255,0,0,0,0,0,0,10,0,192,0,3,3
RAW_IMU,476552,0,172,992,934,950,992,1811,992,1811,255,476552144,407,941,16686,-39,87,-11,62,-108,-255,0,-352,-4,-2,-2,1567,-1,-1,-1,-1,3,369989926,-1220635961,0,65535,65535,0,0,255,0,0,0,0,0,0,10,0,192,0,3,3
RC_CHANNELS_SCALED,476552,1,172,992,934,950,992,1811,992,1811,255,476552144,407,941,16686,-39,87,-11,62,-108,-255,0,-352,1,1,0,1569,-1,-1,-1,-1,3,369989926,-1220635961,0,65535,65535,0,0,255,0,0,0,0,0,0,10,0,192,0,3,3
GPS_RAW_INT,476552,1,172,992,934,950,992,1811,992,1811,255,476568009,407,941,16686,-39,87,-11,62,-108,-255,0,-352,1,1,0,1569,-1,-1,-1,-1,3,369989926,-1220635960,0,65535,65535,4,0,255,0,0,0,0,0,0,10,0,192,0,3,3
RC_CHANNELS_RAW,476572,0,172,992,934,950,992,1811,992,1811,255,476568009,407,941,16686,-39,87,-11,62,-108,-255,0,-352,1,1,0,1569,-1,-1,-1,-1,3,369989926,-1220635960,0,65535,65535,4,0,255,0,0,0,0,0,0,10,0,192,0,3,3
RAW_IMU,476572,0,172,992,934,950,992,1811,992,1811,255,476572141,344,955,16718,-46,72,-9,46,-111,-252,0,-272,1,1,0,1569,-1,-1,-1,-1,3,369989926,-1220635960,0,65535,65535,4,0,255,0,0,0,0,0,0,10,0,192,0,3,3
RC_CHANNELS_SCALED,476572,1,172,992,934,950,992,1811,992,1811,255,476572141,344,955,16718,-46,72,-9,46,-111,-252,0,-272,-4,-1,-3,1566,-1,-1,-1,-1,3,369989926,-1220635960,0,65535,65535,4,0,255,0,0,0,0,0,0,10,0,192,0,3,3
RC_CHANNELS_RAW,476592,0,172,992,934,950,992,1811,992,1811,255,476572141,344,955,16718,-46,72,-9,46,-111,-252,0,-272,-4,-1,-3,1566,-1,-1,-1,-1,3,369989926,-1220635960,0,65535,65535,4,0,255,0,0,0,0,0,0,10,0,192,0,3,3
RAW_IMU,476592,0,172,992,934,950,992,1811,992,1811,255,476592143,409,960,16778,-35,69,-33,49,-113,-252,0,-320,-4,-1,-3,1566,-1,-1,-1,-1,3,369989926,-1220635960,0,65535,65535,4,0,255,0,0,0,0,0,0,10,0,192,0,3,3
RC_CHANNELS_SCALED,476592,1,172,992,934,950,992,1811,992,1811,255,476592143,409,960,16778,-35,69,-33,49,-113,-252,0,-320,-1,1,-3,1568,-1,-1,-1,-1,3,369989926,-1220635960,0,65535,65535,4,0,255,0,0,0,0,0,0,10,0,192,0,3,3
RC_CHANNELS_RAW,476612,0,172,992,934,950,992,1811,992,1811,255,476592143,409,960,16778,-35,69,-33,49,-113,-252,0,-320,-1,1,-3,1568,-1,-1,-1,-1,3,369989926,-1220635960,0,65535,65535,4,0,255,0,0,0,0,0,0,10,0,192,0,3,3
RAW_IMU,476612,0,172,992,934,950,992,1811,992,1811,255,476612140,368,983,16622,-42,69,-20,56,-115,-253,0,-176,-1,1,-3,1568,-1,-1,-1,-1,3,369989926,-1220635960,0,65535,65535,4,0,255,0,0,0,0,0,0,10,0,192,0,3,3
RC_CHANNELS_SCALED,476612,1,172,992,934,950,992,1811,992,1811,255,476612140,368,983,16622,-42,69,-20,56,-115,-253,0,-176,5,3,0,1569,-1,-1,-1,-1,3,369989926,-1220635960,0,65535,65535,4,0,255,0,0,0,0,0,0,10,0,192,0,3,3
RC_CHANNELS_RAW,476632,0,172,992,934,950,992,1811,992,1811,255,476612140,368,983,16622,-42,69,-20,56,-115,-253,0,-176,5,3,0,1569,-1,-1,-1,-1,3,369989926,-1220635960,0,65535,65535,4,0,255,0,0,0,0,0,0,10,0,192,0,3,3
RAW_IMU,476632,0,172,992,934,950,992,1811,992,1811,255,476632144,407,986,16646,-47,74,-9,57,-108,-242,0,-288,5,3,0,1569,-1,-1,-1,-1,3,369989926,-1220635960,0,65535,65535,4,0,255,0,0,0,0,0,0,10,0,192,0,3,3
RC_CHANNELS_SCALED,476632,1,172,992,934,950,992,1811,992,1811,255,476632144,407,986,16646,-47,74,-9,57,-108,-242,0,-288,1,2,0,1568,-1,-1,-1,-1,3,369989926,-1220635960,0,65535,65535,4,0,255,0,0,0,0,0,0,10,0,192,0,3,3
RC_CHANNELS_RAW,476652,0,172,992,934,950,992,1811,992,1811,255,476632144,407,986,16646,-47,74,-9,57,-108,-242,0,-288,1,2,0,1568,-1,-1,-1,-1,3,369989926,-1220635960,0,65535,65535,4,0,255,0,0,0,0,0,0,10,0,192,0,3,3
RAW_IMU,476652,0,172,992,934,950,992,1811,992,1811,255,476652145,410,1049,16685,-23,65,-14,60,-113,-247,0,-176,1,2,0,1568,-1,-1,-1,-1,3,369989926,-1220635960,0,65535,65535,4,0,255,0,0,0,0,0,0,10,0,192,0,3,3
RC_CHANNELS_SCALED,476652,1,172,992,934,950,992,1811,992,1811,255,476652145,410,1049,16685,-23,65,-14,60,-113,-247,0,-176,-2,-3,-1,1568,-1,-1,-1,-1,3,369989926,-1220635960,0,65535,65535,4,0,255,0,0,0,0,0,0,10,0,192,0,3,3
GPS_RAW_INT,476652,1,172,992,934,950,992,1811,992,1811,255,476669008,410,1049,16685,-23,65,-14,60,-113,-247,0,-176,-2,-3,-1,1568,-1,-1,-1,-1,3,369989926,-1220635960,0,65535,65535,4,0,255,0,0,0,0,0,0,10,0,192,0,3,3
RC_CHANNELS_RAW,476672,0,172,992,934,950,992,1811,992,1811,255,476669008,410,1049,16685,-23,65,-14,60,-113,-247,0,-176,-2,-3,-1,1568,-1,-1,-1,-1,3,369989926,-1220635960,0,65535,65535,4,0,255,0,0,0,0,0,0,10,0,192,0,3,3
RAW_IMU,476672,0,172,992,934,950,992,1811,992,1811,255,476672148,416,1012,16683,-36,65,-25,60,-111,-245,0,-272,-2,-3,-1,1568,-1,-1,-1,-1,3,369989926,-1220635960,0,65535,65535,4,0,255,0,0,0,0,0,0,10,0,192,0,3,3
RC_CHANNELS_SCALED,476672,1,172,992,934,950,992,1811,992,1811,255,476672148,416,1012,16683,-36,65,-25,60,-111,-245,0,-272,-2,-3,0,1568,-1,-1,-1,-1,3,369989926,-1220635960,0,65535,65535,4,0,255,0,0,0,0,0,0,10,0,192,0,3,3
RC_CHANNELS_RAW,476692,0,172,992,934,950,992,1811,992,1811,255,476672148,416,1012,16683,-36,65,-25,60,-111,-245,0,-272,-2,-3,0,1568,-1,-1,-1,-1,3,369989926,-1220635960,0,65535,65535,4,0,255,0,0,0,0,0,0,10,0,192,0,3,3
RAW_IMU,476692,0,172,992,934,950,992,1811,992,1811,255,476692143,376,990,16688,-32,65,-29,63,-110,-251,0,-384,-2,-3,0,1568,-1,-1,-1,-1,3,369989926,-1220635960,0,65535,65535,4,0,255,0,0,0,0,0,0,10,0,192,0,3,3
RC_CHANNELS_SCALED,476692,1,172,992,934,950,992,1811,992,1811,255,476692143,376,990,16688,-32,65,-29,63,-110,-251,0,-384,0,3,2,1569,-1,-1,-1,-1,3,369989926,-1220635960,0,65535,65535,4,0,255,0,0,0,0,0,0,10,0,192,0,3,3
RC_CHANNELS_RAW,476712,0,172,992,934,950,992,1811,992,1811,255,476692143,376,990,16688,-32,65,-29,63,-110,-251,0,-384,0,3,2,1569,-1,-1,-1,-1,3,369989926,-1220635960,0,65535,65535,4,0,255,0,0,0,0,0,0,10,0,192,0,3,3
RAW_IMU,476712,0,172,992,934,950,992,1811,992,1811,255,476712143,347,1001,16653,-21,70,-13,56,-110,-248,0,-160,0,3,2,1569,-1,-1,-1,-1,3,369989926,-1220635960,0,65535,65535,4,0,255,0,0,0,0,0,0,10,0,192,0,3,3
RC_CHANNELS_SCALED,476712,1,172,992,934,950,992,1811,992,1811,255,476712143,347,1001,16653,-21,70,-13,56,-110,-248,0,-160,1,-2,1,1569,-1,-1,-1,-1,3,369989926,-1220635960,0,65535,65535,4,0,255,0,0,0,0,0,0,10,0,192,0,3,3
RC_CHANNELS_RAW,476732,0,172,992,934,950,992,1811,992,1811,255,476712143,347,1001,16653,-21,70,-13,56,-110,-248,0,-160,1,-2,1,1569,-1,-1,-1,-1,3,369989926,-1220635960,0,65535,65535,4,0,255,0,0,0,0,0,0,10,0,192,0,3,3
RAW_IMU,476732,0,172,992,934,950,992,1811,992,1811,255,476732141,392,1101,16675,-38,79,-21,61,-107,-256,0,-272,1,-2,1,1569,-1,-1,-1,-1,3,369989926,-1220635960,0,65535,65535,4,0,255,0,0,0,0,0,0,10,0,192,0,3,3
RC_CHANNELS_SCALED,476732,1,172,992,934,950,992,1811,992,1811,255,476732141,392,1101,16675,-38,79,-21,61,-107,-256,0,-272,-5,2,0,1569,-1,-1,-1,-1,3,369989926,-1220635960,0,65535,65535,4,0,255,0,0,0,0,0,0,10,0,192,0,3,3
RC_CHANNELS_RAW,476752,0,172,992,934,950,992,1811,992,1811,255,476732141,392,1101,16675,-38,79,-21,61,-107,-256,0,-272,-5,2,0,1569,-1,-1,-1,-1,3,369989926,-1220635960,0,65535,65535,4,0,255,0,0,0,0,0,0,10,0,192,0,3,3
RAW_IMU,476752,0,172,992,934,950,992,1811,992,1811,255,476752146,353,1005,16669,-35,76,-15,53,-107,-253,0,-272,-5,2,0,1569,-1,-1,-1,-1,3,369989926,-1220635960,0,65535,65535,4,0,255,0,0,0,0,0,0,10,0,192,0,3,3
RC_CHANNELS_SCALED,476752,1,172,992,934,950,992,1811,992,1811,255,476752146,353,1005,16669,-35,76,-15,53,-107,-253,0,-272,4,1,-2,1567,-1,-1,-1,-1,3,369989926,-1220635960,0,65535,65535,4,0,255,0,0,0,0,0,0,10,0,192,0,3,3
GPS_RAW_INT,476752,1,172,992,934,950,992,1811,992,1811,255,476770009,353,1005,16669,-35,76,-15,53,-107,-253,0,-272,4,1,-2,1567,-1,-1,-1,-1,3,369989928,-1220635958,0,65535,65535,1,0,255,0,0,0,0,0,0,10,0,192,0,3,3
RC_CHANNELS_RAW,476772,0,172,992,934,950,992,1811,992,1811,255,476770009,353,1005,16669,-35,76,-15,53,-107,-253,0,-272,4,1,-2,1567,-1,-1,-1,-1,3,369989928,-1220635958,0,65535,65535,1,0,255,0,0,0,0,0,0,10,0,192,0,3,3
RAW_IMU,476772,0,172,992,934,950,992,1811,992,1811,255,476772148,348,1012,16673,-42,72,-9,61,-105,-241,0,-272,4,1,-2,1567,-1,-1,-1,-1,3,369989928,-1220635958,0,65535,65535,1,0,255,0,0,0,0,0,0,10,0,192,0,3,3
RC_CHANNELS_SCALED,476772,1,172,992,934,950,992,1811,992,1811,255,476772148,348,1012,16673,-42,72,-9,61,-105,-241,0,-272,1,0,-4,1568,-1,-1,-1,-1,3,369989928,-1220635958,0,65535,65535,1,0,255,0,0,0,0,0,0,10,0,192,0,3,3
RC_CHANNELS_RAW,476792,0,172,992,934,950,992,1811,992,1811,255,476772148,348,1012,16673,-42,72,-9,61,-105,-241,0,-272,1,0,-4,1568,-1,-1,-1,-1,3,369989928,-1220635958,0,65535,65535,1,0,255,0,0,0,0,0,0,10,0,192,0,3,3
RAW_IMU,476792,0,172,992,934,950,992,1811,992,1811,255,476792147,334,935,16614,-20,67,-23,62,-116,-242,0,-256,1,0,-4,1568,-1,-1,-1,-1,3,369989928,-1220635958,0,65535,65535,1,0,255,0,0,0,0,0,0,10,0,192,0,3,3
RC_CHANNELS_SCALED,476792,1,172,992,934,950,992,1811,992,1811,255,476792147,334,935,16614,-20,67,-23,62,-116,-242,0,-256,-2,1,0,1569,-1,-1,-1,-1,3,369989928,-1220635958,0,65535,65535,1,0,255,0,0,0,0,0,0,10,0,192,0,3,3
RC_CHANNELS_RAW,476812,0,172,989,934,950,992,1811,992,1811,255,476792147,334,935,16614,-20,67,-23,62,-116,-242,0,-256,-2,1,0,1569,-1,-1,-1,-1,3,369989928,-1220635958,0,65535,65535,1,0,255,0,0,0,0,0,0,10,0,192,0,3,3
RAW_IMU,476812,0,172,989,934,950,992,1811,992,1811,255,476812142,369,972,16645,-45,73,-17,65,-108,-245,0,-256,-2,1,0,1569,-1,-1,-1,-1,3,369989928,-1220635958,0,65535,65535,1,0,255,0,0,0,0,0,0,10,0,192,0,3,3
RC_CHANNELS_SCALED,476812,1,172,989,934,950,992,1811,992,1811,255,476812142,369,972,16645,-45,73,-17,65,-108,-245,0,-256,-2,2,1,1568,-1,-1,-1,-1,3,369989928,-1220635958,0,65535,65535,1,0,255,0,0,0,0,0,0,10,0,192,0,3,3
RC_CHANNELS_RAW,476832,0,172,989,934,950,992,1811,992,1811,255,476812142,369,972,16645,-45,73,-17,65,-108,-245,0,-256,-2,2,1,1568,-1,-1,-1,-1,3,369989928,-1220635958,0,65535,65535,1,0,255,0,0,0,0,0,0,10,0,192,0,3,3
RAW_IMU,476832,0,172,989,934,950,992,1811,992,1811,255,476832144,341,991,16697,-39,75,-10,52,-113,-250,0,-320,-2,2,1,1568,-1,-1,-1,-1,3,369989928,-1220635958,0,65535,65535,1,0,255,0,0,0,0,0,0,10,0,192,0,3,3
RC_CHANNELS_SCALED,476832,1,172,989,934,950,992,1811,992,1811,255,476832144,341,991,16697,-39,75,-10,52,-113,-250,0,-320,-1,-1,1,1569,-1,-1,-1,-1,3,369989928,-1220635958,0,65535,65535,1,0,255,0,0,0,0,0,0,10,0,192,0,3,3
RC_CHANNELS_RAW,476852,0,172,989,934,950,992,1811,992,1811,255,476832144,341,991,16697,-39,75,-10,52,-113,-250,0,-320,-1,-1,1,1569,-1,-1,-1,-1,3,369989928,-1220635958,0,65535,65535,1,0,255,0,0,0,0,0,0,10,0,192,0,3,3
RAW_IMU,476852,0,172,989,934,950,992,1811,992,1811,255,476852141,397,987,16729,-34,71,-14,52,-108,-240,0,-256,-1,-1,1,1569,-1,-1,-1,-1,3,369989928,-1220635958,0,65535,65535,1,0,255,0,0,0,0,0,0,10,0,192,0,3,3
RC_CHANNELS_SCALED,476852,1,172,989,934,950,992,1811,992,1811,255,476852141,397,987,16729,-34,71,-14,52,-108,-240,0,-256,0,1,0,1568,-1,-1,-1,-1,3,369989928,-1220635958,0,65535,65535,1,0,255,0,0,0,0,0,0,10,0,192,0,3,3
GPS_RAW_INT,476852,1,172,989,934,950,992,1811,992,1811,255,476871005,397,987,16729,-34,71,-14,52,-108,-240,0,-256,0,1,0,1568,-1,-1,-1,-1,3,369989930,-1220635958,0,65535,65535,2,0,255,0,0,0,0,0,0,10,0,192,0,3,3
RC_CHANNELS_RAW,476872,0,172,989,934,950,992,1811,992,1811,255,476871005,397,987,16729,-34,71,-14,52,-108,-240,0,-256,0,1,0,1568,-1,-1,-1,-1,3,369989930,-1220635958,0,65535,65535,2,0,255,0,0,0,0,0,0,10,0,192,0,3,3
RAW_IMU,476872,0,172,989,934,950,992,1811,992,1811,255,476872151,343,1000,16694,-42,72,-33,54,-113,-252,0,-272,0,1,0,1568,-1,-1,-1,-1,3,369989930,-1220635958,0,65535,65535,2,0,255,0,0,0,0,0,0,10,0,192,0,3,3
RC_CHANNELS_SCALED,476872,1,172,989,934,950,992,1811,992,1811,255,476872151,343,1000,16694,-42,72,-33,54,-113,-252,0,-272,2,4,-1,1568,-1,-1,-1,-1,3,369989930,-1220635958,0,65535,65535,2,0,255,0,0,0,0,0,0,10,0,192,0,3,3
RC_CHANNELS_RAW,476892,0,172,992,934,950,992,1811,992,1811,255,476872151,343,1000,16694,-42,72,-33,54,-113,-252,0,-272,2,4,-1,1568,-1,-1,-1,-1,3,369989930,-1220635958,0,65535,65535,2,0,255,0,0,0,0,0,0,10,0,192,0,3,3
RAW_IMU,476892,0,172,992,934,950,992,1811,992,1811,255,476892146,379,975,16694,-35,79,-26,56,-107,-246,0,-272,2,4,-1,1568,-1,-1,-1,-1,3,369989930,-1220635958,0,65535,65535,2,0,255,0,0,0,0,0,0,10,0,192,0,3,3
RC_CHANNELS_SCALED,476892,1,172,992,934,950,992,1811,992,1811,255,476892146,379,975,16694,-35,79,-26,56,-107,-246,0,-272,-1,1,-2,1567,-1,-1,-1,-1,3,369989930,-1220635958,0,65535,65535,2,0,255,0,0,0,0,0,0,10,0,192,0,3,3
RC_CHANNELS_RAW,476912,0,172,989,934,950,992,1811,992,1811,255,476892146,379,975,16694,-35,79,-26,56,-107,-246,0,-272,-1,1,-2,1567,-1,-1,-1,-1,3,369989930,-1220635958,0,65535,65535,2,0,255,0,0,0,0,0,0,10,0,192,0,3,3
RAW_IMU,476912,0,172,989,934,950,992,1811,992,1811,255,476912143,340,990,16673,-26,79,-25,60,-113,-242,0,-224,-1,1,-2,1567,-1,-1,-1,-1,3,369989930,-1220635958,0,65535,65535,2,0,255,0,0,0,0,0,0,10,0,192,0,3,3
RC_CHANNELS_SCALED,476912,1,172,989,934,950,992,1811,992,1811,255,476912143,340,990,16673,-26,79,-25,60,-113,-242,0,-224,0,-3,4,1570,-1,-1,-1,-1,3,369989930,-1220635958,0,65535,65535,2,0,255,0,0,0,0,0,0,10,0,192,0,3,3
RC_CHANNELS_RAW,476932,0,172,992,934,950,992,1811,992,1811,255,476912143,340,990,16673,-26,79,-25,60,-113,-242,0,-224,0,-3,4,1570,-1,-1,-1,-1,3,369989930,-1220635958,0,65535,65535,2,0,255,0,0,0,0,0,0,10,0,192,0,3,3
RAW_IMU,476932,0,172,992,934,950,992,1811,992,1811,255,476932143,401,950,16663,-41,78,-25,57,-108,-247,0,-320,0,-3,4,1570,-1,-1,-1,-1,3,369989930,-1220635958,0,65535,65535,2,0,255,0,0,0,0,0,0,10,0,192,0,3,3
RC_CHANNELS_SCALED,476932,1,172,992,934,950,992,1811,992,1811,255,476932143,401,950,16663,-41,78,-25,57,-108,-247,0,-320,2,1,2,1570,-1,-1,-1,-1,3,369989930,-1220635958,0,65535,65535,2,0,255,0,0,0,0,0,0,10,0,192,0,3,3
RC_CHANNELS_RAW,476952,0,172,989,934,950,992,1811,992,1811,255,476932143,401,950,16663,-41,78,-25,57,-108,-247,0,-320,2,1,2,1570,-1,-1,-1,-1,3,369989930,-1220635958,0,65535,65535,2,0,255,0,0,0,0,0,0,10,0,192,0,3,3
RAW_IMU,476952,0,172,989,934,950,992,1811,992,1811,255,476952142,400,999,16667,-43,67,-27,52,-113,-250,0,-272,2,1,2,1570,-1,-1,-1,-1,3,369989930,-1220635958,0,65535,65535,2,0,255,0,0,0,0,0,0,10,0,192,0,3,3
RC_CHANNELS_SCALED,476952,1,172,989,934,950,992,1811,992,1811,255,476952142,400,999,16667,-43,67,-27,52,-113,-250,0,-272,3,1,0,1567,-1,-1,-1,-1,3,369989930,-1220635958,0,65535,65535,2,0,255,0,0,0,0,0,0,10,0,192,0,3,3
RC_CHANNELS_RAW,476972,0,172,992,934,951,992,1811,992,1811,255,476952142,400,999,16667,-43,67,-27,52,-113,-250,0,-272,3,1,0,1567,-1,-1,-1,-1,3,369989930,-1220635958,0,65535,65535,2,0,255,0,0,0,0,0,0,10,0,192,0,3,3
RAW_IMU,476972,0,172,992,934,951,992,1811,992,1811,255,476972149,422,983,16636,-43,74,-42,57,-113,-245,0,-256,3,1,0,1567,-1,-1,-1,-1,3,369989930,-1220635958,0,65535,65535,2,0,255,0,0,0,0,0,0,10,0,192,0,3,3
RC_CHANNELS_SCALED,476972,1,172,992,934,951,992,1811,992,1811,255,476972149,422,983,16636,-43,74,-42,57,-113,-245,0,-256,-2,3,0,1567,-1,-1,-1,-1,3,369989930,-1220635958,0,65535,65535,2,0,255,0,0,0,0,0,0,10,0,192,0,3,3
GPS_RAW_INT,476972,1,172,992,934,951,992,1811,992,1811,255,476972436,422,983,16636,-43,74,-42,57,-113,-245,0,-256,-2,3,0,1567,-1,-1,-1,-1,3,369989931,-1220635958,0,65535,65535,2,0,255,0,0,0,0,0,0,10,0,192,0,3,3
RC_CHANNELS_RAW,476992,0,172,989,934,950,992,1811,992,1811,255,476972436,422,983,16636,-43,74,-42,57,-113,-245,0,-256,-2,3,0,1567,-1,-1,-1,-1,3,369989931,-1220635958,0,65535,65535,2,0,255,0,0,0,0,0,0,10,0,192,0,3,3
RAW_IMU,476992,0,172,989,934,950,992,1811,992,1811,255,476992143,390,1020,16656,-40,71,-20,65,-108,-245,0,-288,-2,3,0,1567,-1,-1,-1,-1,3,369989931,-1220635958,0,65535,65535,2,0,255,0,0,0,0,0,0,10,0,192,0,3,3
RC_CHANNELS_SCALED,476992,1,172,989,934,950,992,1811,992,1811,255,476992143,390,1020,16656,-40,71,-20,65,-108,-245,0,-288,2,2,2,1568,-1,-1,-1,-1,3,369989931,-1220635958,0,65535,65535,2,0,255,0,0,0,0,0,0,10,0,192,0,3,3
HEARTBEAT,476992,1,172,989,934,950,992,1811,992,1811,255,476992143,390,1020,16656,-40,71,-20,65,-108,-245,0,-288,2,2,2,1568,-1,-1,-1,-1,3,369989931,-1220635958,0,65535,65535,2,0,255,0,0,0,0,0,0,10,0,192,0,3,3
RC_CHANNELS_RAW,477012,0,172,992,934,950,992,1811,992,1811,255,476992143,390,1020,16656,-40,71,-20,65,-108,-245,0,-288,2,2,2,1568,-1,-1,-1,-1,3,369989931,-1220635958,0,65535,65535,2,0,255,0,0,0,0,0,0,10,0,192,0,3,3
RAW_IMU,477012,0,172,992,934,950,992,1811,992,1811,255,477012147,351,956,16699,-40,72,-18,62,-113,-247,0,-336,2,2,2,1568,-1,-1,-1,-1,3,369989931,-1220635958,0,65535,65535,2,0,255,0,0,0,0,0,0,10,0,192,0,3,3
RC_CHANNELS_SCALED,477012,1,172,992,934,950,992,1811,992,1811,255,477012147,351,956,16699,-40,72,-18,62,-113,-247,0,-336,-4,-2,-1,1568,-1,-1,-1,-1,3,369989931,-1220635958,0,65535,65535,2,0,255,0,0,0,0,0,0,10,0,192,0,3,3
RC_CHANNELS_RAW,477032,0,172,992,934,950,992,1811,992,1811,255,477012147,351,956,16699,-40,72,-18,62,-113,-247,0,-336,-4,-2,-1,1568,-1,-1,-1,-1,3,369989931,-1220635958,0,65535,65535,2,0,255,0,0,0,0,0,0,10,0,192,0,3,3
RAW_IMU,477032,0,172,992,934,950,992,1811,992,1811,255,477032146,388,1005,16665,-38,67,-15,60,-118,-247,0,-224,-4,-2,-1,1568,-1,-1,-1,-1,3,369989931,-1220635958,0,65535,65535,2,0,255,0,0,0,0,0,0,10,0,192,0,3,3
RC_CHANNELS_SCALED,477032,1,172,992,934,950,992,1811,992,1811,255,477032146,388,1005,16665,-38,67,-15,60,-118,-247,0,-224,-3,5,-2,1569,-1,-1,-1,-1,3,369989931,-1220635958,0,65535,65535,2,0,255,0,0,0,0,0,0,10,0,192,0,3,3
RC_CHANNELS_RAW,477052,0,172,992,934,950,992,1811,992,1811,255,477032146,388,1005,16665,-38,67,-15,60,-118,-247,0,-224,-3,5,-2,1569,-1,-1,-1,-1,3,369989931,-1220635958,0,65535,65535,2,0,255,0,0,0,0,0,0,10,0,192,0,3,3
RAW_IMU,477052,0,172,992,934,950,992,1811,992,1811,255,477052144,419,1013,16703,-34,76,-19,49,-116,-242,0,-208,-3,5,-2,1569,-1,-1,-1,-1,3,369989931,-1220635958,0,65535,65535,2,0,255,0,0,0,0,0,0,10,0,192,0,3,3
RC_CHANNELS_SCALED,477052,1,172,992,934,950,992,1811,992,1811,255,477052144,419,1013,16703,-34,76,-19,49,-116,-242,0,-208,1,1,0,1570,-1,-1,-1,-1,3,369989931,-1220635958,0,65535,65535,2,0,255,0,0,0,0,0,0,10,0,192,0,3,3
RC_CHANNELS_RAW,477072,0,172,992,934,950,992,1811,992,1811,255,477052144,419,1013,16703,-34,76,-19,49,-116,-242,0,-208,1,1,0,1570,-1,-1,-1,-1,3,369989931,-1220635958,0,65535,65535,2,0,255,0,0,0,0,0,0,10,0,192,0,3,3
RAW_IMU,477072,0,172,992,934,950,992,1811,992,1811,255,477072141,350,1045,16673,-62,67,-12,62,-108,-250,0,-288,1,1,0,1570,-1,-1,-1,-1,3,369989931,-1220635958,0,65535,65535,2,0,255,0,0,0,0,0,0,10,0,192,0,3,3
RC_CHANNELS_SCALED,477072,1,172,992,934,950,992,1811,992,1811,255,477072141,350,1045,16673,-62,67,-12,62,-108,-250,0,-288,1,1,-3,1567,-1,-1,-1,-1,3,369989931,-1220635958,0,65535,65535,2,0,255,0,0,0,0,0,0,10,0,192,0,3,3
GPS_RAW_INT,477072,1,172,992,934,950,992,1811,992,1811,255,477073009,350,1045,16673,-62,67,-12,62,-108,-250,0,-288,1,1,-3,1567,-1,-1,-1,-1,3,369989933,-1220635958,0,65535,65535,1,0,255,0,0,0,0,0,0,10,0,192,0,3,3
RC_CHANNELS_RAW,477092,0,172,992,934,950,992,1811,992,1811,255,477073009,350,1045,16673,-62,67,-12,62,-108,-250,0,-288,1,1,-3,1567,-1,-1,-1,-1,3,369989933,-1220635958,0,65535,65535,1,0,255,0,0,0,0,0,0,10,0,192,0,3,3
RAW_IMU,477092,0,172,992,934,950,992,1811,992,1811,255,477092142,296,1003,16693,-40,72,-4,57,-108,-250,0,-320,1,1,-3,1567,-1,-1,-1,-1,3,369989933,-1220635958,0,65535,65535,1,0,255,0,0,0,0,0,0,10,0,192,0,3,3
RC_CHANNELS_SCALED,477092,1,172,992,934,950,992,1811,992,1811,255,477092142,296,1003,16693,-40,72,-4,57,-108,-250,0,-320,-1,4,-2,1567,-1,-1,-1,-1,3,369989933,-1220635958,0,65535,65535,1,0,255,0,0,0,0,0,0,10,0,192,0,3,3
RC_CHANNELS_RAW,477112,0,172,992,934,950,992,1811,992,1811,255,477092142,296,1003,16693,-40,72,-4,57,-108,-250,0,-320,-1,4,-2,1567,-1,-1,-1,-1,3,369989933,-1220635958,0,65535,65535,1,0,255,0,0,0,0,0,0,10,0,192,0,3,3
RAW_IMU,477112,0,172,992,934,950,992,1811,992,1811,255,477112144,388,1096,16699,-45,68,-8,57,-106,-255,0,-224,-1,4,-2,1567,-1,-1,-1,-1,3,369989933,-1220635958,0,65535,65535,1,0,255,0,0,0,0,0,0,10,0,192,0,3,3
RC_CHANNELS_SCALED,477112,1,172,992,934,950,992,1811,992,1811,255,477112144,388,1096,16699,-45,68,-8,57,-106,-255,0,-224,0,2,2,1569,-1,-1,-1,-1,3,369989933,-1220635958,0,65535,65535,1,0,255,0,0,0,0,0,0,10,0,192,0,3,3
RC_CHANNELS_RAW,477132,0,172,992,934,950,992,1811,992,1811,255,477112144,388,1096,16699,-45,68,-8,57,-106,-255,0,-224,0,2,2,1569,-1,-1,-1,-1,3,369989933,-1220635958,0,65535,65535,1,0,255,0,0,0,0,0,0,10,0,192,0,3,3
RAW_IMU,477132,0,172,992,934,950,992,1811,992,1811,255,477132141,424,959,16663,-48,76,-17,57,-118,-250,0,-272,0,2,2,1569,-1,-1,-1,-1,3,369989933,-1220635958,0,65535,65535,1,0,255,0,0,0,0,0,0,10,0,192,0,3,3
RC_CHANNELS_SCALED,477132,1,172,992,934,950,992,1811,992,1811,255,477132141,424,959,16663,-48,76,-17,57,-118,-250,0,-272,2,2,-1,1568,-1,-1,-1,-1,3,369989933,-1220635958,0,65535,65535,1,0,255,0,0,0,0,0,0,10,0,192,0,3,3
RC_CHANNELS_RAW,477152,0,172,992,934,950,992,1811,992,1811,255,477132141,424,959,16663,-48,76,-17,57,-118,-250,0,-272,2,2,-1,1568,-1,-1,-1,-1,3,369989933,-1220635958,0,65535,65535,1,0,255,0,0,0,0,0,0,10,0,192,0,3,3
RAW_IMU,477152,0,172,992,934,950,992,1811,992,1811,255,477152145,312,1029,16678,-24,68,-20,60,-108,-250,0,-288,2,2,-1,1568,-1,-1,-1,-1,3,369989933,-1220635958,0,65535,65535,1,0,255,0,0,0,0,0,0,10,0,192,0,3,3
RC_CHANNELS_SCALED,477152,1,172,992,934,950,992,1811,992,1811,255,477152145,312,1029,16678,-24,68,-20,60,-108,-250,0,-288,-4,0,-1,1567,-1,-1,-1,-1,3,369989933,-1220635958,0,65535,65535,1,0,255,0,0,0,0,0,0,10,0,192,0,3,3
RC_CHANNELS_RAW,477172,0,172,992,934,950,992,1811,992,1811,255,477152145,312,1029,16678,-24,68,-20,60,-108,-250,0,-288,-4,0,-1,1567,-1,-1,-1,-1,3,369989933,-1220635958,0,65535,65535,1,0,255,0,0,0,0,0,0,10,0,192,0,3,3
RAW_IMU,477172,0,172,992,934,950,992,1811,992,1811,255,477172149,355,1028,16646,-33,61,-21,57,-121,-237,0,-288,-4,0,-1,1567,-1,-1,-1,-1,3,369989933,-1220635958,0,65535,65535,1,0,255,0,0,0,0,0,0,10,0,192,0,3,3
RC_CHANNELS_SCALED,477172,1,172,992,934,950,992,1811,992,1811,255,477172149,355,1028,16646,-33,61,-21,57,-121,-237,0,-288,3,3,4,1570,-1,-1,-1,-1,3,369989933,-1220635958,0,65535,65535,1,0,255,0,0,0,0,0,0,10,0,192,0,3,3
GPS_RAW_INT,477172,1,172,992,934,950,992,1811,992,1811,255,477174006,355,1028,16646,-33,61,-21,57,-121,-237,0,-288,3,3,4,1570,-1,-1,-1,-1,3,369989933,-1220635956,0,65535,65535,1,0,255,0,0,0,0,0,0,10,0,192,0,3,3
RC_CHANNELS_RAW,477192,0,172,992,934,950,992,1811,992,1811,255,477174006,355,1028,16646,-33,61,-21,57,-121,-237,0,-288,3,3,4,1570,-1,-1,-1,-1,3,369989933,-1220635956,0,65535,65535,1,0,255,0,0,0,0,0,0,10,0,192,0,3,3
RAW_IMU,477192,0,172,992,934,950,992,1811,992,1811,255,477192144,327,1051,16666,-28,65,-16,58,-110,-248,0,-336,3,3,4,1570,-1,-1,-1,-1,3,369989933,-1220635956,0,65535,65535,1,0,255,0,0,0,0,0,0,10,0,192,0,3,3
RC_CHANNELS_SCALED,477192,1,172,992,934,950,992,1811,992,1811,255,477192144,327,1051,16666,-28,65,-16,58,-110,-248,0,-336,-2,0,2,1569,-1,-1,-1,-1,3,369989933,-1220635956,0,65535,65535,1,0,255,0,0,0,0,0,0,10,0,192,0,3,3
RC_CHANNELS_RAW,477212,0,172,992,934,950,992,1811,992,1811,255,477192144,327,1051,16666,-28,65,-16,58,-110,-248,0,-336,-2,0,2,1569,-1,-1,-1,-1,3,369989933,-1220635956,0,65535,65535,1,0,255,0,0,0,0,0,0,10,0,192,0,3,3
RAW_IMU,477212,0,172,992,934,950,992,1811,992,1811,255,477212140,380,1001,16709,-36,64,-23,56,-112,-256,0,-272,-2,0,2,1569,-1,-1,-1,-1,3,369989933,-1220635956,0,65535,65535,1,0,255,0,0,0,0,0,0,10,0,192,0,3,3
RC_CHANNELS_SCALED,477212,1,172,992,934,950,992,1811,992,1811,255,477212140,380,1001,16709,-36,64,-23,56,-112,-256,0,-272,1,-2,-2,1568,-1,-1,-1,-1,3,369989933,-1220635956,0,65535,65535,1,0,255,0,0,0,0,0,0,10,0,192,0,3,3
RC_CHANNELS_RAW,477232,0,172,992,934,950,992,1811,992,1811,255,477212140,380,1001,16709,-36,64,-23,56,-112,-256,0,-272,1,-2,-2,1568,-1,-1,-1,-1,3,369989933,-1220635956,0,65535,65535,1,0,255,0,0,0,0,0,0,10,0,192,0,3,3
RAW_IMU,477232,0,172,992,934,950,992,1811,992,1811,255,477232142,408,1058,16683,-36,69,-8,54,-118,-247,0,-272,1,-2,-2,1568,-1,-1,-1,-1,3,369989933,-1220635956,0,65535,65535,1,0,255,0,0,0,0,0,0,10,0,192,0,3,3
RC_CHANNELS_SCALED,477232,1,172,992,934,950,992,1811,992,1811,255,477232142,408,1058,16683,-36,69,-8,54,-118,-247,0,-272,5,4,0,1569,-1,-1,-1,-1,3,369989933,-1220635956,0,65535,65535,1,0,255,0,0,0,0,0,0,10,0,192,0,3,3
RC_CHANNELS_RAW,477252,0,172,992,934,950,992,1811,992,1811,255,477232142,408,1058,16683,-36,69,-8,54,-118,-247,0,-272,5,4,0,1569,-1,-1,-1,-1,3,369989933,-1220635956,0,65535,65535,1,0,255,0,0,0,0,0,0,10,0,192,0,3,3
RAW_IMU,477252,0,172,992,934,950,992,1811,992,1811,255,477252142,345,1056,16686,-43,69,-22,58,-110,-248,0,-272,5,4,0,1569,-1,-1,-1,-1,3,369989933,-1220635956,0,65535,65535,1,0,255,0,0,0,0,0,0,10,0,192,0,3,3
RC_CHANNELS_SCALED,477252,1,172,992,934,950,992,1811,992,1811,255,477252142,345,1056,16686,-43,69,-22,58,-110,-248,0,-272,-4,3,-1,1567,-1,-1,-1,-1,3,369989933,-1220635956,0,65535,65535,1,0,255,0,0,0,0,0,0,10,0,192,0,3,3
RC_CHANNELS_RAW,477272,0,172,992,934,950,992,1811,992,1811,255,477252142,345,1056,16686,-43,69,-22,58,-110,-248,0,-272,-4,3,-1,1567,-1,-1,-1,-1,3,369989933,-1220635956,0,65535,65535,1,0,255,0,0,0,0,0,0,10,0,192,0,3,3
RAW_IMU,477272,0,172,992,934,950,992,1811,992,1811,255,477272148,370,986,16621,-38,81,-28,54,-106,-245,0,-288,-4,3,-1,1567,-1,-1,-1,-1,3,369989933,-1220635956,0,65535,65535,1,0,255,0,0,0,0,0,0,10,0,192,0,3,3
RC_CHANNELS_SCALED,477272,1,172,992,934,950,992,1811,992,1811,255,477272148,370,986,16621,-38,81,-28,54,-106,-245,0,-288,-2,1,0,1566,-1,-1,-1,-1,3,369989933,-1220635956,0,65535,65535,1,0,255,0,0,0,0,0,0,10,0,192,0,3,3
GPS_RAW_INT,477272,1,172,992,934,950,992,1811,992,1811,255,477275011,370,986,16621,-38,81,-28,54,-106,-245,0,-288,-2,1,0,1566,-1,-1,-1,-1,3,369989935,-1220635956,0,65535,65535,4,0,255,0,0,0,0,0,0,10,0,192,0,3,3
RC_CHANNELS_RAW,477292,0,172,992,934,950,992,1811,992,1811,255,477275011,370,986,16621,-38,81,-28,54,-106,-245,0,-288,-2,1,0,1566,-1,-1,-1,-1,3,369989935,-1220635956,0,65535,65535,4,0,255,0,0,0,0,0,0,10,0,192,0,3,3
RAW_IMU,477292,0,172,992,934,950,992,1811,992,1811,255,477292144,437,992,16691,-36,72,-27,56,-110,-244,0,-288,-2,1,0,1566,-1,-1,-1,-1,3,369989935,-1220635956,0,65535,65535,4,0,255,0,0,0,0,0,0,10,0,192,0,3,3
RC_CHANNELS_SCALED,477292,1,172,992,934,950,992,1811,992,1811,255,477292144,437,992,16691,-36,72,-27,56,-110,-244,0,-288,0,0,3,1570,-1,-1,-1,-1,3,369989935,-1220635956,0,65535,65535,4,0,255,0,0,0,0,0,0,10,0,192,0,3,3
RC_CHANNELS_RAW,477312,0,172,992,934,950,992,1811,992,1811,255,477292144,437,992,16691,-36,72,-27,56,-110,-244,0,-288,0,0,3,1570,-1,-1,-1,-1,3,369989935,-1220635956,0,65535,65535,4,0,255,0,0,0,0,0,0,10,0,192,0,3,3
RAW_IMU,477312,0,172,992,934,950,992,1811,992,1811,255,477312146,388,1027,16705,-37,72,-27,48,-110,-241,0,-288,0,0,3,1570,-1,-1,-1,-1,3,369989935,-1220635956,0,65535,65535,4,0,255,0,0,0,0,0,0,10,0,192,0,3,3
RC_CHANNELS_SCALED,477312,1,172,992,934,950,992,1811,992,1811,255,477312146,388,1027,16705,-37,72,-27,48,-110,-241,0,-288,-2,1,3,1570,-1,-1,-1,-1,3,369989935,-1220635956,0,65535,65535,4,0,255,0,0,0,0,0,0,10,0,192,0,3,3
RC_CHANNELS_RAW,477332,0,172,992,934,950,992,1811,992,1811,255,477312146,388,1027,16705,-37,72,-27,48,-110,-241,0,-288,-2,1,3,1570,-1,-1,-1,-1,3,369989935,-1220635956,0,65535,65535,4,0,255,0,0,0,0,0,0,10,0,192,0,3,3
RAW_IMU,477332,0,172,992,934,950,992,1811,992,1811,255,477332140,368,1035,16642,-41,64,-19,56,-112,-246,0,-320,-2,1,3,1570,-1,-1,-1,-1,3,369989935,-1220635956,0,65535,65535,4,0,255,0,0,0,0,0,0,10,0,192,0,3,3
RC_CHANNELS_SCALED,477332,1,172,992,934,950,992,1811,992,1811,255,477332140,368,1035,16642,-41,64,-19,56,-112,-246,0,-320,0,-3,4,1571,-1,-1,-1,-1,3,369989935,-1220635956,0,65535,65535,4,0,255,0,0,0,0,0,0,10,0,192,0,3,3
RC_CHANNELS_RAW,477352,0,172,992,934,950,992,1811,992,1811,255,477332140,368,1035,16642,-41,64,-19,56,-112,-246,0,-320,0,-3,4,1571,-1,-1,-1,-1,3,369989935,-1220635956,0,65535,65535,4,0,255,0,0,0,0,0,0,10,0,192,0,3,3
RAW_IMU,477352,0,172,992,934,950,992,1811,992,1811,255,477352142,443,970,16740,-23,78,-12,60,-108,-247,0,-272,0,-3,4,1571,-1,-1,-1,-1,3,369989935,-1220635956,0,65535,65535,4,0,255,0,0,0,0,0,0,10,0,192,0,3,3
RC_CHANNELS_SCALED,477352,1,172,992,934,950,992,1811,992,1811,255,477352142,443,970,16740,-23,78,-12,60,-108,-247,0,-272,-3,2,0,1567,-1,-1,-1,-1,3,369989935,-1220635956,0,65535,65535,4,0,255,0,0,0,0,0,0,10,0,192,0,3,3
RC_CHANNELS_RAW,477372,0,172,992,934,950,992,1811,992,1811,255,477352142,443,970,16740,-23,78,-12,60,-108,-247,0,-272,-3,2,0,1567,-1,-1,-1,-1,3,369989935,-1220635956,0,65535,65535,4,0,255,0,0,0,0,0,0,10,0,192,0,3,3
RAW_IMU,477372,0,172,992,934,950,992,1811,992,1811,255,477372140,412,926,16719,-48,62,-30,65,-108,-247,0,-272,-3,2,0,1567,-1,-1,-1,-1,3,369989935,-1220635956,0,65535,65535,4,0,255,0,0,0,0,0,0,10,0,192,0,3,3
RC_CHANNELS_SCALED,477372,1,172,992,934,950,992,1811,992,1811,255,477372140,412,926,16719,-48,62,-30,65,-108,-247,0,-272,3,-1,-1,1568,-1,-1,-1,-1,3,369989935,-1220635956,0,65535,65535,4,0,255,0,0,0,0,0,0,10,0,192,0,3,3
GPS_RAW_INT,477372,1,172,992,934,950,992,1811,992,1811,255,477376005,412,926,16719,-48,62,-30,65,-108,-247,0,-272,3,-1,-1,1568,-1,-1,-1,-1,3,369989935,-1220635956,0,65535,65535,1,0,255,0,0,0,0,0,0,10,0,192,0,3,3
RC_CHANNELS_RAW,477392,0,172,992,934,950,992,1811,992,1811,255,477376005,412,926,16719,-48,62,-30,65,-108,-247,0,-272,3,-1,-1,1568,-1,-1,-1,-1,3,369989935,-1220635956,0,65535,65535,1,0,255,0,0,0,0,0,0,10,0,192,0,3,3
RAW_IMU,477392,0,172,992,934,950,992,1811,992,1811,255,477392148,312,1033,16696,-39,74,-20,58,-112,-246,0,-224,3,-1,-1,1568,-1,-1,-1,-1,3,369989935,-1220635956,0,65535,65535,1,0,255,0,0,0,0,0,0,10,0,192,0,3,3
RC_CHANNELS_SCALED,477392,1,172,992,934,950,992,1811,992,1811,255,477392148,312,1033,16696,-39,74,-20,58,-112,-246,0,-224,2,2,0,1568,-1,-1,-1,-1,3,369989935,-1220635956,0,65535,65535,1,0,255,0,0,0,0,0,0,10,0,192,0,3,3
RC_CHANNELS_RAW,477412,0,172,992,934,950,992,1811,992,1811,255,477392148,312,1033,16696,-39,74,-20,58,-112,-246,0,-224,2,2,0,1568,-1,-1,-1,-1,3,369989935,-1220635956,0,65535,65535,1,0,255,0,0,0,0,0,0,10,0,192,0,3,3
RAW_IMU,477412,0,172,992,934,950,992,1811,992,1811,255,477412146,341,1000,16699,-30,71,-30,57,-108,-252,0,-336,2,2,0,1568,-1,-1,-1,-1,3,369989935,-1220635956,0,65535,65535,1,0,255,0,0,0,0,0,0,10,0,192,0,3,3
RC_CHANNELS_SCALED,477412,1,172,992,934,950,992,1811,992,1811,255,477412146,341,1000,16699,-30,71,-30,57,-108,-252,0,-336,-1,0,0,1567,-1,-1,-1,-1,3,369989935,-1220635956,0,65535,65535,1,0,255,0,0,0,0,0,0,10,0,192,0,3,3
RC_CHANNELS_RAW,477432,0,172,992,934,950,992,1811,992,1811,255,477412146,341,1000,16699,-30,71,-30,57,-108,-252,0,-336,-1,0,0,1567,-1,-1,-1,-1,3,369989935,-1220635956,0,65535,65535,1,0,255,0,0,0,0,0,0,10,0,192,0,3,3
RAW_IMU,477432,0,172,992,934,950,992,1811,992,1811,255,477432144,356,1036,16730,-34,67,-9,56,-117,-244,0,-288,-1,0,0,1567,-1,-1,-1,-1,3,369989935,-1220635956,0,65535,65535,1,0,255,0,0,0,0,0,0,10,0,192,0,3,3
RC_CHANNELS_SCALED,477432,1,172,992,934,950,992,1811,992,1811,255,477432144,356,1036,16730,-34,67,-9,56,-117,-244,0,-288,-3,-1,3,1570,-1,-1,-1,-1,3,369989935,-1220635956,0,65535,65535,1,0,255,0,0,0,0,0,0,10,0,192,0,3,3
RC_CHANNELS_RAW,477452,0,172,992,934,950,992,1811,992,1811,255,477432144,356,1036,16730,-34,67,-9,56,-117,-244,0,-288,-3,-1,3,1570,-1,-1,-1,-1,3,369989935,-1220635956,0,65535,65535,1,0,255,0,0,0,0,0,0,10,0,192,0,3,3
RAW_IMU,477452,0,172,992,934,950,992,1811,992,1811,255,477452140,307,975,16609,-46,79,-29,53,-107,-248,0,-272,-3,-1,3,1570,-1,-1,-1,-1,3,369989935,-1220635956,0,65535,65535,1,0,255,0,0,0,0,0,0,10,0,192,0,3,3
RC_CHANNELS_SCALED,477452,1,172,992,934,950,992,1811,992,1811,255,477452140,307,975,16609,-46,79,-29,53,-107,-248,0,-272,-2,0,-2,1567,-1,-1,-1,-1,3,369989935,-1220635956,0,65535,65535,1,0,255,0,0,0,0,0,0,10,0,192,0,3,3
RC_CHANNELS_RAW,477472,0,172,992,934,950,992,1811,992,1811,255,477452140,307,975,16609,-46,79,-29,53,-107,-248,0,-272,-2,0,-2,1567,-1,-1,-1,-1,3,369989935,-1220635956,0,65535,65535,1,0,255,0,0,0,0,0,0,10,0,192,0,3,3
RAW_IMU,477472,0,172,992,934,950,992,1811,992,1811,255,477472146,336,949,16643,-53,60,-22,52,-118,-247,0,-288,-2,0,-2,1567,-1,-1,-1,-1,3,369989935,-1220635956,0,65535,65535,1,0,255,0,0,0,0,0,0,10,0,192,0,3,3
RC_CHANNELS_SCALED,477472,1,172,992,934,950,992,1811,992,1811,255,477472146,336,949,16643,-53,60,-22,52,-118,-247,0,-288,0,1,0,1568,-1,-1,-1,-1,3,369989935,-1220635956,0,65535,65535,1,0,255,0,0,0,0,0,0,10,0,192,0,3,3
GPS_RAW_INT,477472,1,172,992,934,950,992,1811,992,1811,255,477477008,336,949,16643,-53,60,-22,52,-118,-247,0,-288,0,1,0,1568,-1,-1,-1,-1,3,369989935,-1220635956,0,65535,65535,1,0,255,0,0,0,0,0,0,10,0,192,0,3,3
RC_CHANNELS_RAW,477492,0,172,992,934,950,992,1811,992,1811,255,477477008,336,949,16643,-53,60,-22,52,-118,-247,0,-288,0,1,0,1568,-1,-1,-1,-1,3,369989935,-1220635956,0,65535,65535,1,0,255,0,0,0,0,0,0,10,0,192,0,3,3
RAW_IMU,477492,0,172,992,934,950,992,1811,992,1811,255,477492141,351,1036,16657,-29,67,-32,53,-110,-244,0,-272,0,1,0,1568,-1,-1,-1,-1,3,369989935,-1220635956,0,65535,65535,1,0,255,0,0,0,0,0,0,10,0,192,0,3,3
RC_CHANNELS_SCALED,477492,1,172,992,934,950,992,1811,992,1811,255,477492141,351,1036,16657,-29,67,-32,53,-110,-244,0,-272,-2,1,3,1569,-1,-1,-1,-1,3,369989935,-1220635956,0,65535,65535,1,0,255,0,0,0,0,0,0,10,0,192,0,3,3
RC_CHANNELS_RAW,477512,0,172,992,934,950,992,1811,992,1811,255,477492141,351,1036,16657,-29,67,-32,53,-110,-244,0,-272,-2,1,3,1569,-1,-1,-1,-1,3,369989935,-1220635956,0,65535,65535,1,0,255,0,0,0,0,0,0,10,0,192,0,3,3
RAW_IMU,477512,0,172,992,934,950,992,1811,992,1811,255,477512143,346,1043,16683,-38,68,-7,62,-108,-247,0,-224,-2,1,3,1569,-1,-1,-1,-1,3,369989935,-1220635956,0,65535,65535,1,0,255,0,0,0,0,0,0,10,0,192,0,3,3
RC_CHANNELS_SCALED,477512,1,172,992,934,950,992,1811,992,1811,255,477512143,346,1043,16683,-38,68,-7,62,-108,-247,0,-224,2,5,-1,1568,-1,-1,-1,-1,3,369989935,-1220635956,0,65535,65535,1,0,255,0,0,0,0,0,0,10,0,192,0,3,3
RC_CHANNELS_RAW,477532,0,172,992,934,950,992,1811,992,1811,255,477512143,346,1043,16683,-38,68,-7,62,-108,-247,0,-224,2,5,-1,1568,-1,-1,-1,-1,3,369989935,-1220635956,0,65535,65535,1,0,255,0,0,0,0,0,0,10,0,192,0,3,3
RAW_IMU,477532,0,172,992,934,950,992,1811,992,1811,255,477532143,450,972,16631,-60,78,-17,50,-124,-246,0,-272,2,5,-1,1568,-1,-1,-1,-1,3,369989935,-1220635956,0,65535,65535,1,0,255,0,0,0,0,0,0,10,0,192,0,3,3
RC_CHANNELS_SCALED,477532,1,172,992,934,950,992,1811,992,1811,255,477532143,450,972,16631,-60,78,-17,50,-124,-246,0,-272,0,-1,3,1569,-1,-1,-1,-1,3,369989935,-1220635956,0,65535,65535,1,0,255,0,0,0,0,0,0,10,0,192,0,3,3
RC_CHANNELS_RAW,477552,0,172,992,934,950,992,1811,992,1811,255,477532143,450,972,16631,-60,78,-17,50,-124,-246,0,-272,0,-1,3,1569,-1,-1,-1,-1,3,369989935,-1220635956,0,65535,65535,1,0,255,0,0,0,0,0,0,10,0,192,0,3,3
RAW_IMU,477552,0,172,992,934,950,992,1811,992,1811,255,477552144,303,948,16672,-35,72,-21,54,-116,-247,0,-288,0,-1,3,1569,-1,-1,-1,-1,3,369989935,-1220635956,0,65535,65535,1,0,255,0,0,0,0,0,0,10,0,192,0,3,3
RC_CHANNELS_SCALED,477552,1,172,992,934,950,992,1811,992,1811,255,477552144,303,948,16672,-35,72,-21,54,-116,-247,0,-288,-2,-2,-1,1568,-1,-1,-1,-1,3,369989935,-1220635956,0,65535,65535,1,0,255,0,0,0,0,0,0,10,0,192,0,3,3
RC_CHANNELS_RAW,477572,0,172,992,934,950,992,1811,992,1811,255,477552144,303,948,16672,-35,72,-21,54,-116,-247,0,-288,-2,-2,-1,1568,-1,-1,-1,-1,3,369989935,-1220635956,0,65535,65535,1,0,255,0,0,0,0,0,0,10,0,192,0,3,3
RAW_IMU,477572,0,172,992,934,950,992,1811,992,1811,255,477572142,331,943,16732,-44,73,-6,60,-121,-257,0,-224,-2,-2,-1,1568,-1,-1,-1,-1,3,369989935,-1220635956,0,65535,65535,1,0,255,0,0,0,0,0,0,10,0,192,0,3,3
RC_CHANNELS_SCALED,477572,1,172,992,934,950,992,1811,992,1811,255,477572142,331,943,16732,-44,73,-6,60,-121,-257,0,-224,1,4,-1,1567,-1,-1,-1,-1,3,369989935,-1220635956,0,65535,65535,1,0,255,0,0,0,0,0,0,10,0,192,0,3,3
GPS_RAW_INT,477572,1,172,992,934,950,992,1811,992,1811,255,477578006,331,943,16732,-44,73,-6,60,-121,-257,0,-224,1,4,-1,1567,-1,-1,-1,-1,3,369989936,-1220635955,0,65535,65535,1,0,255,0,0,0,0,0,0,10,0,192,0,3,3
RC_CHANNELS_RAW,477592,0,172,992,934,950,992,1811,992,1811,255,477578006,331,943,16732,-44,73,-6,60,-121,-257,0,-224,1,4,-1,1567,-1,-1,-1,-1,3,369989936,-1220635955,0,65535,65535,1,0,255,0,0,0,0,0,0,10,0,192,0,3,3
RAW_IMU,477592,0,172,992,934,950,992,1811,992,1811,255,477592143,457,997,16708,-44,72,-7,53,-117,-246,0,-256,1,4,-1,1567,-1,-1,-1,-1,3,369989936,-1220635955,0,65535,65535,1,0,255,0,0,0,0,0,0,10,0,192,0,3,3
RC_CHANNELS_SCALED,477592,1,172,992,934,950,992,1811,992,1811,255,477592143,457,997,16708,-44,72,-7,53,-117,-246,0,-256,0,2,-4,1566,-1,-1,-1,-1,3,369989936,-1220635955,0,65535,65535,1,0,255,0,0,0,0,0,0,10,0,192,0,3,3
RC_CHANNELS_RAW,477612,0,172,992,934,950,992,1811,992,1811,255,477592143,457,997,16708,-44,72,-7,53,-117,-246,0,-256,0,2,-4,1566,-1,-1,-1,-1,3,369989936,-1220635955,0,65535,65535,1,0,255,0,0,0,0,0,0,10,0,192,0,3,3
RAW_IMU,477612,0,172,992,934,950,992,1811,992,1811,255,477612140,403,1022,16705,-34,74,-13,58,-115,-248,0,-336,0,2,-4,1566,-1,-1,-1,-1,3,369989936,-1220635955,0,65535,65535,1,0,255,0,0,0,0,0,0,10,0,192,0,3,3
RC_CHANNELS_SCALED,477612,1,172,992,934,950,992,1811,992,1811,255,477612140,403,1022,16705,-34,74,-13,58,-115,-248,0,-336,-4,-1,-1,1570,-1,-1,-1,-1,3,369989936,-1220635955,0,65535,65535,1,0,255,0,0,0,0,0,0,10,0,192,0,3,3
RC_CHANNELS_RAW,477632,0,172,992,934,950,992,1811,992,1811,255,477612140,403,1022,16705,-34,74,-13,58,-115,-248,0,-336,-4,-1,-1,1570,-1,-1,-1,-1,3,369989936,-1220635955,0,65535,65535,1,0,255,0,0,0,0,0,0,10,0,192,0,3,3
RAW_IMU,477632,0,172,992,934,950,992,1811,992,1811,255,477632143,413,981,16724,-32,80,-32,60,-111,-247,0,-256,-4,-1,-1,1570,-1,-1,-1,-1,3,369989936,-1220635955,0,65535,65535,1,0,255,0,0,0,0,0,0,10,0,192,0,3,3
RC_CHANNELS_SCALED,477632,1,172,992,934,950,992,1811,992,1811,255,477632143,413,981,16724,-32,80,-32,60,-111,-247,0,-256,-1,-1,2,1568,-1,-1,-1,-1,3,369989936,-1220635955,0,65535,65535,1,0,255,0,0,0,0,0,0,10,0,192,0,3,3
RC_CHANNELS_RAW,477652,0,172,992,934,950,992,1811,992,1811,255,477632143,413,981,16724,-32,80,-32,60,-111,-247,0,-256,-1,-1,2,1568,-1,-1,-1,-1,3,369989936,-1220635955,0,65535,65535,1,0,255,0,0,0,0,0,0,10,0,192,0,3,3
RAW_IMU,477652,0,172,992,934,950,992,1811,992,1811,255,477652145,361,1033,16687,-28,89,4,57,-113,-242,0,-352,-1,-1,2,1568,-1,-1,-1,-1,3,369989936,-1220635955,0,65535,65535,1,0,255,0,0,0,0,0,0,10,0,192,0,3,3
RC_CHANNELS_SCALED,477652,1,172,992,934,950,992,1811,992,1811,255,477652145,361,1033,16687,-28,89,4,57,-113,-242,0,-352,0,1,1,1567,-1,-1,-1,-1,3,369989936,-1220635955,0,65535,65535,1,0,255,0,0,0,0,0,0,10,0,192,0,3,3
RC_CHANNELS_RAW,477672,0,172,992,934,950,992,1811,992,1811,255,477652145,361,1033,16687,-28,89,4,57,-113,-242,0,-352,0,1,1,1567,-1,-1,-1,-1,3,369989936,-1220635955,0,65535,65535,1,0,255,0,0,0,0,0,0,10,0,192,0,3,3
RAW_IMU,477672,0,172,992,934,950,992,1811,992,1811,255,477672146,470,1025,16734,-38,80,-21,50,-107,-241,0,-272,0,1,1,1567,-1,-1,-1,-1,3,369989936,-1220635955,0,65535,65535,1,0,255,0,0,0,0,0,0,10,0,192,0,3,3
RC_CHANNELS_SCALED,477672,1,172,992,934,950,992,1811,992,1811,255,477672146,470,1025,16734,-38,80,-21,50,-107,-241,0,-272,1,0,-1,1569,-1,-1,-1,-1,3,369989936,-1220635955,0,65535,65535,1,0,255,0,0,0,0,0,0,10,0,192,0,3,3
