mavpackettype,time_boot_ms,port,chan1_raw,chan2_raw,chan3_raw,chan4_raw,chan5_raw,chan6_raw,chan7_raw,chan8_raw,rssi,time_usec,xacc,yacc,zacc,xgyro,ygyro,zgyro,xmag,ymag,zmag,id,temperature,chan1_scaled,chan2_scaled,chan3_scaled,chan4_scaled,chan5_scaled,chan6_scaled,chan7_scaled,chan8_scaled,fix_type,lat,lon,alt,eph,epv,vel,cog,satellites_visible,alt_ellipsoid,h_acc,v_acc,vel_acc,hdg_acc,yaw,type,autopilot,base_mode,custom_mode,system_status,mavlink_version
RC_CHANNELS_SCALED,329192,1,172,992,934,950,992,1811,992,1811,255,329192144,211,825,16681,-40,71,-9,91,14,-294,0,-112,1,-2,0,1654,-1,-1,-1,-1,3,369989850,-1220635843,0,65535,65535,1,0,255,0,0,0,0,0,0,10,0,192,0,3,3
GPS_RAW_INT,329192,1,172,992,934,950,992,1811,992,1811,255,329209005,211,825,16681,-40,71,-9,91,14,-294,0,-112,1,-2,0,1654,-1,-1,-1,-1,3,369989850,-1220635843,0,65535,65535,1,0,255,0,0,0,0,0,0,10,0,192,0,3,3
RC_CHANNELS_RAW,329212,0,172,992,934,950,992,1811,992,1811,255,329209005,211,825,16681,-40,71,-9,91,14,-294,0,-112,1,-2,0,1654,-1,-1,-1,-1,3,369989850,-1220635843,0,65535,65535,1,0,255,0,0,0,0,0,0,10,0,192,0,3,3
RAW_IMU,329212,0,172,992,934,950,992,1811,992,1811,255,329212148,269,821,16655,-40,84,-27,97,8,-300,0,-272,1,-2,0,1654,-1,-1,-1,-1,3,369989850,-1220635843,0,65535,65535,1,0,255,0,0,0,0,0,0,10,0,192,0,3,3
RC_CHANNELS_SCALED,329212,1,172,992,934,950,992,1811,992,1811,255,329212148,269,821,16655,-40,84,-27,97,8,-300,0,-272,-4,1,5,1658,-1,-1,-1,-1,3,369989850,-1220635843,0,65535,65535,1,0,255,0,0,0,0,0,0,10,0,192,0,3,3
RC_CHANNELS_RAW,329232,0,172,992,934,950,992,1811,992,1811,255,329212148,269,821,16655,-40,84,-27,97,8,-300,0,-272,-4,1,5,1658,-1,-1,-1,-1,3,369989850,-1220635843,0,65535,65535,1,0,255,0,0,0,0,0,0,10,0,192,0,3,3
RAW_IMU,329232,0,172,992,934,950,992,1811,992,1811,255,329232149,176,850,16726,-44,66,-19,101,9,-311,0,-160,-4,1,5,1658,-1,-1,-1,-1,3,369989850,-1220635843,0,65535,65535,1,0,255,0,0,0,0,0,0,10,0,192,0,3,3
RC_CHANNELS_SCALED,329232,1,172,992,934,950,992,1811,992,1811,255,329232149,176,850,16726,-44,66,-19,101,9,-311,0,-160,-1,-3,0,1655,-1,-1,-1,-1,3,369989850,-1220635843,0,65535,65535,1,0,255,0,0,0,0,0,0,10,0,192,0,3,3
RC_CHANNELS_RAW,329252,0,172,992,934,950,992,1811,992,1811,255,329232149,176,850,16726,-44,66,-19,101,9,-311,0,-160,-1,-3,0,1655,-1,-1,-1,-1,3,369989850,-1220635843,0,65535,65535,1,0,255,0,0,0,0,0,0,10,0,192,0,3,3
RAW_IMU,329252,0,172,992,934,950,992,1811,992,1811,255,329252144,286,895,16734,-46,64,-8,96,12,-306,0,-96,-1,-3,0,1655,-1,-1,-1,-1,3,369989850,-1220635843,0,65535,65535,1,0,255,0,0,0,0,0,0,10,0,192,0,3,3
RC_CHANNELS_SCALED,329252,1,172,992,934,950,992,1811,992,1811,255,329252144,286,895,16734,-46,64,-8,96,12,-306,0,-96,-1,2,-1,1654,-1,-1,-1,-1,3,369989850,-1220635843,0,65535,65535,1,0,255,0,0,0,0,0,0,10,0,192,0,3,3
RC_CHANNELS_RAW,329272,0,172,992,934,950,992,1811,992,1811,255,329252144,286,895,16734,-46,64,-8,96,12,-306,0,-96,-1,2,-1,1654,-1,-1,-1,-1,3,369989850,-1220635843,0,65535,65535,1,0,255,0,0,0,0,0,0,10,0,192,0,3,3
RAW_IMU,329272,0,172,992,934,950,992,1811,992,1811,255,329272140,247,848,16709,-34,63,-18,99,14,-304,0,-160,-1,2,-1,1654,-1,-1,-1,-1,3,369989850,-1220635843,0,65535,65535,1,0,255,0,0,0,0,0,0,10,0,192,0,3,3
RC_CHANNELS_SCALED,329272,1,172,992,934,950,992,1811,992,1811,255,329272140,247,848,16709,-34,63,-18,99,14,-304,0,-160,-2,-2,-4,1653,-1,-1,-1,-1,3,369989850,-1220635843,0,65535,65535,1,0,255,0,0,0,0,0,0,10,0,192,0,3,3
RC_CHANNELS_RAW,329292,0,172,992,934,950,992,1811,992,1811,255,329272140,247,848,16709,-34,63,-18,99,14,-304,0,-160,-2,-2,-4,1653,-1,-1,-1,-1,3,369989850,-1220635843,0,65535,65535,1,0,255,0,0,0,0,0,0,10,0,192,0,3,3
RAW_IMU,329292,0,172,992,934,950,992,1811,992,1811,255,329292142,250,852,16739,-52,63,-17,103,10,-300,0,-80,-2,-2,-4,1653,-1,-1,-1,-1,3,369989850,-1220635843,0,65535,65535,1,0,255,0,0,0,0,0,0,10,0,192,0,3,3
RC_CHANNELS_SCALED,329292,1,172,992,934,950,992,1811,992,1811,255,329292142,250,852,16739,-52,63,-17,103,10,-300,0,-80,1,-1,-2,1653,-1,-1,-1,-1,3,369989850,-1220635843,0,65535,65535,1,0,255,0,0,0,0,0,0,10,0,192,0,3,3
GPS_RAW_INT,329292,1,172,992,934,950,992,1811,992,1811,255,329310008,250,852,16739,-52,63,-17,103,10,-300,0,-80,1,-1,-2,1653,-1,-1,-1,-1,3,369989848,-1220635843,0,65535,65535,1,0,255,0,0,0,0,0,0,10,0,192,0,3,3
RC_CHANNELS_RAW,329312,0,172,992,934,950,992,1811,992,1811,255,329310008,250,852,16739,-52,63,-17,103,10,-300,0,-80,1,-1,-2,1653,-1,-1,-1,-1,3,369989848,-1220635843,0,65535,65535,1,0,255,0,0,0,0,0,0,10,0,192,0,3,3
RAW_IMU,329312,0,172,992,934,950,992,1811,992,1811,255,329312148,192,926,16708,-39,67,-8,93,7,-309,0,-112,1,-1,-2,1653,-1,-1,-1,-1,3,369989848,-1220635843,0,65535,65535,1,0,255,0,0,0,0,0,0,10,0,192,0,3,3
RC_CHANNELS_SCALED,329312,1,172,992,934,950,992,1811,992,1811,255,329312148,192,926,16708,-39,67,-8,93,7,-309,0,-112,1,0,-2,1655,-1,-1,-1,-1,3,369989848,-1220635843,0,65535,65535,1,0,255,0,0,0,0,0,0,10,0,192,0,3,3
RC_CHANNELS_RAW,329332,0,172,992,934,950,992,1811,992,1811,255,329312148,192,926,16708,-39,67,-8,93,7,-309,0,-112,1,0,-2,1655,-1,-1,-1,-1,3,369989848,-1220635843,0,65535,65535,1,0,255,0,0,0,0,0,0,10,0,192,0,3,3
RAW_IMU,329332,0,172,992,934,950,992,1811,992,1811,255,329332151,258,841,16651,-30,57,-18,95,15,-302,0,-112,1,0,-2,1655,-1,-1,-1,-1,3,369989848,-1220635843,0,65535,65535,1,0,255,0,0,0,0,0,0,10,0,192,0,3,3
RC_CHANNELS_SCALED,329332,1,172,992,934,950,992,1811,992,1811,255,329332151,258,841,16651,-30,57,-18,95,15,-302,0,-112,2,1,-4,1654,-1,-1,-1,-1,3,369989848,-1220635843,0,65535,65535,1,0,255,0,0,0,0,0,0,10,0,192,0,3,3
RC_CHANNELS_RAW,329352,0,172,992,934,950,992,1811,992,1811,255,329332151,258,841,16651,-30,57,-18,95,15,-302,0,-112,2,1,-4,1654,-1,-1,-1,-1,3,369989848,-1220635843,0,65535,65535,1,0,255,0,0,0,0,0,0,10,0,192,0,3,3
RAW_IMU,329352,0,172,992,934,950,992,1811,992,1811,255,329352143,158,814,16703,-41,61,-9,95,15,-307,0,-208,2,1,-4,1654,-1,-1,-1,-1,3,369989848,-1220635843,0,65535,65535,1,0,255,0,0,0,0,0,0,10,0,192,0,3,3
RC_CHANNELS_SCALED,329352,1,172,992,934,950,992,1811,992,1811,255,329352143,158,814,16703,-41,61,-9,95,15,-307,0,-208,1,-5,-1,1655,-1,-1,-1,-1,3,369989848,-1220635843,0,65535,65535,1,0,255,0,0,0,0,0,0,10,0,192,0,3,3
RC_CHANNELS_RAW,329372,0,172,992,934,950,992,1811,992,1811,255,329352143,158,814,16703,-41,61,-9,95,15,-307,0,-208,1,-5,-1,1655,-1,-1,-1,-1,3,369989848,-1220635843,0,65535,65535,1,0,255,0,0,0,0,0,0,10,0,192,0,3,3
RAW_IMU,329372,0,172,992,934,950,992,1811,992,1811,255,329372140,223,833,16704,-38,57,-36,95,13,-310,0,-144,1,-5,-1,1655,-1,-1,-1,-1,3,369989848,-1220635843,0,65535,65535,1,0,255,0,0,0,0,0,0,10,0,192,0,3,3
RC_CHANNELS_SCALED,329372,1,172,992,934,950,992,1811,992,1811,255,329372140,223,833,16704,-38,57,-36,95,13,-310,0,-144,2,-1,-2,1655,-1,-1,-1,-1,3,369989848,-1220635843,0,65535,65535,1,0,255,0,0,0,0,0,0,10,0,192,0,3,3
RC_CHANNELS_RAW,329392,0,172,992,934,950,992,1811,992,1811,255,329372140,223,833,16704,-38,57,-36,95,13,-310,0,-144,2,-1,-2,1655,-1,-1,-1,-1,3,369989848,-1220635843,0,65535,65535,1,0,255,0,0,0,0,0,0,10,0,192,0,3,3
RAW_IMU,329392,0,172,992,934,950,992,1811,992,1811,255,329392142,161,863,16741,-49,72,-19,100,18,-298,0,-112,2,-1,-2,1655,-1,-1,-1,-1,3,369989848,-1220635843,0,65535,65535,1,0,255,0,0,0,0,0,0,10,0,192,0,3,3
RC_CHANNELS_SCALED,329392,1,172,992,934,950,992,1811,992,1811,255,329392142,161,863,16741,-49,72,-19,100,18,-298,0,-112,0,0,-2,1655,-1,-1,-1,-1,3,369989848,-1220635843,0,65535,65535,1,0,255,0,0,0,0,0,0,10,0,192,0,3,3
GPS_RAW_INT,329392,1,172,992,934,950,992,1811,992,1811,255,329411005,161,863,16741,-49,72,-19,100,18,-298,0,-112,0,0,-2,1655,-1,-1,-1,-1,3,369989848,-1220635843,0,65535,65535,1,0,255,0,0,0,0,0,0,10,0,192,0,3,3
RC_CHANNELS_RAW,329412,0,172,992,934,950,992,1811,992,1811,255,329411005,161,863,16741,-49,72,-19,100,18,-298,0,-112,0,0,-2,1655,-1,-1,-1,-1,3,369989848,-1220635843,0,65535,65535,1,0,255,0,0,0,0,0,0,10,0,192,0,3,3
RAW_IMU,329412,0,172,992,934,950,992,1811,992,1811,255,329412147,195,806,16685,-58,61,-29,93,12,-291,0,-96,0,0,-2,1655,-1,-1,-1,-1,3,369989848,-1220635843,0,65535,65535,1,0,255,0,0,0,0,0,0,10,0,192,0,3,3
RC_CHANNELS_SCALED,329412,1,172,992,934,950,992,1811,992,1811,255,329412147,195,806,16685,-58,61,-29,93,12,-291,0,-96,-1,1,-2,1652,-1,-1,-1,-1,3,369989848,-1220635843,0,65535,65535,1,0,255,0,0,0,0,0,0,10,0,192,0,3,3
RC_CHANNELS_RAW,329432,0,172,992,934,950,992,1811,992,1811,255,329412147,195,806,16685,-58,61,-29,93,12,-291,0,-96,-1,1,-2,1652,-1,-1,-1,-1,3,369989848,-1220635843,0,65535,65535,1,0,255,0,0,0,0,0,0,10,0,192,0,3,3
RAW_IMU,329432,0,172,992,934,950,992,1811,992,1811,255,329432149,255,808,16712,-40,77,-15,101,21,-304,0,-80,-1,1,-2,1652,-1,-1,-1,-1,3,369989848,-1220635843,0,65535,65535,1,0,255,0,0,0,0,0,0,10,0,192,0,3,3
RC_CHANNELS_SCALED,329432,1,172,992,934,950,992,1811,992,1811,255,329432149,255,808,16712,-40,77,-15,101,21,-304,0,-80,0,-1,-1,1654,-1,-1,-1,-1,3,369989848,-1220635843,0,65535,65535,1,0,255,0,0,0,0,0,0,10,0,192,0,3,3
RC_CHANNELS_RAW,329452,0,172,992,934,950,992,1811,992,1811,255,329432149,255,808,16712,-40,77,-15,101,21,-304,0,-80,0,-1,-1,1654,-1,-1,-1,-1,3,369989848,-1220635843,0,65535,65535,1,0,255,0,0,0,0,0,0,10,0,192,0,3,3
RAW_IMU,329452,0,172,992,934,950,992,1811,992,1811,255,329452142,226,839,16681,-35,70,-23,92,10,-293,0,-144,0,-1,-1,1654,-1,-1,-1,-1,3,369989848,-1220635843,0,65535,65535,1,0,255,0,0,0,0,0,0,10,0,192,0,3,3
RC_CHANNELS_SCALED,329452,1,172,992,934,950,992,1811,992,1811,255,329452142,226,839,16681,-35,70,-23,92,10,-293,0,-144,1,-1,2,1658,-1,-1,-1,-1,3,369989848,-1220635843,0,65535,65535,1,0,255,0,0,0,0,0,0,10,0,192,0,3,3
RC_CHANNELS_RAW,329472,0,172,992,934,950,992,1811,992,1811,255,329452142,226,839,16681,-35,70,-23,92,10,-293,0,-144,1,-1,2,1658,-1,-1,-1,-1,3,369989848,-1220635843,0,65535,65535,1,0,255,0,0,0,0,0,0,10,0,192,0,3,3
RAW_IMU,329472,0,172,992,934,950,992,1811,992,1811,255,329472148,196,858,16688,-28,75,-21,93,16,-309,0,-96,1,-1,2,1658,-1,-1,-1,-1,3,369989848,-1220635843,0,65535,65535,1,0,255,0,0,0,0,0,0,10,0,192,0,3,3
RC_CHANNELS_SCALED,329472,1,172,992,934,950,992,1811,992,1811,255,329472148,196,858,16688,-28,75,-21,93,16,-309,0,-96,2,0,0,1655,-1,-1,-1,-1,3,369989848,-1220635843,0,65535,65535,1,0,255,0,0,0,0,0,0,10,0,192,0,3,3
RC_CHANNELS_RAW,329492,0,172,992,934,950,992,1811,992,1811,255,329472148,196,858,16688,-28,75,-21,93,16,-309,0,-96,2,0,0,1655,-1,-1,-1,-1,3,369989848,-1220635843,0,65535,65535,1,0,255,0,0,0,0,0,0,10,0,192,0,3,3
RAW_IMU,329492,0,172,992,934,950,992,1811,992,1811,255,329492142,212,830,16725,-36,65,-19,93,16,-309,0,-160,2,0,0,1655,-1,-1,-1,-1,3,369989848,-1220635843,0,65535,65535,1,0,255,0,0,0,0,0,0,10,0,192,0,3,3
RC_CHANNELS_SCALED,329492,1,172,992,934,950,992,1811,992,1811,255,329492142,212,830,16725,-36,65,-19,93,16,-309,0,-160,3,3,-3,1653,-1,-1,-1,-1,3,369989848,-1220635843,0,65535,65535,1,0,255,0,0,0,0,0,0,10,0,192,0,3,3
RC_CHANNELS_RAW,329512,0,172,992,934,950,992,1811,992,1811,255,329492142,212,830,16725,-36,65,-19,93,16,-309,0,-160,3,3,-3,1653,-1,-1,-1,-1,3,369989848,-1220635843,0,65535,65535,1,0,255,0,0,0,0,0,0,10,0,192,0,3,3
RAW_IMU,329512,0,172,992,934,950,992,1811,992,1811,255,329512144,280,820,16695,-37,62,-22,91,21,-296,0,-80,3,3,-3,1653,-1,-1,-1,-1,3,369989848,-1220635843,0,65535,65535,1,0,255,0,0,0,0,0,0,10,0,192,0,3,3
RC_CHANNELS_SCALED,329512,1,172,992,934,950,992,1811,992,1811,255,329512144,280,820,16695,-37,62,-22,91,21,-296,0,-80,1,1,1,1656,-1,-1,-1,-1,3,369989848,-1220635843,0,65535,65535,1,0,255,0,0,0,0,0,0,10,0,192,0,3,3
GPS_RAW_INT,329512,1,172,992,934,950,992,1811,992,1811,255,329512431,280,820,16695,-37,62,-22,91,21,-296,0,-80,1,1,1,1656,-1,-1,-1,-1,3,369989846,-1220635845,0,65535,65535,2,0,255,0,0,0,0,0,0,10,0,192,0,3,3
RC_CHANNELS_RAW,329532,0,172,992,934,950,992,1811,992,1811,255,329512431,280,820,16695,-37,62,-22,91,21,-296,0,-80,1,1,1,1656,-1,-1,-1,-1,3,369989846,-1220635845,0,65535,65535,2,0,255,0,0,0,0,0,0,10,0,192,0,3,3
RAW_IMU,329532,0,172,992,934,950,992,1811,992,1811,255,329532147,330,806,16701,-57,72,-20,96,9,-296,0,-144,1,1,1,1656,-1,-1,-1,-1,3,369989846,-1220635845,0,65535,65535,2,0,255,0,0,0,0,0,0,10,0,192,0,3,3
RC_CHANNELS_SCALED,329532,1,172,992,934,950,992,1811,992,1811,255,329532147,330,806,16701,-57,72,-20,96,9,-296,0,-144,1,-2,-1,1655,-1,-1,-1,-1,3,369989846,-1220635845,0,65535,65535,2,0,255,0,0,0,0,0,0,10,0,192,0,3,3
RC_CHANNELS_RAW,329552,0,172,992,934,950,992,1811,992,1811,255,329532147,330,806,16701,-57,72,-20,96,9,-296,0,-144,1,-2,-1,1655,-1,-1,-1,-1,3,369989846,-1220635845,0,65535,65535,2,0,255,0,0,0,0,0,0,10,0,192,0,3,3
RAW_IMU,329552,0,172,992,934,950,992,1811,992,1811,255,329552146,201,873,16693,-44,67,-19,100,20,-295,0,-80,1,-2,-1,1655,-1,-1,-1,-1,3,369989846,-1220635845,0,65535,65535,2,0,255,0,0,0,0,0,0,10,0,192,0,3,3
RC_CHANNELS_SCALED,329552,1,172,992,934,950,992,1811,992,1811,255,329552146,201,873,16693,-44,67,-19,100,20,-295,0,-80,3,-1,1,1654,-1,-1,-1,-1,3,369989846,-1220635845,0,65535,65535,2,0,255,0,0,0,0,0,0,10,0,192,0,3,3
RC_CHANNELS_RAW,329572,0,172,992,934,950,992,1811,992,1811,255,329552146,201,873,16693,-44,67,-19,100,20,-295,0,-80,3,-1,1,1654,-1,-1,-1,-1,3,369989846,-1220635845,0,65535,65535,2,0,255,0,0,0,0,0,0,10,0,192,0,3,3
RAW_IMU,329572,0,172,992,934,950,992,1811,992,1811,255,329572143,256,820,16672,-39,70,-15,104,14,-309,0,-144,3,-1,1,1654,-1,-1,-1,-1,3,369989846,-1220635845,0,65535,65535,2,0,255,0,0,0,0,0,0,10,0,192,0,3,3
RC_CHANNELS_SCALED,329572,1,172,992,934,950,992,1811,992,1811,255,329572143,256,820,16672,-39,70,-15,104,14,-309,0,-144,3,0,0,1655,-1,-1,-1,-1,3,369989846,-1220635845,0,65535,65535,2,0,255,0,0,0,0,0,0,10,0,192,0,3,3
RC_CHANNELS_RAW,329592,0,172,992,934,950,992,1811,992,1811,255,329572143,256,820,16672,-39,70,-15,104,14,-309,0,-144,3,0,0,1655,-1,-1,-1,-1,3,369989846,-1220635845,0,65535,65535,2,0,255,0,0,0,0,0,0,10,0,192,0,3,3
RAW_IMU,329592,0,172,992,934,950,992,1811,992,1811,255,329592146,197,804,16677,-40,60,-21,105,6,-307,0,-160,3,0,0,1655,-1,-1,-1,-1,3,369989846,-1220635845,0,65535,65535,2,0,255,0,0,0,0,0,0,10,0,192,0,3,3
RC_CHANNELS_SCALED,329592,1,172,992,934,950,992,1811,992,1811,255,329592146,197,804,16677,-40,60,-21,105,6,-307,0,-160,0,-2,-1,1656,-1,-1,-1,-1,3,369989846,-1220635845,0,65535,65535,2,0,255,0,0,0,0,0,0,10,0,192,0,3,3
RC_CHANNELS_RAW,329612,0,172,992,934,950,992,1811,992,1811,255,329592146,197,804,16677,-40,60,-21,105,6,-307,0,-160,0,-2,-1,1656,-1,-1,-1,-1,3,369989846,-1220635845,0,65535,65535,2,0,255,0,0,0,0,0,0,10,0,192,0,3,3
RAW_IMU,329612,0,172,992,934,950,992,1811,992,1811,255,329612142,196,830,16740,-38,70,-17,93,19,-301,0,-96,0,-2,-1,1656,-1,-1,-1,-1,3,369989846,-1220635845,0,65535,65535,2,0,255,0,0,0,0,0,0,10,0,192,0,3,3
RC_CHANNELS_SCALED,329612,1,172,992,934,950,992,1811,992,1811,255,329612142,196,830,16740,-38,70,-17,93,19,-301,0,-96,0,1,-1,1653,-1,-1,-1,-1,3,369989846,-1220635845,0,65535,65535,2,0,255,0,0,0,0,0,0,10,0,192,0,3,3
GPS_RAW_INT,329612,1,172,992,934,950,992,1811,992,1811,255,329613010,196,830,16740,-38,70,-17,93,19,-301,0,-96,0,1,-1,1653,-1,-1,-1,-1,3,369989846,-1220635845,0,65535,65535,1,0,255,0,0,0,0,0,0,10,0,192,0,3,3
RC_CHANNELS_RAW,329632,0,172,992,934,950,992,1811,992,1811,255,329613010,196,830,16740,-38,70,-17,93,19,-301,0,-96,0,1,-1,1653,-1,-1,-1,-1,3,369989846,-1220635845,0,65535,65535,1,0,255,0,0,0,0,0,0,10,0,192,0,3,3
RAW_IMU,329632,0,172,992,934,950,992,1811,992,1811,255,329632147,226,738,16673,-30,80,-24,92,10,-305,0,-224,0,1,-1,1653,-1,-1,-1,-1,3,369989846,-1220635845,0,65535,65535,1,0,255,0,0,0,0,0,0,10,0,192,0,3,3
RC_CHANNELS_SCALED,329632,1,172,992,934,950,992,1811,992,1811,255,329632147,226,738,16673,-30,80,-24,92,10,-305,0,-224,2,1,0,1655,-1,-1,-1,-1,3,369989846,-1220635845,0,65535,65535,1,0,255,0,0,0,0,0,0,10,0,192,0,3,3
RC_CHANNELS_RAW,329652,0,172,992,934,950,992,1811,992,1811,255,329632147,226,738,16673,-30,80,-24,92,10,-305,0,-224,2,1,0,1655,-1,-1,-1,-1,3,369989846,-1220635845,0,65535,65535,1,0,255,0,0,0,0,0,0,10,0,192,0,3,3
RAW_IMU,329652,0,172,992,934,950,992,1811,992,1811,255,329652141,187,856,16623,-22,62,-23,96,14,-299,0,-112,2,1,0,1655,-1,-1,-1,-1,3,369989846,-1220635845,0,65535,65535,1,0,255,0,0,0,0,0,0,10,0,192,0,3,3
RC_CHANNELS_SCALED,329652,1,172,992,934,950,992,1811,992,1811,255,329652141,187,856,16623,-22,62,-23,96,14,-299,0,-112,-1,2,2,1655,-1,-1,-1,-1,3,369989846,-1220635845,0,65535,65535,1,0,255,0,0,0,0,0,0,10,0,192,0,3,3
RC_CHANNELS_RAW,329672,0,172,992,934,950,992,1811,992,1811,255,329652141,187,856,16623,-22,62,-23,96,14,-299,0,-112,-1,2,2,1655,-1,-1,-1,-1,3,369989846,-1220635845,0,65535,65535,1,0,255,0,0,0,0,0,0,10,0,192,0,3,3
RAW_IMU,329672,0,172,992,934,950,992,1811,992,1811,255,329672142,238,830,16695,-40,69,-25,95,15,-302,0,-224,-1,2,2,1655,-1,-1,-1,-1,3,369989846,-1220635845,0,65535,65535,1,0,255,0,0,0,0,0,0,10,0,192,0,3,3
RC_CHANNELS_SCALED,329672,1,172,992,934,950,992,1811,992,1811,255,329672142,238,830,16695,-40,69,-25,95,15,-302,0,-224,2,-1,-2,1655,-1,-1,-1,-1,3,369989846,-1220635845,0,65535,65535,1,0,255,0,0,0,0,0,0,10,0,192,0,3,3
RC_CHANNELS_RAW,329692,0,172,992,934,950,992,1811,992,1811,255,329672142,238,830,16695,-40,69,-25,95,15,-302,0,-224,2,-1,-2,1655,-1,-1,-1,-1,3,369989846,-1220635845,0,65535,65535,1,0,255,0,0,0,0,0,0,10,0,192,0,3,3
RAW_IMU,329692,0,172,992,934,950,992,1811,992,1811,255,329692146,171,809,16726,-31,61,-28,95,18,-300,0,-80,2,-1,-2,1655,-1,-1,-1,-1,3,369989846,-1220635845,0,65535,65535,1,0,255,0,0,0,0,0,0,10,0,192,0,3,3
RC_CHANNELS_SCALED,329692,1,172,992,934,950,992,1811,992,1811,255,329692146,171,809,16726,-31,61,-28,95,18,-300,0,-80,-6,-4,-3,1655,-1,-1,-1,-1,3,369989846,-1220635845,0,65535,65535,1,0,255,0,0,0,0,0,0,10,0,192,0,3,3
RC_CHANNELS_RAW,329712,0,172,992,934,950,992,1811,992,1811,255,329692146,171,809,16726,-31,61,-28,95,18,-300,0,-80,-6,-4,-3,1655,-1,-1,-1,-1,3,369989846,-1220635845,0,65535,65535,1,0,255,0,0,0,0,0,0,10,0,192,0,3,3
RAW_IMU,329712,0,172,992,934,950,992,1811,992,1811,255,329712148,228,829,16690,-37,64,-4,103,15,-295,0,-144,-6,-4,-3,1655,-1,-1,-1,-1,3,369989846,-1220635845,0,65535,65535,1,0,255,0,0,0,0,0,0,10,0,192,0,3,3
RC_CHANNELS_SCALED,329712,1,172,992,934,950,992,1811,992,1811,255,329712148,228,829,16690,-37,64,-4,103,15,-295,0,-144,0,-2,3,1659,-1,-1,-1,-1,3,369989846,-1220635845,0,65535,65535,1,0,255,0,0,0,0,0,0,10,0,192,0,3,3
GPS_RAW_INT,329712,1,172,992,934,950,992,1811,992,1811,255,329714009,228,829,16690,-37,64,-4,103,15,-295,0,-144,0,-2,3,1659,-1,-1,-1,-1,3,369989846,-1220635845,0,65535,65535,0,0,255,0,0,0,0,0,0,10,0,192,0,3,3
RC_CHANNELS_RAW,329732,0,172,992,934,950,992,1811,992,1811,255,329714009,228,829,16690,-37,64,-4,103,15,-295,0,-144,0,-2,3,1659,-1,-1,-1,-1,3,369989846,-1220635845,0,65535,65535,0,0,255,0,0,0,0,0,0,10,0,192,0,3,3
RAW_IMU,329732,0,172,992,934,950,992,1811,992,1811,255,329732146,204,815,16698,-40,57,-15,97,15,-307,0,-176,0,-2,3,1659,-1,-1,-1,-1,3,369989846,-1220635845,0,65535,65535,0,0,255,0,0,0,0,0,0,10,0,192,0,3,3
RC_CHANNELS_SCALED,329732,1,172,992,934,950,992,1811,992,1811,255,329732146,204,815,16698,-40,57,-15,97,15,-307,0,-176,0,1,0,1655,-1,-1,-1,-1,3,369989846,-1220635845,0,65535,65535,0,0,255,0,0,0,0,0,0,10,0,192,0,3,3
RC_CHANNELS_RAW,329752,0,172,992,934,950,992,1811,992,1811,255,329732146,204,815,16698,-40,57,-15,97,15,-307,0,-176,0,1,0,1655,-1,-1,-1,-1,3,369989846,-1220635845,0,65535,65535,0,0,255,0,0,0,0,0,0,10,0,192,0,3,3
RAW_IMU,329752,0,172,992,934,950,992,1811,992,1811,255,329752144,221,808,16708,-36,52,-20,104,9,-299,0,-176,0,1,0,1655,-1,-1,-1,-1,3,369989846,-1220635845,0,65535,65535,0,0,255,0,0,0,0,0,0,10,0,192,0,3,3
RC_CHANNELS_SCALED,329752,1,172,992,934,950,992,1811,992,1811,255,329752144,221,808,16708,-36,52,-20,104,9,-299,0,-176,0,0,3,1658,-1,-1,-1,-1,3,369989846,-1220635845,0,65535,65535,0,0,255,0,0,0,0,0,0,10,0,192,0,3,3
RC_CHANNELS_RAW,329772,0,172,992,934,950,992,1811,992,1811,255,329752144,221,808,16708,-36,52,-20,104,9,-299,0,-176,0,0,3,1658,-1,-1,-1,-1,3,369989846,-1220635845,0,65535,65535,0,0,255,0,0,0,0,0,0,10,0,192,0,3,3
RAW_IMU,329772,0,172,992,934,950,992,1811,992,1811,255,329772141,233,857,16654,-33,75,-19,104,9,-291,0,-176,0,0,3,1658,-1,-1,-1,-1,3,369989846,-1220635845,0,65535,65535,0,0,255,0,0,0,0,0,0,10,0,192,0,3,3
RC_CHANNELS_SCALED,329772,1,172,992,934,950,992,1811,992,1811,255,329772141,233,857,16654,-33,75,-19,104,9,-291,0,-176,3,1,1,1656,-1,-1,-1,-1,3,369989846,-1220635845,0,65535,65535,0,0,255,0,0,0,0,0,0,10,0,192,0,3,3
RC_CHANNELS_RAW,329792,0,172,992,934,950,992,1811,992,1811,255,329772141,233,857,16654,-33,75,-19,104,9,-291,0,-176,3,1,1,1656,-1,-1,-1,-1,3,369989846,-1220635845,0,65535,65535,0,0,255,0,0,0,0,0,0,10,0,192,0,3,3
RAW_IMU,329792,0,172,992,934,950,992,1811,992,1811,255,329792142,252,882,16713,-35,84,-22,100,6,-300,0,-112,3,1,1,1656,-1,-1,-1,-1,3,369989846,-1220635845,0,65535,65535,0,0,255,0,0,0,0,0,0,10,0,192,0,3,3
RC_CHANNELS_SCALED,329792,1,172,992,934,950,992,1811,992,1811,255,329792142,252,882,16713,-35,84,-22,100,6,-300,0,-112,-4,-1,-2,1654,-1,-1,-1,-1,3,369989846,-1220635845,0,65535,65535,0,0,255,0,0,0,0,0,0,10,0,192,0,3,3
RC_CHANNELS_RAW,329812,0,172,992,934,950,992,1811,992,1811,255,329792142,252,882,16713,-35,84,-22,100,6,-300,0,-112,-4,-1,-2,1654,-1,-1,-1,-1,3,369989846,-1220635845,0,65535,65535,0,0,255,0,0,0,0,0,0,10,0,192,0,3,3
RAW_IMU,329812,0,172,992,934,950,992,1811,992,1811,255,329812145,252,861,16681,-57,63,-33,99,16,-301,0,-208,-4,-1,-2,1654,-1,-1,-1,-1,3,369989846,-1220635845,0,65535,65535,0,0,255,0,0,0,0,0,0,10,0,192,0,3,3
RC_CHANNELS_SCALED,329812,1,172,992,934,950,992,1811,992,1811,255,329812145,252,861,16681,-57,63,-33,99,16,-301,0,-208,0,-1,0,1655,-1,-1,-1,-1,3,369989846,-1220635845,0,65535,65535,0,0,255,0,0,0,0,0,0,10,0,192,0,3,3
GPS_RAW_INT,329812,1,172,992,934,950,992,1811,992,1811,255,329815007,252,861,16681,-57,63,-33,99,16,-301,0,-208,0,-1,0,1655,-1,-1,-1,-1,3,369989845,-1220635845,0,65535,65535,2,0,255,0,0,0,0,0,0,10,0,192,0,3,3
RC_CHANNELS_RAW,329832,0,172,992,934,950,992,1811,992,1811,255,329815007,252,861,16681,-57,63,-33,99,16,-301,0,-208,0,-1,0,1655,-1,-1,-1,-1,3,369989845,-1220635845,0,65535,65535,2,0,255,0,0,0,0,0,0,10,0,192,0,3,3
RAW_IMU,329832,0,172,992,934,950,992,1811,992,1811,255,329832151,242,905,16692,-39,73,0,96,14,-306,0,-160,0,-1,0,1655,-1,-1,-1,-1,3,369989845,-1220635845,0,65535,65535,2,0,255,0,0,0,0,0,0,10,0,192,0,3,3
RC_CHANNELS_SCALED,329832,1,172,992,934,950,992,1811,992,1811,255,329832151,242,905,16692,-39,73,0,96,14,-306,0,-160,0,1,-1,1656,-1,-1,-1,-1,3,369989845,-1220635845,0,65535,65535,2,0,255,0,0,0,0,0,0,10,0,192,0,3,3
RC_CHANNELS_RAW,329852,0,172,992,934,950,992,1811,992,1811,255,329832151,242,905,16692,-39,73,0,96,14,-306,0,-160,0,1,-1,1656,-1,-1,-1,-1,3,369989845,-1220635845,0,65535,65535,2,0,255,0,0,0,0,0,0,10,0,192,0,3,3
RAW_IMU,329852,0,172,992,934,950,992,1811,992,1811,255,329852143,273,821,16725,-38,70,-12,100,10,-305,0,-144,0,1,-1,1656,-1,-1,-1,-1,3,369989845,-1220635845,0,65535,65535,2,0,255,0,0,0,0,0,0,10,0,192,0,3,3
RC_CHANNELS_SCALED,329852,1,172,992,934,950,992,1811,992,1811,255,329852143,273,821,16725,-38,70,-12,100,10,-305,0,-144,2,-1,-2,1654,-1,-1,-1,-1,3,369989845,-1220635845,0,65535,65535,2,0,255,0,0,0,0,0,0,10,0,192,0,3,3
RC_CHANNELS_RAW,329872,0,172,992,934,950,992,1811,992,1811,255,329852143,273,821,16725,-38,70,-12,100,10,-305,0,-144,2,-1,-2,1654,-1,-1,-1,-1,3,369989845,-1220635845,0,65535,65535,2,0,255,0,0,0,0,0,0,10,0,192,0,3,3
RAW_IMU,329872,0,172,992,934,950,992,1811,992,1811,255,329872142,147,931,16705,-41,60,-1,90,10,-300,0,-112,2,-1,-2,1654,-1,-1,-1,-1,3,369989845,-1220635845,0,65535,65535,2,0,255,0,0,0,0,0,0,10,0,192,0,3,3
RC_CHANNELS_SCALED,329872,1,172,992,934,950,992,1811,992,1811,255,329872142,147,931,16705,-41,60,-1,90,10,-300,0,-112,2,4,0,1656,-1,-1,-1,-1,3,369989845,-1220635845,0,65535,65535,2,0,255,0,0,0,0,0,0,10,0,192,0,3,3
RC_CHANNELS_RAW,329892,0,172,992,934,950,992,1811,992,1811,255,329872142,147,931,16705,-41,60,-1,90,10,-300,0,-112,2,4,0,1656,-1,-1,-1,-1,3,369989845,-1220635845,0,65535,65535,2,0,255,0,0,0,0,0,0,10,0,192,0,3,3
RAW_IMU,329892,0,172,992,934,950,992,1811,992,1811,255,329892142,222,818,16709,-29,65,-14,92,15,-307,0,-160,2,4,0,1656,-1,-1,-1,-1,3,369989845,-1220635845,0,65535,65535,2,0,255,0,0,0,0,0,0,10,0,192,0,3,3
RC_CHANNELS_SCALED,329892,1,172,992,934,950,992,1811,992,1811,255,329892142,222,818,16709,-29,65,-14,92,15,-307,0,-160,3,1,-1,1655,-1,-1,-1,-1,3,369989845,-1220635845,0,65535,65535,2,0,255,0,0,0,0,0,0,10,0,192,0,3,3
RC_CHANNELS_RAW,329912,0,172,992,934,950,992,1811,992,1811,255,329892142,222,818,16709,-29,65,-14,92,15,-307,0,-160,3,1,-1,1655,-1,-1,-1,-1,3,369989845,-1220635845,0,65535,65535,2,0,255,0,0,0,0,0,0,10,0,192,0,3,3
RAW_IMU,329912,0,172,992,934,950,992,1811,992,1811,255,329912143,208,921,16721,-34,57,-17,103,8,-310,0,-160,3,1,-1,1655,-1,-1,-1,-1,3,369989845,-1220635845,0,65535,65535,2,0,255,0,0,0,0,0,0,10,0,192,0,3,3
RC_CHANNELS_SCALED,329912,1,172,992,934,950,992,1811,992,1811,255,329912143,208,921,16721,-34,57,-17,103,8,-310,0,-160,-1,-1,-2,1654,-1,-1,-1,-1,3,369989845,-1220635845,0,65535,65535,2,0,255,0,0,0,0,0,0,10,0,192,0,3,3
GPS_RAW_INT,329912,1,172,992,934,950,992,1811,992,1811,255,329916007,208,921,16721,-34,57,-17,103,8,-310,0,-160,-1,-1,-2,1654,-1,-1,-1,-1,3,369989845,-1220635845,0,65535,65535,5,0,255,0,0,0,0,0,0,10,0,192,0,3,3
RC_CHANNELS_RAW,329932,0,172,992,934,950,992,1811,992,1811,255,329916007,208,921,16721,-34,57,-17,103,8,-310,0,-160,-1,-1,-2,1654,-1,-1,-1,-1,3,369989845,-1220635845,0,65535,65535,5,0,255,0,0,0,0,0,0,10,0,192,0,3,3
RAW_IMU,329932,0,172,992,934,950,992,1811,992,1811,255,329932151,229,850,16769,-28,56,-23,99,19,-299,0,-48,-1,-1,-2,1654,-1,-1,-1,-1,3,369989845,-1220635845,0,65535,65535,5,0,255,0,0,0,0,0,0,10,0,192,0,3,3
RC_CHANNELS_SCALED,329932,1,172,992,934,950,992,1811,992,1811,255,329932151,229,850,16769,-28,56,-23,99,19,-299,0,-48,0,2,-3,1656,-1,-1,-1,-1,3,369989845,-1220635845,0,65535,65535,5,0,255,0,0,0,0,0,0,10,0,192,0,3,3
RC_CHANNELS_RAW,329952,0,172,992,934,950,992,1811,992,1811,255,329932151,229,850,16769,-28,56,-23,99,19,-299,0,-48,0,2,-3,1656,-1,-1,-1,-1,3,369989845,-1220635845,0,65535,65535,5,0,255,0,0,0,0,0,0,10,0,192,0,3,3
RAW_IMU,329952,0,172,992,934,950,992,1811,992,1811,255,329952144,222,791,16735,-50,73,-3,105,18,-302,0,-176,0,2,-3,1656,-1,-1,-1,-1,3,369989845,-1220635845,0,65535,65535,5,0,255,0,0,0,0,0,0,10,0,192,0,3,3
RC_CHANNELS_SCALED,329952,1,172,992,934,950,992,1811,992,1811,255,329952144,222,791,16735,-50,73,-3,105,18,-302,0,-176,-1,0,-1,1654,-1,-1,-1,-1,3,369989845,-1220635845,0,65535,65535,5,0,255,0,0,0,0,0,0,10,0,192,0,3,3
RC_CHANNELS_RAW,329972,0,172,992,934,950,992,1811,992,1811,255,329952144,222,791,16735,-50,73,-3,105,18,-302,0,-176,-1,0,-1,1654,-1,-1,-1,-1,3,369989845,-1220635845,0,65535,65535,5,0,255,0,0,0,0,0,0,10,0,192,0,3,3
RAW_IMU,329972,0,172,992,934,950,992,1811,992,1811,255,329972146,191,840,16690,-42,64,-19,99,14,-311,0,-112,-1,0,-1,1654,-1,-1,-1,-1,3,369989845,-1220635845,0,65535,65535,5,0,255,0,0,0,0,0,0,10,0,192,0,3,3
RC_CHANNELS_SCALED,329972,1,172,992,934,950,992,1811,992,1811,255,329972146,191,840,16690,-42,64,-19,99,14,-311,0,-112,0,1,2,1656,-1,-1,-1,-1,3,369989845,-1220635845,0,65535,65535,5,0,255,0,0,0,0,0,0,10,0,192,0,3,3
RC_CHANNELS_RAW,329992,0,172,992,934,950,992,1811,992,1811,255,329972146,191,840,16690,-42,64,-19,99,14,-311,0,-112,0,1,2,1656,-1,-1,-1,-1,3,369989845,-1220635845,0,65535,65535,5,0,255,0,0,0,0,0,0,10,0,192,0,3,3
RAW_IMU,329992,0,172,992,934,950,992,1811,992,1811,255,329992142,192,853,16669,-28,63,-10,105,13,-300,0,-112,0,1,2,1656,-1,-1,-1,-1,3,369989845,-1220635845,0,65535,65535,5,0,255,0,0,0,0,0,0,10,0,192,0,3,3
RC_CHANNELS_SCALED,329992,1,172,992,934,950,992,1811,992,1811,255,329992142,192,853,16669,-28,63,-10,105,13,-300,0,-112,-3,3,-1,1655,-1,-1,-1,-1,3,369989845,-1220635845,0,65535,65535,5,0,255,0,0,0,0,0,0,10,0,192,0,3,3
HEARTBEAT,329992,1,172,992,934,950,992,1811,992,1811,255,329992142,192,853,16669,-28,63,-10,105,13,-300,0,-112,-3,3,-1,1655,-1,-1,-1,-1,3,369989845,-1220635845,0,65535,65535,5,0,255,0,0,0,0,0,0,10,0,192,0,3,3
RC_CHANNELS_RAW,330012,0,172,992,934,950,992,1811,992,1811,255,329992142,192,853,16669,-28,63,-10,105,13,-300,0,-112,-3,3,-1,1655,-1,-1,-1,-1,3,369989845,-1220635845,0,65535,65535,5,0,255,0,0,0,0,0,0,10,0,192,0,3,3
RAW_IMU,330012,0,172,992,934,950,992,1811,992,1811,255,330012142,257,874,16683,-22,64,-25,90,15,-300,0,-144,-3,3,-1,1655,-1,-1,-1,-1,3,369989845,-1220635845,0,65535,65535,5,0,255,0,0,0,0,0,0,10,0,192,0,3,3
RC_CHANNELS_SCALED,330012,1,172,992,934,950,992,1811,992,1811,255,330012142,257,874,16683,-22,64,-25,90,15,-300,0,-144,-1,1,-2,1653,-1,-1,-1,-1,3,369989845,-1220635845,0,65535,65535,5,0,255,0,0,0,0,0,0,10,0,192,0,3,3
GPS_RAW_INT,330012,1,172,992,934,950,992,1811,992,1811,255,330017006,257,874,16683,-22,64,-25,90,15,-300,0,-144,-1,1,-2,1653,-1,-1,-1,-1,3,369989845,-1220635845,0,65535,65535,1,0,255,0,0,0,0,0,0,10,0,192,0,3,3
RC_CHANNELS_RAW,330032,0,172,992,934,950,992,1811,992,1811,255,330017006,257,874,16683,-22,64,-25,90,15,-300,0,-144,-1,1,-2,1653,-1,-1,-1,-1,3,369989845,-1220635845,0,65535,65535,1,0,255,0,0,0,0,0,0,10,0,192,0,3,3
RAW_IMU,330032,0,172,992,934,950,992,1811,992,1811,255,330032146,199,853,16676,-42,80,-14,97,8,-293,0,-144,-1,1,-2,1653,-1,-1,-1,-1,3,369989845,-1220635845,0,65535,65535,1,0,255,0,0,0,0,0,0,10,0,192,0,3,3
RC_CHANNELS_SCALED,330032,1,172,992,934,950,992,1811,992,1811,255,330032146,199,853,16676,-42,80,-14,97,8,-293,0,-144,0,0,-1,1655,-1,-1,-1,-1,3,369989845,-1220635845,0,65535,65535,1,0,255,0,0,0,0,0,0,10,0,192,0,3,3
RC_CHANNELS_RAW,330052,0,172,992,934,950,992,1811,992,1811,255,330032146,199,853,16676,-42,80,-14,97,8,-293,0,-144,0,0,-1,1655,-1,-1,-1,-1,3,369989845,-1220635845,0,65535,65535,1,0,255,0,0,0,0,0,0,10,0,192,0,3,3
RAW_IMU,330052,0,172,992,934,950,992,1811,992,1811,255,330052144,157,866,16653,-18,59,-26,91,12,-309,0,-48,0,0,-1,1655,-1,-1,-1,-1,3,369989845,-1220635845,0,65535,65535,1,0,255,0,0,0,0,0,0,10,0,192,0,3,3
RC_CHANNELS_SCALED,330052,1,172,992,934,950,992,1811,992,1811,255,330052144,157,866,16653,-18,59,-26,91,12,-309,0,-48,-2,0,2,1657,-1,-1,-1,-1,3,369989845,-1220635845,0,65535,65535,1,0,255,0,0,0,0,0,0,10,0,192,0,3,3
RC_CHANNELS_RAW,330072,0,172,992,934,950,992,1811,992,1811,255,330052144,157,866,16653,-18,59,-26,91,12,-309,0,-48,-2,0,2,1657,-1,-1,-1,-1,3,369989845,-1220635845,0,65535,65535,1,0,255,0,0,0,0,0,0,10,0,192,0,3,3
RAW_IMU,330072,0,172,992,934,950,992,1811,992,1811,255,330072144,237,893,16602,-38,75,-31,95,23,-295,0,-144,-2,0,2,1657,-1,-1,-1,-1,3,369989845,-1220635845,0,65535,65535,1,0,255,0,0,0,0,0,0,10,0,192,0,3,3
RC_CHANNELS_SCALED,330072,1,172,992,934,950,992,1811,992,1811,255,330072144,237,893,16602,-38,75,-31,95,23,-295,0,-144,0,1,3,1658,-1,-1,-1,-1,3,369989845,-1220635845,0,65535,65535,1,0,255,0,0,0,0,0,0,10,0,192,0,3,3
RC_CHANNELS_RAW,330092,0,172,992,934,950,992,1811,992,1811,255,330072144,237,893,16602,-38,75,-31,95,23,-295,0,-144,0,1,3,1658,-1,-1,-1,-1,3,369989845,-1220635845,0,65535,65535,1,0,255,0,0,0,0,0,0,10,0,192,0,3,3
RAW_IMU,330092,0,172,992,934,950,992,1811,992,1811,255,330092145,177,841,16664,-59,71,-23,103,6,-298,0,-160,0,1,3,1658,-1,-1,-1,-1,3,369989845,-1220635845,0,65535,65535,1,0,255,0,0,0,0,0,0,10,0,192,0,3,3
RC_CHANNELS_SCALED,330092,1,172,992,934,950,992,1811,992,1811,255,330092145,177,841,16664,-59,71,-23,103,6,-298,0,-160,-1,-2,0,1654,-1,-1,-1,-1,3,369989845,-1220635845,0,65535,65535,1,0,255,0,0,0,0,0,0,10,0,192,0,3,3
RC_CHANNELS_RAW,330112,0,172,992,934,950,992,1811,992,1811,255,330092145,177,841,16664,-59,71,-23,103,6,-298,0,-160,-1,-2,0,1654,-1,-1,-1,-1,3,369989845,-1220635845,0,65535,65535,1,0,255,0,0,0,0,0,0,10,0,192,0,3,3
RAW_IMU,330112,0,172,992,934,950,992,1811,992,1811,255,330112140,195,877,16734,-28,72,-9,92,6,-293,0,-80,-1,-2,0,1654,-1,-1,-1,-1,3,369989845,-1220635845,0,65535,65535,1,0,255,0,0,0,0,0,0,10,0,192,0,3,3
RC_CHANNELS_SCALED,330112,1,172,992,934,950,992,1811,992,1811,255,330112140,195,877,16734,-28,72,-9,92,6,-293,0,-80,-3,1,-2,1653,-1,-1,-1,-1,3,369989845,-1220635845,0,65535,65535,1,0,255,0,0,0,0,0,0,10,0,192,0,3,3
GPS_RAW_INT,330112,1,172,992,934,950,992,1811,992,1811,255,330118008,195,877,16734,-28,72,-9,92,6,-293,0,-80,-3,1,-2,1653,-1,-1,-1,-1,3,369989843,-1220635845,0,65535,65535,0,0,255,0,0,0,0,0,0,10,0,192,0,3,3
RC_CHANNELS_RAW,330132,0,172,992,934,950,992,1811,992,1811,255,330118008,195,877,16734,-28,72,-9,92,6,-293,0,-80,-3,1,-2,1653,-1,-1,-1,-1,3,369989843,-1220635845,0,65535,65535,0,0,255,0,0,0,0,0,0,10,0,192,0,3,3
RAW_IMU,330132,0,172,992,934,950,992,1811,992,1811,255,330132144,247,880,16728,-24,69,-29,99,7,-316,0,-224,-3,1,-2,1653,-1,-1,-1,-1,3,369989843,-1220635845,0,65535,65535,0,0,255,0,0,0,0,0,0,10,0,192,0,3,3
RC_CHANNELS_SCALED,330132,1,172,992,934,950,992,1811,992,1811,255,330132144,247,880,16728,-24,69,-29,99,7,-316,0,-224,3,4,-4,1654,-1,-1,-1,-1,3,369989843,-1220635845,0,65535,65535,0,0,255,0,0,0,0,0,0,10,0,192,0,3,3
RC_CHANNELS_RAW,330152,0,172,992,934,950,992,1811,992,1811,255,330132144,247,880,16728,-24,69,-29,99,7,-316,0,-224,3,4,-4,1654,-1,-1,-1,-1,3,369989843,-1220635845,0,65535,65535,0,0,255,0,0,0,0,0,0,10,0,192,0,3,3
RAW_IMU,330152,0,172,992,934,950,992,1811,992,1811,255,330152144,222,839,16717,-27,62,-16,95,3,-302,0,-160,3,4,-4,1654,-1,-1,-1,-1,3,369989843,-1220635845,0,65535,65535,0,0,255,0,0,0,0,0,0,10,0,192,0,3,3
RC_CHANNELS_SCALED,330152,1,172,992,934,950,992,1811,992,1811,255,330152144,222,839,16717,-27,62,-16,95,3,-302,0,-160,2,2,-3,1653,-1,-1,-1,-1,3,369989843,-1220635845,0,65535,65535,0,0,255,0,0,0,0,0,0,10,0,192,0,3,3
RC_CHANNELS_RAW,330172,0,172,992,934,950,992,1811,992,1811,255,330152144,222,839,16717,-27,62,-16,95,3,-302,0,-160,2,2,-3,1653,-1,-1,-1,-1,3,369989843,-1220635845,0,65535,65535,0,0,255,0,0,0,0,0,0,10,0,192,0,3,3
RAW_IMU,330172,0,172,992,934,950,992,1811,992,1811,255,330172141,194,797,16724,-24,69,-31,95,15,-295,0,-48,2,2,-3,1653,-1,-1,-1,-1,3,369989843,-1220635845,0,65535,65535,0,0,255,0,0,0,0,0,0,10,0,192,0,3,3
RC_CHANNELS_SCALED,330172,1,172,992,934,950,992,1811,992,1811,255,330172141,194,797,16724,-24,69,-31,95,15,-295,0,-48,0,-1,2,1658,-1,-1,-1,-1,3,369989843,-1220635845,0,65535,65535,0,0,255,0,0,0,0,0,0,10,0,192,0,3,3
RC_CHANNELS_RAW,330192,0,172,992,934,950,992,1811,992,1811,255,330172141,194,797,16724,-24,69,-31,95,15,-295,0,-48,0,-1,2,1658,-1,-1,-1,-1,3,369989843,-1220635845,0,65535,65535,0,0,255,0,0,0,0,0,0,10,0,192,0,3,3
RAW_IMU,330192,0,172,992,934,950,992,1811,992,1811,255,330192144,223,946,16685,-44,70,-24,100,13,-302,0,-144,0,-1,2,1658,-1,-1,-1,-1,3,369989843,-1220635845,0,65535,65535,0,0,255,0,0,0,0,0,0,10,0,192,0,3,3
RC_CHANNELS_SCALED,330192,1,172,992,934,950,992,1811,992,1811,255,330192144,223,946,16685,-44,70,-24,100,13,-302,0,-144,-3,0,-3,1655,-1,-1,-1,-1,3,369989843,-1220635845,0,65535,65535,0,0,255,0,0,0,0,0,0,10,0,192,0,3,3
RC_CHANNELS_RAW,330212,0,172,992,934,950,992,1811,992,1811,255,330192144,223,946,16685,-44,70,-24,100,13,-302,0,-144,-3,0,-3,1655,-1,-1,-1,-1,3,369989843,-1220635845,0,65535,65535,0,0,255,0,0,0,0,0,0,10,0,192,0,3,3
RAW_IMU,330212,0,172,992,934,950,992,1811,992,1811,255,330212144,161,893,16705,-46,75,-17,99,16,-306,0,-160,-3,0,-3,1655,-1,-1,-1,-1,3,369989843,-1220635845,0,65535,65535,0,0,255,0,0,0,0,0,0,10,0,192,0,3,3
RC_CHANNELS_SCALED,330212,1,172,992,934,950,992,1811,992,1811,255,330212144,161,893,16705,-46,75,-17,99,16,-306,0,-160,-2,1,0,1655,-1,-1,-1,-1,3,369989843,-1220635845,0,65535,65535,0,0,255,0,0,0,0,0,0,10,0,192,0,3,3
GPS_RAW_INT,330212,1,172,992,934,950,992,1811,992,1811,255,330219009,161,893,16705,-46,75,-17,99,16,-306,0,-160,-2,1,0,1655,-1,-1,-1,-1,3,369989843,-1220635846,0,65535,65535,2,0,255,0,0,0,0,0,0,10,0,192,0,3,3
RC_CHANNELS_RAW,330232,0,172,992,934,950,992,1811,992,1811,255,330219009,161,893,16705,-46,75,-17,99,16,-306,0,-160,-2,1,0,1655,-1,-1,-1,-1,3,369989843,-1220635846,0,65535,65535,2,0,255,0,0,0,0,0,0,10,0,192,0,3,3
RAW_IMU,330232,0,172,992,934,950,992,1811,992,1811,255,330232148,241,913,16673,-50,73,-13,91,16,-296,0,-256,-2,1,0,1655,-1,-1,-1,-1,3,369989843,-1220635846,0,65535,65535,2,0,255,0,0,0,0,0,0,10,0,192,0,3,3
RC_CHANNELS_SCALED,330232,1,172,992,934,950,992,1811,992,1811,255,330232148,241,913,16673,-50,73,-13,91,16,-296,0,-256,-3,-5,1,1655,-1,-1,-1,-1,3,369989843,-1220635846,0,65535,65535,2,0,255,0,0,0,0,0,0,10,0,192,0,3,3
RC_CHANNELS_RAW,330252,0,172,992,934,950,992,1811,992,1811,255,330232148,241,913,16673,-50,73,-13,91,16,-296,0,-256,-3,-5,1,1655,-1,-1,-1,-1,3,369989843,-1220635846,0,65535,65535,2,0,255,0,0,0,0,0,0,10,0,192,0,3,3
RAW_IMU,330252,0,172,992,934,950,992,1811,992,1811,255,330252140,198,856,16683,-36,61,-28,99,12,-299,0,-144,-3,-5,1,1655,-1,-1,-1,-1,3,369989843,-1220635846,0,65535,65535,2,0,255,0,0,0,0,0,0,10,0,192,0,3,3
RC_CHANNELS_SCALED,330252,1,172,992,934,950,992,1811,992,1811,255,330252140,198,856,16683,-36,61,-28,99,12,-299,0,-144,1,0,1,1655,-1,-1,-1,-1,3,369989843,-1220635846,0,65535,65535,2,0,255,0,0,0,0,0,0,10,0,192,0,3,3
RC_CHANNELS_RAW,330272,0,172,992,934,950,992,1811,992,1811,255,330252140,198,856,16683,-36,61,-28,99,12,-299,0,-144,1,0,1,1655,-1,-1,-1,-1,3,369989843,-1220635846,0,65535,65535,2,0,255,0,0,0,0,0,0,10,0,192,0,3,3
RAW_IMU,330272,0,172,992,934,950,992,1811,992,1811,255,330272142,211,836,16714,-25,63,-31,99,14,-296,0,-256,1,0,1,1655,-1,-1,-1,-1,3,369989843,-1220635846,0,65535,65535,2,0,255,0,0,0,0,0,0,10,0,192,0,3,3
RC_CHANNELS_SCALED,330272,1,172,992,934,950,992,1811,992,1811,255,330272142,211,836,16714,-25,63,-31,99,14,-296,0,-256,0,0,0,1655,-1,-1,-1,-1,3,369989843,-1220635846,0,65535,65535,2,0,255,0,0,0,0,0,0,10,0,192,0,3,3
RC_CHANNELS_RAW,330292,0,172,992,934,950,992,1811,992,1811,255,330272142,211,836,16714,-25,63,-31,99,14,-296,0,-256,0,0,0,1655,-1,-1,-1,-1,3,369989843,-1220635846,0,65535,65535,2,0,255,0,0,0,0,0,0,10,0,192,0,3,3
RAW_IMU,330292,0,172,992,934,950,992,1811,992,1811,255,330292144,268,802,16673,-34,67,-18,99,7,-296,0,-176,0,0,0,1655,-1,-1,-1,-1,3,369989843,-1220635846,0,65535,65535,2,0,255,0,0,0,0,0,0,10,0,192,0,3,3
RC_CHANNELS_SCALED,330292,1,172,992,934,950,992,1811,992,1811,255,330292144,268,802,16673,-34,67,-18,99,7,-296,0,-176,2,-2,-1,1654,-1,-1,-1,-1,3,369989843,-1220635846,0,65535,65535,2,0,255,0,0,0,0,0,0,10,0,192,0,3,3
RC_CHANNELS_RAW,330312,0,172,992,934,950,992,1811,992,1811,255,330292144,268,802,16673,-34,67,-18,99,7,-296,0,-176,2,-2,-1,1654,-1,-1,-1,-1,3,369989843,-1220635846,0,65535,65535,2,0,255,0,0,0,0,0,0,10,0,192,0,3,3
RAW_IMU,330312,0,172,992,934,950,992,1811,992,1811,255,330312144,309,803,16624,-41,68,-5,100,8,-300,0,-160,2,-2,-1,1654,-1,-1,-1,-1,3,369989843,-1220635846,0,65535,65535,2,0,255,0,0,0,0,0,0,10,0,192,0,3,3
RC_CHANNELS_SCALED,330312,1,172,992,934,950,992,1811,992,1811,255,330312144,309,803,16624,-41,68,-5,100,8,-300,0,-160,0,-1,-1,1654,-1,-1,-1,-1,3,369989843,-1220635846,0,65535,65535,2,0,255,0,0,0,0,0,0,10,0,192,0,3,3
GPS_RAW_INT,330312,1,172,992,934,950,992,1811,992,1811,255,330320009,309,803,16624,-41,68,-5,100,8,-300,0,-160,0,-1,-1,1654,-1,-1,-1,-1,3,369989841,-1220635846,0,65535,65535,2,0,255,0,0,0,0,0,0,10,0,192,0,3,3
RC_CHANNELS_RAW,330332,0,172,992,934,950,992,1811,992,1811,255,330320009,309,803,16624,-41,68,-5,100,8,-300,0,-160,0,-1,-1,1654,-1,-1,-1,-1,3,369989841,-1220635846,0,65535,65535,2,0,255,0,0,0,0,0,0,10,0,192,0,3,3
RAW_IMU,330332,0,172,992,934,950,992,1811,992,1811,255,330332150,223,856,16603,-43,69,-11,96,12,-304,0,-96,0,-1,-1,1654,-1,-1,-1,-1,3,369989841,-1220635846,0,65535,65535,2,0,255,0,0,0,0,0,0,10,0,192,0,3,3
RC_CHANNELS_SCALED,330332,1,172,992,934,950,992,1811,992,1811,255,330332150,223,856,16603,-43,69,-11,96,12,-304,0,-96,-2,-1,0,1656,-1,-1,-1,-1,3,369989841,-1220635846,0,65535,65535,2,0,255,0,0,0,0,0,0,10,0,192,0,3,3
RC_CHANNELS_RAW,330352,0,172,992,934,950,992,1811,992,1811,255,330332150,223,856,16603,-43,69,-11,96,12,-304,0,-96,-2,-1,0,1656,-1,-1,-1,-1,3,369989841,-1220635846,0,65535,65535,2,0,255,0,0,0,0,0,0,10,0,192,0,3,3
RAW_IMU,330352,0,172,992,934,950,992,1811,992,1811,255,330352142,243,882,16677,-42,66,-10,92,15,-300,0,-96,-2,-1,0,1656,-1,-1,-1,-1,3,369989841,-1220635846,0,65535,65535,2,0,255,0,0,0,0,0,0,10,0,192,0,3,3
RC_CHANNELS_SCALED,330352,1,172,992,934,950,992,1811,992,1811,255,330352142,243,882,16677,-42,66,-10,92,15,-300,0,-96,3,-3,0,1655,-1,-1,-1,-1,3,369989841,-1220635846,0,65535,65535,2,0,255,0,0,0,0,0,0,10,0,192,0,3,3
RC_CHANNELS_RAW,330372,0,172,992,934,950,992,1811,992,1811,255,330352142,243,882,16677,-42,66,-10,92,15,-300,0,-96,3,-3,0,1655,-1,-1,-1,-1,3,369989841,-1220635846,0,65535,65535,2,0,255,0,0,0,0,0,0,10,0,192,0,3,3
RAW_IMU,330372,0,172,992,934,950,992,1811,992,1811,255,330372141,212,875,16749,-29,65,-20,96,14,-296,0,-144,3,-3,0,1655,-1,-1,-1,-1,3,369989841,-1220635846,0,65535,65535,2,0,255,0,0,0,0,0,0,10,0,192,0,3,3
RC_CHANNELS_SCALED,330372,1,172,992,934,950,992,1811,992,1811,255,330372141,212,875,16749,-29,65,-20,96,14,-296,0,-144,-1,1,-1,1656,-1,-1,-1,-1,3,369989841,-1220635846,0,65535,65535,2,0,255,0,0,0,0,0,0,10,0,192,0,3,3
RC_CHANNELS_RAW,330392,0,172,992,934,950,992,1811,992,1811,255,330372141,212,875,16749,-29,65,-20,96,14,-296,0,-144,-1,1,-1,1656,-1,-1,-1,-1,3,369989841,-1220635846,0,65535,65535,2,0,255,0,0,0,0,0,0,10,0,192,0,3,3
RAW_IMU,330392,0,172,992,934,950,992,1811,992,1811,255,330392142,150,798,16718,-44,68,-7,99,9,-301,0,-96,-1,1,-1,1656,-1,-1,-1,-1,3,369989841,-1220635846,0,65535,65535,2,0,255,0,0,0,0,0,0,10,0,192,0,3,3
RC_CHANNELS_SCALED,330392,1,172,992,934,950,992,1811,992,1811,255,330392142,150,798,16718,-44,68,-7,99,9,-301,0,-96,3,0,1,1656,-1,-1,-1,-1,3,369989841,-1220635846,0,65535,65535,2,0,255,0,0,0,0,0,0,10,0,192,0,3,3
RC_CHANNELS_RAW,330412,0,172,992,934,950,992,1811,992,1811,255,330392142,150,798,16718,-44,68,-7,99,9,-301,0,-96,3,0,1,1656,-1,-1,-1,-1,3,369989841,-1220635846,0,65535,65535,2,0,255,0,0,0,0,0,0,10,0,192,0,3,3
RAW_IMU,330412,0,172,992,934,950,992,1811,992,1811,255,330412143,224,835,16759,-52,70,-12,97,10,-307,0,-176,3,0,1,1656,-1,-1,-1,-1,3,369989841,-1220635846,0,65535,65535,2,0,255,0,0,0,0,0,0,10,0,192,0,3,3
RC_CHANNELS_SCALED,330412,1,172,992,934,950,992,1811,992,1811,255,330412143,224,835,16759,-52,70,-12,97,10,-307,0,-176,-2,-1,1,1656,-1,-1,-1,-1,3,369989841,-1220635846,0,65535,65535,2,0,255,0,0,0,0,0,0,10,0,192,0,3,3
GPS_RAW_INT,330412,1,172,992,934,950,992,1811,992,1811,255,330421006,224,835,16759,-52,70,-12,97,10,-307,0,-176,-2,-1,1,1656,-1,-1,-1,-1,3,369989841,-1220635846,0,65535,65535,2,0,255,0,0,0,0,0,0,10,0,192,0,3,3
RC_CHANNELS_RAW,330432,0,172,992,934,950,992,1811,992,1811,255,330421006,224,835,16759,-52,70,-12,97,10,-307,0,-176,-2,-1,1,1656,-1,-1,-1,-1,3,369989841,-1220635846,0,65535,65535,2,0,255,0,0,0,0,0,0,10,0,192,0,3,3
RAW_IMU,330432,0,172,992,934,950,992,1811,992,1811,255,330432144,255,888,16694,-37,67,-25,93,14,-296,0,-160,-2,-1,1,1656,-1,-1,-1,-1,3,369989841,-1220635846,0,65535,65535,2,0,255,0,0,0,0,0,0,10,0,192,0,3,3
RC_CHANNELS_SCALED,330432,1,172,992,934,950,992,1811,992,1811,255,330432144,255,888,16694,-37,67,-25,93,14,-296,0,-160,1,0,1,1655,-1,-1,-1,-1,3,369989841,-1220635846,0,65535,65535,2,0,255,0,0,0,0,0,0,10,0,192,0,3,3
RC_CHANNELS_RAW,330452,0,172,992,934,950,992,1811,992,1811,255,330432144,255,888,16694,-37,67,-25,93,14,-296,0,-160,1,0,1,1655,-1,-1,-1,-1,3,369989841,-1220635846,0,65535,65535,2,0,255,0,0,0,0,0,0,10,0,192,0,3,3
RAW_IMU,330452,0,172,992,934,950,992,1811,992,1811,255,330452144,147,880,16697,-31,78,-15,97,8,-305,0,-144,1,0,1,1655,-1,-1,-1,-1,3,369989841,-1220635846,0,65535,65535,2,0,255,0,0,0,0,0,0,10,0,192,0,3,3
RC_CHANNELS_SCALED,330452,1,172,992,934,950,992,1811,992,1811,255,330452144,147,880,16697,-31,78,-15,97,8,-305,0,-144,1,2,1,1656,-1,-1,-1,-1,3,369989841,-1220635846,0,65535,65535,2,0,255,0,0,0,0,0,0,10,0,192,0,3,3
RC_CHANNELS_RAW,330472,0,172,992,934,950,992,1811,992,1811,255,330452144,147,880,16697,-31,78,-15,97,8,-305,0,-144,1,2,1,1656,-1,-1,-1,-1,3,369989841,-1220635846,0,65535,65535,2,0,255,0,0,0,0,0,0,10,0,192,0,3,3
RAW_IMU,330472,0,172,992,934,950,992,1811,992,1811,255,330472146,244,842,16748,-35,56,-23,104,14,-301,0,-96,1,2,1,1656,-1,-1,-1,-1,3,369989841,-1220635846,0,65535,65535,2,0,255,0,0,0,0,0,0,10,0,192,0,3,3
RC_CHANNELS_SCALED,330472,1,172,992,934,950,992,1811,992,1811,255,330472146,244,842,16748,-35,56,-23,104,14,-301,0,-96,-2,-1,0,1656,-1,-1,-1,-1,3,369989841,-1220635846,0,65535,65535,2,0,255,0,0,0,0,0,0,10,0,192,0,3,3
RC_CHANNELS_RAW,330492,0,172,992,934,950,992,1811,992,1811,255,330472146,244,842,16748,-35,56,-23,104,14,-301,0,-96,-2,-1,0,1656,-1,-1,-1,-1,3,369989841,-1220635846,0,65535,65535,2,0,255,0,0,0,0,0,0,10,0,192,0,3,3
RAW_IMU,330492,0,172,992,934,950,992,1811,992,1811,255,330492142,219,783,16651,-50,70,-21,101,9,-301,0,-160,-2,-1,0,1656,-1,-1,-1,-1,3,369989841,-1220635846,0,65535,65535,2,0,255,0,0,0,0,0,0,10,0,192,0,3,3
RC_CHANNELS_SCALED,330492,1,172,992,934,950,992,1811,992,1811,255,330492142,219,783,16651,-50,70,-21,101,9,-301,0,-160,-1,0,0,1655,-1,-1,-1,-1,3,369989841,-1220635846,0,65535,65535,2,0,255,0,0,0,0,0,0,10,0,192,0,3,3
RC_CHANNELS_RAW,330512,0,172,992,934,950,992,1811,992,1811,255,330492142,219,783,16651,-50,70,-21,101,9,-301,0,-160,-1,0,0,1655,-1,-1,-1,-1,3,369989841,-1220635846,0,65535,65535,2,0,255,0,0,0,0,0,0,10,0,192,0,3,3
RAW_IMU,330512,0,172,992,934,950,992,1811,992,1811,255,330512142,181,806,16637,-52,71,-26,96,9,-301,0,-144,-1,0,0,1655,-1,-1,-1,-1,3,369989841,-1220635846,0,65535,65535,2,0,255,0,0,0,0,0,0,10,0,192,0,3,3
RC_CHANNELS_SCALED,330512,1,172,992,934,950,992,1811,992,1811,255,330512142,181,806,16637,-52,71,-26,96,9,-301,0,-144,-1,0,1,1656,-1,-1,-1,-1,3,369989841,-1220635846,0,65535,65535,2,0,255,0,0,0,0,0,0,10,0,192,0,3,3
GPS_RAW_INT,330512,1,172,992,934,950,992,1811,992,1811,255,330522011,181,806,16637,-52,71,-26,96,9,-301,0,-144,-1,0,1,1656,-1,-1,-1,-1,3,369989841,-1220635846,0,65535,65535,4,0,255,0,0,0,0,0,0,10,0,192,0,3,3
RC_CHANNELS_RAW,330532,0,172,992,934,950,992,1811,992,1811,255,330522011,181,806,16637,-52,71,-26,96,9,-301,0,-144,-1,0,1,1656,-1,-1,-1,-1,3,369989841,-1220635846,0,65535,65535,4,0,255,0,0,0,0,0,0,10,0,192,0,3,3
RAW_IMU,330532,0,172,992,934,950,992,1811,992,1811,255,330532145,252,831,16748,-42,69,-23,99,12,-299,0,-112,-1,0,1,1656,-1,-1,-1,-1,3,369989841,-1220635846,0,65535,65535,4,0,255,0,0,0,0,0,0,10,0,192,0,3,3
RC_CHANNELS_SCALED,330532,1,172,992,934,950,992,1811,992,1811,255,330532145,252,831,16748,-42,69,-23,99,12,-299,0,-112,1,-1,1,1657,-1,-1,-1,-1,3,369989841,-1220635846,0,65535,65535,4,0,255,0,0,0,0,0,0,10,0,192,0,3,3
RC_CHANNELS_RAW,330552,0,172,992,934,950,992,1811,992,1811,255,330532145,252,831,16748,-42,69,-23,99,12,-299,0,-112,1,-1,1,1657,-1,-1,-1,-1,3,369989841,-1220635846,0,65535,65535,4,0,255,0,0,0,0,0,0,10,0,192,0,3,3
RAW_IMU,330552,0,172,992,934,950,992,1811,992,1811,255,330552141,165,817,16727,-50,69,-27,88,16,-294,0,-224,1,-1,1,1657,-1,-1,-1,-1,3,369989841,-1220635846,0,65535,65535,4,0,255,0,0,0,0,0,0,10,0,192,0,3,3
RC_CHANNELS_SCALED,330552,1,172,992,934,950,992,1811,992,1811,255,330552141,165,817,16727,-50,69,-27,88,16,-294,0,-224,2,3,-1,1655,-1,-1,-1,-1,3,369989841,-1220635846,0,65535,65535,4,0,255,0,0,0,0,0,0,10,0,192,0,3,3
RC_CHANNELS_RAW,330572,0,172,992,934,950,992,1811,992,1811,255,330552141,165,817,16727,-50,69,-27,88,16,-294,0,-224,2,3,-1,1655,-1,-1,-1,-1,3,369989841,-1220635846,0,65535,65535,4,0,255,0,0,0,0,0,0,10,0,192,0,3,3
RAW_IMU,330572,0,172,992,934,950,992,1811,992,1811,255,330572143,257,892,16678,-29,82,-21,101,16,-301,0,-112,2,3,-1,1655,-1,-1,-1,-1,3,369989841,-1220635846,0,65535,65535,4,0,255,0,0,0,0,0,0,10,0,192,0,3,3
RC_CHANNELS_SCALED,330572,1,172,992,934,950,992,1811,992,1811,255,330572143,257,892,16678,-29,82,-21,101,16,-301,0,-112,3,-1,-4,1653,-1,-1,-1,-1,3,369989841,-1220635846,0,65535,65535,4,0,255,0,0,0,0,0,0,10,0,192,0,3,3
RC_CHANNELS_RAW,330592,0,172,992,934,950,992,1811,992,1811,255,330572143,257,892,16678,-29,82,-21,101,16,-301,0,-112,3,-1,-4,1653,-1,-1,-1,-1,3,369989841,-1220635846,0,65535,65535,4,0,255,0,0,0,0,0,0,10,0,192,0,3,3
RAW_IMU,330592,0,172,992,934,950,992,1811,992,1811,255,330592145,196,890,16635,-46,87,-6,104,14,-311,0,-256,3,-1,-4,1653,-1,-1,-1,-1,3,369989841,-1220635846,0,65535,65535,4,0,255,0,0,0,0,0,0,10,0,192,0,3,3
RC_CHANNELS_SCALED,330592,1,172,992,934,950,992,1811,992,1811,255,330592145,196,890,16635,-46,87,-6,104,14,-311,0,-256,0,-1,2,1656,-1,-1,-1,-1,3,369989841,-1220635846,0,65535,65535,4,0,255,0,0,0,0,0,0,10,0,192,0,3,3
RC_CHANNELS_RAW,330612,0,172,992,934,950,992,1811,992,1811,255,330592145,196,890,16635,-46,87,-6,104,14,-311,0,-256,0,-1,2,1656,-1,-1,-1,-1,3,369989841,-1220635846,0,65535,65535,4,0,255,0,0,0,0,0,0,10,0,192,0,3,3
RAW_IMU,330612,0,172,992,934,950,992,1811,992,1811,255,330612144,275,853,16725,-23,67,-22,105,6,-295,0,-96,0,-1,2,1656,-1,-1,-1,-1,3,369989841,-1220635846,0,65535,65535,4,0,255,0,0,0,0,0,0,10,0,192,0,3,3
RC_CHANNELS_SCALED,330612,1,172,992,934,950,992,1811,992,1811,255,330612144,275,853,16725,-23,67,-22,105,6,-295,0,-96,-4,-1,1,1656,-1,-1,-1,-1,3,369989841,-1220635846,0,65535,65535,4,0,255,0,0,0,0,0,0,10,0,192,0,3,3
GPS_RAW_INT,330612,1,172,992,934,950,992,1811,992,1811,255,330623009,275,853,16725,-23,67,-22,105,6,-295,0,-96,-4,-1,1,1656,-1,-1,-1,-1,3,369989840,-1220635848,0,65535,65535,3,0,255,0,0,0,0,0,0,10,0,192,0,3,3
RC_CHANNELS_RAW,330632,0,172,992,934,950,992,1811,992,1811,255,330623009,275,853,16725,-23,67,-22,105,6,-295,0,-96,-4,-1,1,1656,-1,-1,-1,-1,3,369989840,-1220635848,0,65535,65535,3,0,255,0,0,0,0,0,0,10,0,192,0,3,3
RAW_IMU,330632,0,172,992,934,950,992,1811,992,1811,255,330632146,227,824,16679,-33,73,-15,96,12,-306,0,-112,-4,-1,1,1656,-1,-1,-1,-1,3,369989840,-1220635848,0,65535,65535,3,0,255,0,0,0,0,0,0,10,0,192,0,3,3
RC_CHANNELS_SCALED,330632,1,172,992,934,950,992,1811,992,1811,255,330632146,227,824,16679,-33,73,-15,96,12,-306,0,-112,2,3,-4,1653,-1,-1,-1,-1,3,369989840,-1220635848,0,65535,65535,3,0,255,0,0,0,0,0,0,10,0,192,0,3,3
RC_CHANNELS_RAW,330652,0,172,992,934,950,992,1811,992,1811,255,330632146,227,824,16679,-33,73,-15,96,12,-306,0,-112,2,3,-4,1653,-1,-1,-1,-1,3,369989840,-1220635848,0,65535,65535,3,0,255,0,0,0,0,0,0,10,0,192,0,3,3
RAW_IMU,330652,0,172,992,934,950,992,1811,992,1811,255,330652140,196,838,16635,-47,63,-33,100,15,-298,0,-112,2,3,-4,1653,-1,-1,-1,-1,3,369989840,-1220635848,0,65535,65535,3,0,255,0,0,0,0,0,0,10,0,192,0,3,3
RC_CHANNELS_SCALED,330652,1,172,992,934,950,992,1811,992,1811,255,330652140,196,838,16635,-47,63,-33,100,15,-298,0,-112,1,0,-3,1653,-1,-1,-1,-1,3,369989840,-1220635848,0,65535,65535,3,0,255,0,0,0,0,0,0,10,0,192,0,3,3
RC_CHANNELS_RAW,330672,0,172,992,934,950,992,1811,992,1811,255,330652140,196,838,16635,-47,63,-33,100,15,-298,0,-112,1,0,-3,1653,-1,-1,-1,-1,3,369989840,-1220635848,0,65535,65535,3,0,255,0,0,0,0,0,0,10,0,192,0,3,3
RAW_IMU,330672,0,172,992,934,950,992,1811,992,1811,255,330672142,222,888,16652,-13,76,-21,99,7,-301,0,-80,1,0,-3,1653,-1,-1,-1,-1,3,369989840,-1220635848,0,65535,65535,3,0,255,0,0,0,0,0,0,10,0,192,0,3,3
RC_CHANNELS_SCALED,330672,1,172,992,934,950,992,1811,992,1811,255,330672142,222,888,16652,-13,76,-21,99,7,-301,0,-80,-3,-1,0,1655,-1,-1,-1,-1,3,369989840,-1220635848,0,65535,65535,3,0,255,0,0,0,0,0,0,10,0,192,0,3,3
RC_CHANNELS_RAW,330692,0,172,992,934,950,992,1811,992,1811,255,330672142,222,888,16652,-13,76,-21,99,7,-301,0,-80,-3,-1,0,1655,-1,-1,-1,-1,3,369989840,-1220635848,0,65535,65535,3,0,255,0,0,0,0,0,0,10,0,192,0,3,3
RAW_IMU,330692,0,172,992,934,950,992,1811,992,1811,255,330692143,246,844,16710,-34,61,-31,95,6,-302,0,-224,-3,-1,0,1655,-1,-1,-1,-1,3,369989840,-1220635848,0,65535,65535,3,0,255,0,0,0,0,0,0,10,0,192,0,3,3
RC_CHANNELS_SCALED,330692,1,172,992,934,950,992,1811,992,1811,255,330692143,246,844,16710,-34,61,-31,95,6,-302,0,-224,-2,-1,1,1655,-1,-1,-1,-1,3,369989840,-1220635848,0,65535,65535,3,0,255,0,0,0,0,0,0,10,0,192,0,3,3
RC_CHANNELS_RAW,330712,0,172,992,934,950,992,1811,992,1811,255,330692143,246,844,16710,-34,61,-31,95,6,-302,0,-224,-2,-1,1,1655,-1,-1,-1,-1,3,369989840,-1220635848,0,65535,65535,3,0,255,0,0,0,0,0,0,10,0,192,0,3,3
RAW_IMU,330712,0,172,992,934,950,992,1811,992,1811,255,330712148,227,814,16649,-44,67,-28,96,12,-299,0,-144,-2,-1,1,1655,-1,-1,-1,-1,3,369989840,-1220635848,0,65535,65535,3,0,255,0,0,0,0,0,0,10,0,192,0,3,3
RC_CHANNELS_SCALED,330712,1,172,992,934,950,992,1811,992,1811,255,330712148,227,814,16649,-44,67,-28,96,12,-299,0,-144,2,1,-1,1653,-1,-1,-1,-1,3,369989840,-1220635848,0,65535,65535,3,0,255,0,0,0,0,0,0,10,0,192,0,3,3
GPS_RAW_INT,330712,1,172,992,934,950,992,1811,992,1811,255,330724009,227,814,16649,-44,67,-28,96,12,-299,0,-144,2,1,-1,1653,-1,-1,-1,-1,3,369989840,-1220635848,0,65535,65535,2,0,255,0,0,0,0,0,0,10,0,192,0,3,3
RC_CHANNELS_RAW,330732,0,172,992,934,950,992,1811,992,1811,255,330724009,227,814,16649,-44,67,-28,96,12,-299,0,-144,2,1,-1,1653,-1,-1,-1,-1,3,369989840,-1220635848,0,65535,65535,2,0,255,0,0,0,0,0,0,10,0,192,0,3,3
RAW_IMU,330732,0,172,992,934,950,992,1811,992,1811,255,330732148,208,849,16711,-32,79,-22,92,15,-302,0,-160,2,1,-1,1653,-1,-1,-1,-1,3,369989840,-1220635848,0,65535,65535,2,0,255,0,0,0,0,0,0,10,0,192,0,3,3
RC_CHANNELS_SCALED,330732,1,172,992,934,950,992,1811,992,1811,255,330732148,208,849,16711,-32,79,-22,92,15,-302,0,-160,1,-1,4,1656,-1,-1,-1,-1,3,369989840,-1220635848,0,65535,65535,2,0,255,0,0,0,0,0,0,10,0,192,0,3,3
RC_CHANNELS_RAW,330752,0,172,992,934,950,992,1811,992,1811,255,330732148,208,849,16711,-32,79,-22,92,15,-302,0,-160,1,-1,4,1656,-1,-1,-1,-1,3,369989840,-1220635848,0,65535,65535,2,0,255,0,0,0,0,0,0,10,0,192,0,3,3
RAW_IMU,330752,0,172,992,934,950,992,1811,992,1811,255,330752143,233,864,16668,-34,64,-23,101,7,-296,0,-160,1,-1,4,1656,-1,-1,-1,-1,3,369989840,-1220635848,0,65535,65535,2,0,255,0,0,0,0,0,0,10,0,192,0,3,3
RC_CHANNELS_SCALED,330752,1,172,992,934,950,992,1811,992,1811,255,330752143,233,864,16668,-34,64,-23,101,7,-296,0,-160,-2,-1,3,1656,-1,-1,-1,-1,3,369989840,-1220635848,0,65535,65535,2,0,255,0,0,0,0,0,0,10,0,192,0,3,3
RC_CHANNELS_RAW,330772,0,172,992,934,950,992,1811,992,1811,255,330752143,233,864,16668,-34,64,-23,101,7,-296,0,-160,-2,-1,3,1656,-1,-1,-1,-1,3,369989840,-1220635848,0,65535,65535,2,0,255,0,0,0,0,0,0,10,0,192,0,3,3
RAW_IMU,330772,0,172,992,934,950,992,1811,992,1811,255,330772141,180,802,16665,-32,77,-30,99,14,-306,0,-176,-2,-1,3,1656,-1,-1,-1,-1,3,369989840,-1220635848,0,65535,65535,2,0,255,0,0,0,0,0,0,10,0,192,0,3,3
RC_CHANNELS_SCALED,330772,1,172,992,934,950,992,1811,992,1811,255,330772141,180,802,16665,-32,77,-30,99,14,-306,0,-176,1,0,2,1655,-1,-1,-1,-1,3,369989840,-1220635848,0,65535,65535,2,0,255,0,0,0,0,0,0,10,0,192,0,3,3
RC_CHANNELS_RAW,330792,0,172,992,934,950,992,1811,992,1811,255,330772141,180,802,16665,-32,77,-30,99,14,-306,0,-176,1,0,2,1655,-1,-1,-1,-1,3,369989840,-1220635848,0,65535,65535,2,0,255,0,0,0,0,0,0,10,0,192,0,3,3
RAW_IMU,330792,0,172,992,934,950,992,1811,992,1811,255,330792142,237,904,16702,-40,82,-22,105,18,-295,0,-80,1,0,2,1655,-1,-1,-1,-1,3,369989840,-1220635848,0,65535,65535,2,0,255,0,0,0,0,0,0,10,0,192,0,3,3
RC_CHANNELS_SCALED,330792,1,172,992,934,950,992,1811,992,1811,255,330792142,237,904,16702,-40,82,-22,105,18,-295,0,-80,1,-2,1,1655,-1,-1,-1,-1,3,369989840,-1220635848,0,65535,65535,2,0,255,0,0,0,0,0,0,10,0,192,0,3,3
RC_CHANNELS_RAW,330812,0,172,992,934,950,992,1811,992,1811,255,330792142,237,904,16702,-40,82,-22,105,18,-295,0,-80,1,-2,1,1655,-1,-1,-1,-1,3,369989840,-1220635848,0,65535,65535,2,0,255,0,0,0,0,0,0,10,0,192,0,3,3
RAW_IMU,330812,0,172,992,934,950,992,1811,992,1811,255,330812144,218,884,16760,-30,74,-15,104,16,-295,0,-112,1,-2,1,1655,-1,-1,-1,-1,3,369989840,-1220635848,0,65535,65535,2,0,255,0,0,0,0,0,0,10,0,192,0,3,3
RC_CHANNELS_SCALED,330812,1,172,992,934,950,992,1811,992,1811,255,330812144,218,884,16760,-30,74,-15,104,16,-295,0,-112,-2,2,-2,1656,-1,-1,-1,-1,3,369989840,-1220635848,0,65535,65535,2,0,255,0,0,0,0,0,0,10,0,192,0,3,3
GPS_RAW_INT,330812,1,172,992,934,950,992,1811,992,1811,255,330825008,218,884,16760,-30,74,-15,104,16,-295,0,-112,-2,2,-2,1656,-1,-1,-1,-1,3,369989840,-1220635848,0,65535,65535,2,0,255,0,0,0,0,0,0,10,0,192,0,3,3
RC_CHANNELS_RAW,330832,0,172,992,934,950,992,1811,992,1811,255,330825008,218,884,16760,-30,74,-15,104,16,-295,0,-112,-2,2,-2,1656,-1,-1,-1,-1,3,369989840,-1220635848,0,65535,65535,2,0,255,0,0,0,0,0,0,10,0,192,0,3,3
RAW_IMU,330832,0,172,992,934,950,992,1811,992,1811,255,330832151,254,835,16718,-28,71,-25,99,16,-301,0,-112,-2,2,-2,1656,-1,-1,-1,-1,3,369989840,-1220635848,0,65535,65535,2,0,255,0,0,0,0,0,0,10,0,192,0,3,3
RC_CHANNELS_SCALED,330832,1,172,992,934,950,992,1811,992,1811,255,330832151,254,835,16718,-28,71,-25,99,16,-301,0,-112,-1,-1,1,1657,-1,-1,-1,-1,3,369989840,-1220635848,0,65535,65535,2,0,255,0,0,0,0,0,0,10,0,192,0,3,3
RC_CHANNELS_RAW,330852,0,172,992,934,950,992,1811,992,1811,255,330832151,254,835,16718,-28,71,-25,99,16,-301,0,-112,-1,-1,1,1657,-1,-1,-1,-1,3,369989840,-1220635848,0,65535,65535,2,0,255,0,0,0,0,0,0,10,0,192,0,3,3
RAW_IMU,330852,0,172,992,934,950,992,1811,992,1811,255,330852144,216,844,16709,-33,66,-13,92,18,-290,0,-112,-1,-1,1,1657,-1,-1,-1,-1,3,369989840,-1220635848,0,65535,65535,2,0,255,0,0,0,0,0,0,10,0,192,0,3,3
RC_CHANNELS_SCALED,330852,1,172,992,934,950,992,1811,992,1811,255,330852144,216,844,16709,-33,66,-13,92,18,-290,0,-112,-1,2,1,1656,-1,-1,-1,-1,3,369989840,-1220635848,0,65535,65535,2,0,255,0,0,0,0,0,0,10,0,192,0,3,3
RC_CHANNELS_RAW,330872,0,172,992,934,950,992,1811,992,1811,255,330852144,216,844,16709,-33,66,-13,92,18,-290,0,-112,-1,2,1,1656,-1,-1,-1,-1,3,369989840,-1220635848,0,65535,65535,2,0,255,0,0,0,0,0,0,10,0,192,0,3,3
RAW_IMU,330872,0,172,992,934,950,992,1811,992,1811,255,330872140,187,860,16689,-39,78,-21,96,9,-299,0,-256,-1,2,1,1656,-1,-1,-1,-1,3,369989840,-1220635848,0,65535,65535,2,0,255,0,0,0,0,0,0,10,0,192,0,3,3
RC_CHANNELS_SCALED,330872,1,172,992,934,950,992,1811,992,1811,255,330872140,187,860,16689,-39,78,-21,96,9,-299,0,-256,-1,0,2,1655,-1,-1,-1,-1,3,369989840,-1220635848,0,65535,65535,2,0,255,0,0,0,0,0,0,10,0,192,0,3,3
RC_CHANNELS_RAW,330892,0,172,992,934,950,992,1811,992,1811,255,330872140,187,860,16689,-39,78,-21,96,9,-299,0,-256,-1,0,2,1655,-1,-1,-1,-1,3,369989840,-1220635848,0,65535,65535,2,0,255,0,0,0,0,0,0,10,0,192,0,3,3
RAW_IMU,330892,0,172,992,934,950,992,1811,992,1811,255,330892143,191,896,16708,-33,57,-17,93,12,-294,0,-160,-1,0,2,1655,-1,-1,-1,-1,3,369989840,-1220635848,0,65535,65535,2,0,255,0,0,0,0,0,0,10,0,192,0,3,3
RC_CHANNELS_SCALED,330892,1,172,992,934,950,992,1811,992,1811,255,330892143,191,896,16708,-33,57,-17,93,12,-294,0,-160,5,-2,0,1654,-1,-1,-1,-1,3,369989840,-1220635848,0,65535,65535,2,0,255,0,0,0,0,0,0,10,0,192,0,3,3
RC_CHANNELS_RAW,330912,0,172,992,934,950,992,1811,992,1811,255,330892143,191,896,16708,-33,57,-17,93,12,-294,0,-160,5,-2,0,1654,-1,-1,-1,-1,3,369989840,-1220635848,0,65535,65535,2,0,255,0,0,0,0,0,0,10,0,192,0,3,3
RAW_IMU,330912,0,172,992,934,950,992,1811,992,1811,255,330912144,232,854,16741,-41,72,-21,109,7,-296,0,-160,5,-2,0,1654,-1,-1,-1,-1,3,369989840,-1220635848,0,65535,65535,2,0,255,0,0,0,0,0,0,10,0,192,0,3,3
RC_CHANNELS_SCALED,330912,1,172,992,934,950,992,1811,992,1811,255,330912144,232,854,16741,-41,72,-21,109,7,-296,0,-160,1,1,3,1657,-1,-1,-1,-1,3,369989840,-1220635848,0,65535,65535,2,0,255,0,0,0,0,0,0,10,0,192,0,3,3
GPS_RAW_INT,330912,1,172,992,934,950,992,1811,992,1811,255,330926005,232,854,16741,-41,72,-21,109,7,-296,0,-160,1,1,3,1657,-1,-1,-1,-1,3,369989838,-1220635848,0,65535,65535,0,0,255,0,0,0,0,0,0,10,0,192,0,3,3
RC_CHANNELS_RAW,330932,0,172,992,934,950,992,1811,992,1811,255,330926005,232,854,16741,-41,72,-21,109,7,-296,0,-160,1,1,3,1657,-1,-1,-1,-1,3,369989838,-1220635848,0,65535,65535,0,0,255,0,0,0,0,0,0,10,0,192,0,3,3
RAW_IMU,330932,0,172,992,934,950,992,1811,992,1811,255,330932147,248,827,16735,-40,60,-19,95,8,-305,0,-80,1,1,3,1657,-1,-1,-1,-1,3,369989838,-1220635848,0,65535,65535,0,0,255,0,0,0,0,0,0,10,0,192,0,3,3
RC_CHANNELS_SCALED,330932,1,172,992,934,950,992,1811,992,1811,255,330932147,248,827,16735,-40,60,-19,95,8,-305,0,-80,1,1,3,1655,-1,-1,-1,-1,3,369989838,-1220635848,0,65535,65535,0,0,255,0,0,0,0,0,0,10,0,192,0,3,3
RC_CHANNELS_RAW,330952,0,172,992,934,950,992,1811,992,1811,255,330932147,248,827,16735,-40,60,-19,95,8,-305,0,-80,1,1,3,1655,-1,-1,-1,-1,3,369989838,-1220635848,0,65535,65535,0,0,255,0,0,0,0,0,0,10,0,192,0,3,3
