mavpackettype,index,frequency,time_boot_ms,q1,q2,q3,q4,rollspeed,pitchspeed,yawspeed,repr_offset_q,x,y,z,vx,vy,vz,time_usec,fix_type,lat,lon,alt,eph,epv,vel,cog,satellites_visible,alt_ellipsoid,h_acc,v_acc,vel_acc,hdg_acc,yaw,type,autopilot,base_mode,custom_mode,system_status,mavlink_version
RAW_RPM,0,-0.0007669904152862728,48564,0.3945469856262207,-0.0282125361263752,0.10396573692560196,0.9125392436981201,0.0034622149541974068,0.010652968659996986,-0.0021305938716977835,"[0.0, 0.0, 0.0, 0.0]",-0.005170629825443029,-0.00487093161791563,0.0,0.0003675642656162381,-0.00038216079701669514,0.0,48593004,3,369992605,-1220636228,0,65535,65535,1,0,255,0,0,0,0,0,0,10,0,192,0,3,3
RAW_RPM,1,0.0007669904152862728,48564,0.3945469856262207,-0.0282125361263752,0.10396573692560196,0.9125392436981201,0.0034622149541974068,0.010652968659996986,-0.0021305938716977835,"[0.0, 0.0, 0.0, 0.0]",-0.005170629825443029,-0.00487093161791563,0.0,0.0003675642656162381,-0.00038216079701669514,0.0,48593004,3,369992605,-1220636228,0,65535,65535,1,0,255,0,0,0,0,0,0,10,0,192,0,3,3
RAW_RPM,2,0.4972686469554901,48564,0.3945469856262207,-0.0282125361263752,0.10396573692560196,0.9125392436981201,0.0034622149541974068,0.010652968659996986,-0.0021305938716977835,"[0.0, 0.0, 0.0, 0.0]",-0.005170629825443029,-0.00487093161791563,0.0,0.0003675642656162381,-0.00038216079701669514,0.0,48593004,3,369992605,-1220636228,0,65535,65535,1,0,255,0,0,0,0,0,0,10,0,192,0,3,3
ATTITUDE_QUATERNION,2,0.4972686469554901,48615,0.3943718671798706,-0.02773575484752655,0.10377950966358185,0.9126508235931396,0.0034622149541974068,0.015713129192590714,-0.0007989727309904993,"[0.0, 0.0, 0.0, 0.0]",-0.005170629825443029,-0.00487093161791563,0.0,0.0003675642656162381,-0.00038216079701669514,0.0,48593004,3,369992605,-1220636228,0,65535,65535,1,0,255,0,0,0,0,0,0,10,0,192,0,3,3
LOCAL_POSITION_NED,2,0.4972686469554901,48615,0.3943718671798706,-0.02773575484752655,0.10377950966358185,0.9126508235931396,0.0034622149541974068,0.015713129192590714,-0.0007989727309904993,"[0.0, 0.0, 0.0, 0.0]",-0.005151938181370497,-0.004890352953225374,0.0,0.0003499518206808716,-0.00036325264954939485,0.0,48593004,3,369992605,-1220636228,0,65535,65535,1,0,255,0,0,0,0,0,0,10,0,192,0,3,3
RAW_RPM,0,0.0003834952076431364,48615,0.3943718671798706,-0.02773575484752655,0.10377950966358185,0.9126508235931396,0.0034622149541974068,0.015713129192590714,-0.0007989727309904993,"[0.0, 0.0, 0.0, 0.0]",-0.005151938181370497,-0.004890352953225374,0.0,0.0003499518206808716,-0.00036325264954939485,0.0,48593004,3,369992605,-1220636228,0,65535,65535,1,0,255,0,0,0,0,0,0,10,0,192,0,3,3
RAW_RPM,1,0.0011504855938255787,48615,0.3943718671798706,-0.02773575484752655,0.10377950966358185,0.9126508235931396,0.0034622149541974068,0.015713129192590714,-0.0007989727309904993,"[0.0, 0.0, 0.0, 0.0]",-0.005151938181370497,-0.004890352953225374,0.0,0.0003499518206808716,-0.00036325264954939485,0.0,48593004,3,369992605,-1220636228,0,65535,65535,1,0,255,0,0,0,0,0,0,10,0,192,0,3,3
RAW_RPM,2,0.4970097839832306,48615,0.3943718671798706,-0.02773575484752655,0.10377950966358185,0.9126508235931396,0.0034622149541974068,0.015713129192590714,-0.0007989727309904993,"[0.0, 0.0, 0.0, 0.0]",-0.005151938181370497,-0.004890352953225374,0.0,0.0003499518206808716,-0.00036325264954939485,0.0,48593004,3,369992605,-1220636228,0,65535,65535,1,0,255,0,0,0,0,0,0,10,0,192,0,3,3
ATTITUDE_QUATERNION,2,0.4970097839832306,48666,0.39414727687835693,-0.027346184477210045,0.1034788191318512,0.9127936959266663,0.002396918134763837,0.0069244299083948135,-0.005326484329998493,"[0.0, 0.0, 0.0, 0.0]",-0.005151938181370497,-0.004890352953225374,0.0,0.0003499518206808716,-0.00036325264954939485,0.0,48593004,3,369992605,-1220636228,0,65535,65535,1,0,255,0,0,0,0,0,0,10,0,192,0,3,3
LOCAL_POSITION_NED,2,0.4970097839832306,48666,0.39414727687835693,-0.027346184477210045,0.1034788191318512,0.9127936959266663,0.002396918134763837,0.0069244299083948135,-0.005326484329998493,"[0.0, 0.0, 0.0, 0.0]",-0.005135589279234409,-0.0049073356203734875,0.0,0.0003742596018128097,-0.00038849504198879004,0.0,48593004,3,369992605,-1220636228,0,65535,65535,1,0,255,0,0,0,0,0,0,10,0,192,0,3,3
GPS_RAW_INT,2,0.4970097839832306,48666,0.39414727687835693,-0.027346184477210045,0.1034788191318512,0.9127936959266663,0.002396918134763837,0.0069244299083948135,-0.005326484329998493,"[0.0, 0.0, 0.0, 0.0]",-0.005135589279234409,-0.0049073356203734875,0.0,0.0003742596018128097,-0.00038849504198879004,0.0,48694002,3,369992606,-1220636228,0,65535,65535,3,0,255,0,0,0,0,0,0,10,0,192,0,3,3
RAW_RPM,0,0.0007669904152862728,48666,0.39414727687835693,-0.027346184477210045,0.1034788191318512,0.9127936959266663,0.002396918134763837,0.0069244299083948135,-0.005326484329998493,"[0.0, 0.0, 0.0, 0.0]",-0.005135589279234409,-0.0049073356203734875,0.0,0.0003742596018128097,-0.00038849504198879004,0.0,48694002,3,369992606,-1220636228,0,65535,65535,3,0,255,0,0,0,0,0,0,10,0,192,0,3,3
RAW_RPM,1,0.0,48666,0.39414727687835693,-0.027346184477210045,0.1034788191318512,0.9127936959266663,0.002396918134763837,0.0069244299083948135,-0.005326484329998493,"[0.0, 0.0, 0.0, 0.0]",-0.005135589279234409,-0.0049073356203734875,0.0,0.0003742596018128097,-0.00038849504198879004,0.0,48694002,3,369992606,-1220636228,0,65535,65535,3,0,255,0,0,0,0,0,0,10,0,192,0,3,3
RAW_RPM,2,0.49649205803871155,48666,0.39414727687835693,-0.027346184477210045,0.1034788191318512,0.9127936959266663,0.002396918134763837,0.0069244299083948135,-0.005326484329998493,"[0.0, 0.0, 0.0, 0.0]",-0.005135589279234409,-0.0049073356203734875,0.0,0.0003742596018128097,-0.00038849504198879004,0.0,48694002,3,369992606,-1220636228,0,65535,65535,3,0,255,0,0,0,0,0,0,10,0,192,0,3,3
ATTITUDE_QUATERNION,2,0.49649205803871155,48717,0.39428770542144775,-0.027511728927493095,0.1036323755979538,0.9127105474472046,0.0034622149541974068,0.011984591372311115,-0.0034622149541974068,"[0.0, 0.0, 0.0, 0.0]",-0.005135589279234409,-0.0049073356203734875,0.0,0.0003742596018128097,-0.00038849504198879004,0.0,48694002,3,369992606,-1220636228,0,65535,65535,3,0,255,0,0,0,0,0,0,10,0,192,0,3,3
LOCAL_POSITION_NED,2,0.49649205803871155,48717,0.39428770542144775,-0.027511728927493095,0.1036323755979538,0.9127105474472046,0.0034622149541974068,0.011984591372311115,-0.0034622149541974068,"[0.0, 0.0, 0.0, 0.0]",-0.005120072979480028,-0.004923444706946611,0.0,0.00036245552473701537,-0.00037639657966792583,0.0,48694002,3,369992606,-1220636228,0,65535,65535,3,0,255,0,0,0,0,0,0,10,0,192,0,3,3
RAW_RPM,0,0.0,48717,0.39428770542144775,-0.027511728927493095,0.1036323755979538,0.9127105474472046,0.0034622149541974068,0.011984591372311115,-0.0034622149541974068,"[0.0, 0.0, 0.0, 0.0]",-0.005120072979480028,-0.004923444706946611,0.0,0.00036245552473701537,-0.00037639657966792583,0.0,48694002,3,369992606,-1220636228,0,65535,65535,3,0,255,0,0,0,0,0,0,10,0,192,0,3,3
RAW_RPM,1,0.0,48717,0.39428770542144775,-0.027511728927493095,0.1036323755979538,0.9127105474472046,0.0034622149541974068,0.011984591372311115,-0.0034622149541974068,"[0.0, 0.0, 0.0, 0.0]",-0.005120072979480028,-0.004923444706946611,0.0,0.00036245552473701537,-0.00037639657966792583,0.0,48694002,3,369992606,-1220636228,0,65535,65535,3,0,255,0,0,0,0,0,0,10,0,192,0,3,3
RAW_RPM,2,0.4970097839832306,48717,0.39428770542144775,-0.027511728927493095,0.1036323755979538,0.9127105474472046,0.0034622149541974068,0.011984591372311115,-0.0034622149541974068,"[0.0, 0.0, 0.0, 0.0]",-0.005120072979480028,-0.004923444706946611,0.0,0.00036245552473701537,-0.00037639657966792583,0.0,48694002,3,369992606,-1220636228,0,65535,65535,3,0,255,0,0,0,0,0,0,10,0,192,0,3,3
ATTITUDE_QUATERNION,2,0.4970097839832306,48768,0.3944474458694458,-0.027712205424904823,0.10359658300876617,0.9126396179199219,0.00026632423396222293,0.008522375486791134,-0.008256050758063793,"[0.0, 0.0, 0.0, 0.0]",-0.005120072979480028,-0.004923444706946611,0.0,0.00036245552473701537,-0.00037639657966792583,0.0,48694002,3,369992606,-1220636228,0,65535,65535,3,0,255,0,0,0,0,0,0,10,0,192,0,3,3
LOCAL_POSITION_NED,2,0.4970097839832306,48768,0.3944474458694458,-0.027712205424904823,0.10359658300876617,0.9126396179199219,0.00026632423396222293,0.008522375486791134,-0.008256050758063793,"[0.0, 0.0, 0.0, 0.0]",-0.005103657022118568,-0.004940492566674948,0.0,0.0003499490558169782,-0.0003635894681792706,0.0,48694002,3,369992606,-1220636228,0,65535,65535,3,0,255,0,0,0,0,0,0,10,0,192,0,3,3
GPS_RAW_INT,2,0.4970097839832306,48768,0.3944474458694458,-0.027712205424904823,0.10359658300876617,0.9126396179199219,0.00026632423396222293,0.008522375486791134,-0.008256050758063793,"[0.0, 0.0, 0.0, 0.0]",-0.005103657022118568,-0.004940492566674948,0.0,0.0003499490558169782,-0.0003635894681792706,0.0,48795003,3,369992606,-1220636228,0,65535,65535,7,0,255,0,0,0,0,0,0,10,0,192,0,3,3
RAW_RPM,0,-0.0011504855938255787,48768,0.3944474458694458,-0.027712205424904823,0.10359658300876617,0.9126396179199219,0.00026632423396222293,0.008522375486791134,-0.008256050758063793,"[0.0, 0.0, 0.0, 0.0]",-0.005103657022118568,-0.004940492566674948,0.0,0.0003499490558169782,-0.0003635894681792706,0.0,48795003,3,369992606,-1220636228,0,65535,65535,7,0,255,0,0,0,0,0,0,10,0,192,0,3,3
RAW_RPM,1,0.0,48768,0.3944474458694458,-0.027712205424904823,0.10359658300876617,0.9126396179199219,0.00026632423396222293,0.008522375486791134,-0.008256050758063793,"[0.0, 0.0, 0.0, 0.0]",-0.005103657022118568,-0.004940492566674948,0.0,0.0003499490558169782,-0.0003635894681792706,0.0,48795003,3,369992606,-1220636228,0,65535,65535,7,0,255,0,0,0,0,0,0,10,0,192,0,3,3
RAW_RPM,2,0.49752750992774963,48768,0.3944474458694458,-0.027712205424904823,0.10359658300876617,0.9126396179199219,0.00026632423396222293,0.008522375486791134,-0.008256050758063793,"[0.0, 0.0, 0.0, 0.0]",-0.005103657022118568,-0.004940492566674948,0.0,0.0003499490558169782,-0.0003635894681792706,0.0,48795003,3,369992606,-1220636228,0,65535,65535,7,0,255,0,0,0,0,0,0,10,0,192,0,3,3
ATTITUDE_QUATERNION,2,0.49752750992774963,48819,0.39428943395614624,-0.027603982016444206,0.10360811650753021,0.9127097725868225,0.0039948634803295135,0.013582535088062286,0.00026632423396222293,"[0.0, 0.0, 0.0, 0.0]",-0.005103657022118568,-0.004940492566674948,0.0,0.0003499490558169782,-0.0003635894681792706,0.0,48795003,3,369992606,-1220636228,0,65535,65535,7,0,255,0,0,0,0,0,0,10,0,192,0,3,3
LOCAL_POSITION_NED,2,0.49752750992774963,48819,0.39428943395614624,-0.027603982016444206,0.10360811650753021,0.9127097725868225,0.0039948634803295135,0.013582535088062286,0.00026632423396222293,"[0.0, 0.0, 0.0, 0.0]",-0.005088274832814932,-0.0049564773216843605,0.0,0.0002652432303875685,-0.0002755464520305395,0.0,48795003,3,369992606,-1220636228,0,65535,65535,7,0,255,0,0,0,0,0,0,10,0,192,0,3,3
RAW_RPM,0,0.0,48819,0.39428943395614624,-0.027603982016444206,0.10360811650753021,0.9127097725868225,0.0039948634803295135,0.013582535088062286,0.00026632423396222293,"[0.0, 0.0, 0.0, 0.0]",-0.005088274832814932,-0.0049564773216843605,0.0,0.0002652432303875685,-0.0002755464520305395,0.0,48795003,3,369992606,-1220636228,0,65535,65535,7,0,255,0,0,0,0,0,0,10,0,192,0,3,3
RAW_RPM,1,-0.0003834952076431364,48819,0.39428943395614624,-0.027603982016444206,0.10360811650753021,0.9127097725868225,0.0039948634803295135,0.013582535088062286,0.00026632423396222293,"[0.0, 0.0, 0.0, 0.0]",-0.005088274832814932,-0.0049564773216843605,0.0,0.0002652432303875685,-0.0002755464520305395,0.0,48795003,3,369992606,-1220636228,0,65535,65535,7,0,255,0,0,0,0,0,0,10,0,192,0,3,3
RAW_RPM,2,0.4972686469554901,48819,0.39428943395614624,-0.027603982016444206,0.10360811650753021,0.9127097725868225,0.0039948634803295135,0.013582535088062286,0.00026632423396222293,"[0.0, 0.0, 0.0, 0.0]",-0.005088274832814932,-0.0049564773216843605,0.0,0.0002652432303875685,-0.0002755464520305395,0.0,48795003,3,369992606,-1220636228,0,65535,65535,7,0,255,0,0,0,0,0,0,10,0,192,0,3,3
ATTITUDE_QUATERNION,2,0.4972686469554901,48870,0.3941670358181,-0.02744530513882637,0.10388854891061783,0.912735641002655,0.003195890923961997,0.011185618117451668,-0.003728539450094104,"[0.0, 0.0, 0.0, 0.0]",-0.005088274832814932,-0.0049564773216843605,0.0,0.0002652432303875685,-0.0002755464520305395,0.0,48795003,3,369992606,-1220636228,0,65535,65535,7,0,255,0,0,0,0,0,0,10,0,192,0,3,3
LOCAL_POSITION_NED,2,0.4972686469554901,48870,0.3941670358181,-0.02744530513882637,0.10388854891061783,0.912735641002655,0.003195890923961997,0.011185618117451668,-0.003728539450094104,"[0.0, 0.0, 0.0, 0.0]",-0.005073005799204111,-0.004972334485501051,0.0,0.00029556069057434797,-0.0003069708764087409,0.0,48795003,3,369992606,-1220636228,0,65535,65535,7,0,255,0,0,0,0,0,0,10,0,192,0,3,3
GPS_RAW_INT,2,0.4972686469554901,48870,0.3941670358181,-0.02744530513882637,0.10388854891061783,0.912735641002655,0.003195890923961997,0.011185618117451668,-0.003728539450094104,"[0.0, 0.0, 0.0, 0.0]",-0.005073005799204111,-0.004972334485501051,0.0,0.00029556069057434797,-0.0003069708764087409,0.0,48896004,3,369992606,-1220636228,0,65535,65535,3,0,255,0,0,0,0,0,0,10,0,192,0,3,3
RAW_RPM,0,0.0003834952076431364,48870,0.3941670358181,-0.02744530513882637,0.10388854891061783,0.912735641002655,0.003195890923961997,0.011185618117451668,-0.003728539450094104,"[0.0, 0.0, 0.0, 0.0]",-0.005073005799204111,-0.004972334485501051,0.0,0.00029556069057434797,-0.0003069708764087409,0.0,48896004,3,369992606,-1220636228,0,65535,65535,3,0,255,0,0,0,0,0,0,10,0,192,0,3,3
RAW_RPM,1,0.0003834952076431364,48870,0.3941670358181,-0.02744530513882637,0.10388854891061783,0.912735641002655,0.003195890923961997,0.011185618117451668,-0.003728539450094104,"[0.0, 0.0, 0.0, 0.0]",-0.005073005799204111,-0.004972334485501051,0.0,0.00029556069057434797,-0.0003069708764087409,0.0,48896004,3,369992606,-1220636228,0,65535,65535,3,0,255,0,0,0,0,0,0,10,0,192,0,3,3
RAW_RPM,2,0.4972686469554901,48870,0.3941670358181,-0.02744530513882637,0.10388854891061783,0.912735641002655,0.003195890923961997,0.011185618117451668,-0.003728539450094104,"[0.0, 0.0, 0.0, 0.0]",-0.005073005799204111,-0.004972334485501051,0.0,0.00029556069057434797,-0.0003069708764087409,0.0,48896004,3,369992606,-1220636228,0,65535,65535,3,0,255,0,0,0,0,0,0,10,0,192,0,3,3
ATTITUDE_QUATERNION,2,0.4972686469554901,48921,0.39405545592308044,-0.02729065716266632,0.10408294945955276,0.9127662777900696,0.005859133321791887,0.012250914238393307,-0.004261187743395567,"[0.0, 0.0, 0.0, 0.0]",-0.005073005799204111,-0.004972334485501051,0.0,0.00029556069057434797,-0.0003069708764087409,0.0,48896004,3,369992606,-1220636228,0,65535,65535,3,0,255,0,0,0,0,0,0,10,0,192,0,3,3
LOCAL_POSITION_NED,2,0.4972686469554901,48921,0.39405545592308044,-0.02729065716266632,0.10408294945955276,0.9127662777900696,0.005859133321791887,0.012250914238393307,-0.004261187743395567,"[0.0, 0.0, 0.0, 0.0]",-0.0050543490797281265,-0.0049916887655854225,0.0,0.00038627241156063974,-0.0004007161478511989,0.0,48896004,3,369992606,-1220636228,0,65535,65535,3,0,255,0,0,0,0,0,0,10,0,192,0,3,3
RAW_RPM,0,0.0007669904152862728,48921,0.39405545592308044,-0.02729065716266632,0.10408294945955276,0.9127662777900696,0.005859133321791887,0.012250914238393307,-0.004261187743395567,"[0.0, 0.0, 0.0, 0.0]",-0.0050543490797281265,-0.0049916887655854225,0.0,0.00038627241156063974,-0.0004007161478511989,0.0,48896004,3,369992606,-1220636228,0,65535,65535,3,0,255,0,0,0,0,0,0,10,0,192,0,3,3
RAW_RPM,1,0.0,48921,0.39405545592308044,-0.02729065716266632,0.10408294945955276,0.9127662777900696,0.005859133321791887,0.012250914238393307,-0.004261187743395567,"[0.0, 0.0, 0.0, 0.0]",-0.0050543490797281265,-0.0049916887655854225,0.0,0.00038627241156063974,-0.0004007161478511989,0.0,48896004,3,369992606,-1220636228,0,65535,65535,3,0,255,0,0,0,0,0,0,10,0,192,0,3,3
RAW_RPM,2,0.49675092101097107,48921,0.39405545592308044,-0.02729065716266632,0.10408294945955276,0.9127662777900696,0.005859133321791887,0.012250914238393307,-0.004261187743395567,"[0.0, 0.0, 0.0, 0.0]",-0.0050543490797281265,-0.0049916887655854225,0.0,0.00038627241156063974,-0.0004007161478511989,0.0,48896004,3,369992606,-1220636228,0,65535,65535,3,0,255,0,0,0,0,0,0,10,0,192,0,3,3
ATTITUDE_QUATERNION,2,0.49675092101097107,48972,0.39420175552368164,-0.027407042682170868,0.1036929115653038,0.9127440452575684,0.0029295666608959436,0.013049887493252754,-0.001864269725047052,"[0.0, 0.0, 0.0, 0.0]",-0.0050543490797281265,-0.0049916887655854225,0.0,0.00038627241156063974,-0.0004007161478511989,0.0,48896004,3,369992606,-1220636228,0,65535,65535,3,0,255,0,0,0,0,0,0,10,0,192,0,3,3
LOCAL_POSITION_NED,2,0.49675092101097107,48973,0.39420175552368164,-0.027407042682170868,0.1036929115653038,0.9127440452575684,0.0029295666608959436,0.013049887493252754,-0.001864269725047052,"[0.0, 0.0, 0.0, 0.0]",-0.005034801550209522,-0.005011977627873421,0.0,0.00025361281586810946,-0.000263337220530957,0.0,48896004,3,369992606,-1220636228,0,65535,65535,3,0,255,0,0,0,0,0,0,10,0,192,0,3,3
GPS_RAW_INT,2,0.49675092101097107,48973,0.39420175552368164,-0.027407042682170868,0.1036929115653038,0.9127440452575684,0.0029295666608959436,0.013049887493252754,-0.001864269725047052,"[0.0, 0.0, 0.0, 0.0]",-0.005034801550209522,-0.005011977627873421,0.0,0.00025361281586810946,-0.000263337220530957,0.0,48997005,3,369992606,-1220636226,0,65535,65535,2,0,255,0,0,0,0,0,0,10,0,192,0,3,3
HEARTBEAT,2,0.49675092101097107,48973,0.39420175552368164,-0.027407042682170868,0.1036929115653038,0.9127440452575684,0.0029295666608959436,0.013049887493252754,-0.001864269725047052,"[0.0, 0.0, 0.0, 0.0]",-0.005034801550209522,-0.005011977627873421,0.0,0.00025361281586810946,-0.000263337220530957,0.0,48997005,3,369992606,-1220636226,0,65535,65535,2,0,255,0,0,0,0,0,0,10,0,192,0,3,3
RAW_RPM,0,-0.0007669904152862728,48973,0.39420175552368164,-0.027407042682170868,0.1036929115653038,0.9127440452575684,0.0029295666608959436,0.013049887493252754,-0.001864269725047052,"[0.0, 0.0, 0.0, 0.0]",-0.005034801550209522,-0.005011977627873421,0.0,0.00025361281586810946,-0.000263337220530957,0.0,48997005,3,369992606,-1220636226,0,65535,65535,2,0,255,0,0,0,0,0,0,10,0,192,0,3,3
RAW_RPM,1,0.0003834952076431364,48973,0.39420175552368164,-0.027407042682170868,0.1036929115653038,0.9127440452575684,0.0029295666608959436,0.013049887493252754,-0.001864269725047052,"[0.0, 0.0, 0.0, 0.0]",-0.005034801550209522,-0.005011977627873421,0.0,0.00025361281586810946,-0.000263337220530957,0.0,48997005,3,369992606,-1220636226,0,65535,65535,2,0,255,0,0,0,0,0,0,10,0,192,0,3,3
RAW_RPM,2,0.4972686469554901,48973,0.39420175552368164,-0.027407042682170868,0.1036929115653038,0.9127440452575684,0.0029295666608959436,0.013049887493252754,-0.001864269725047052,"[0.0, 0.0, 0.0, 0.0]",-0.005034801550209522,-0.005011977627873421,0.0,0.00025361281586810946,-0.000263337220530957,0.0,48997005,3,369992606,-1220636226,0,65535,65535,2,0,255,0,0,0,0,0,0,10,0,192,0,3,3
ATTITUDE_QUATERNION,2,0.4972686469554901,49023,0.39413121342658997,-0.027317702770233154,0.10403424501419067,0.9127383232116699,0.0039948634803295135,0.011984591372311115,-0.008256050758063793,"[0.0, 0.0, 0.0, 0.0]",-0.005034801550209522,-0.005011977627873421,0.0,0.00025361281586810946,-0.000263337220530957,0.0,48997005,3,369992606,-1220636226,0,65535,65535,2,0,255,0,0,0,0,0,0,10,0,192,0,3,3
LOCAL_POSITION_NED,2,0.4972686469554901,49023,0.39413121342658997,-0.027317702770233154,0.10403424501419067,0.9127383232116699,0.0039948634803295135,0.011984591372311115,-0.008256050758063793,"[0.0, 0.0, 0.0, 0.0]",-0.0050195371732115746,-0.005027822218835354,0.0,0.00027754230541177094,-0.0002881023974623531,0.0,48997005,3,369992606,-1220636226,0,65535,65535,2,0,255,0,0,0,0,0,0,10,0,192,0,3,3
RAW_RPM,0,-0.0007669904152862728,49023,0.39413121342658997,-0.027317702770233154,0.10403424501419067,0.9127383232116699,0.0039948634803295135,0.011984591372311115,-0.008256050758063793,"[0.0, 0.0, 0.0, 0.0]",-0.0050195371732115746,-0.005027822218835354,0.0,0.00027754230541177094,-0.0002881023974623531,0.0,48997005,3,369992606,-1220636226,0,65535,65535,2,0,255,0,0,0,0,0,0,10,0,192,0,3,3
RAW_RPM,1,0.0003834952076431364,49023,0.39413121342658997,-0.027317702770233154,0.10403424501419067,0.9127383232116699,0.0039948634803295135,0.011984591372311115,-0.008256050758063793,"[0.0, 0.0, 0.0, 0.0]",-0.0050195371732115746,-0.005027822218835354,0.0,0.00027754230541177094,-0.0002881023974623531,0.0,48997005,3,369992606,-1220636226,0,65535,65535,2,0,255,0,0,0,0,0,0,10,0,192,0,3,3
RAW_RPM,2,0.49752750992774963,49023,0.39413121342658997,-0.027317702770233154,0.10403424501419067,0.9127383232116699,0.0039948634803295135,0.011984591372311115,-0.008256050758063793,"[0.0, 0.0, 0.0, 0.0]",-0.0050195371732115746,-0.005027822218835354,0.0,0.00027754230541177094,-0.0002881023974623531,0.0,48997005,3,369992606,-1220636226,0,65535,65535,2,0,255,0,0,0,0,0,0,10,0,192,0,3,3
ATTITUDE_QUATERNION,2,0.49752750992774963,49074,0.3943435251712799,-0.027547195553779602,0.10348093509674072,0.9127026796340942,0.0034622149541974068,0.014381508342921734,-0.004261187743395567,"[0.0, 0.0, 0.0, 0.0]",-0.0050195371732115746,-0.005027822218835354,0.0,0.00027754230541177094,-0.0002881023974623531,0.0,48997005,3,369992606,-1220636226,0,65535,65535,2,0,255,0,0,0,0,0,0,10,0,192,0,3,3
LOCAL_POSITION_NED,2,0.49752750992774963,49074,0.3943435251712799,-0.027547195553779602,0.10348093509674072,0.9127026796340942,0.0034622149541974068,0.014381508342921734,-0.004261187743395567,"[0.0, 0.0, 0.0, 0.0]",-0.0050050546415150166,-0.0050428519025444984,0.0,0.00027133975527249277,-0.0002817431231960654,0.0,48997005,3,369992606,-1220636226,0,65535,65535,2,0,255,0,0,0,0,0,0,10,0,192,0,3,3
GPS_RAW_INT,2,0.49752750992774963,49074,0.3943435251712799,-0.027547195553779602,0.10348093509674072,0.9127026796340942,0.0034622149541974068,0.014381508342921734,-0.004261187743395567,"[0.0, 0.0, 0.0, 0.0]",-0.0050050546415150166,-0.0050428519025444984,0.0,0.00027133975527249277,-0.0002817431231960654,0.0,49098004,3,369992606,-1220636226,0,65535,65535,0,0,255,0,0,0,0,0,0,10,0,192,0,3,3
RAW_RPM,0,0.0,49074,0.3943435251712799,-0.027547195553779602,0.10348093509674072,0.9127026796340942,0.0034622149541974068,0.014381508342921734,-0.004261187743395567,"[0.0, 0.0, 0.0, 0.0]",-0.0050050546415150166,-0.0050428519025444984,0.0,0.00027133975527249277,-0.0002817431231960654,0.0,49098004,3,369992606,-1220636226,0,65535,65535,0,0,255,0,0,0,0,0,0,10,0,192,0,3,3
RAW_RPM,1,-0.0003834952076431364,49074,0.3943435251712799,-0.027547195553779602,0.10348093509674072,0.9127026796340942,0.0034622149541974068,0.014381508342921734,-0.004261187743395567,"[0.0, 0.0, 0.0, 0.0]",-0.0050050546415150166,-0.0050428519025444984,0.0,0.00027133975527249277,-0.0002817431231960654,0.0,49098004,3,369992606,-1220636226,0,65535,65535,0,0,255,0,0,0,0,0,0,10,0,192,0,3,3
RAW_RPM,2,0.4970097839832306,49074,0.3943435251712799,-0.027547195553779602,0.10348093509674072,0.9127026796340942,0.0034622149541974068,0.014381508342921734,-0.004261187743395567,"[0.0, 0.0, 0.0, 0.0]",-0.0050050546415150166,-0.0050428519025444984,0.0,0.00027133975527249277,-0.0002817431231960654,0.0,49098004,3,369992606,-1220636226,0,65535,65535,0,0,255,0,0,0,0,0,0,10,0,192,0,3,3
ATTITUDE_QUATERNION,2,0.4970097839832306,49125,0.3944339156150818,-0.027522031217813492,0.10310652107000351,0.912706732749939,0.0026632421649992466,0.011185618117451668,-0.008256050758063793,"[0.0, 0.0, 0.0, 0.0]",-0.0050050546415150166,-0.0050428519025444984,0.0,0.00027133975527249277,-0.0002817431231960654,0.0,49098004,3,369992606,-1220636226,0,65535,65535,0,0,255,0,0,0,0,0,0,10,0,192,0,3,3
LOCAL_POSITION_NED,2,0.4970097839832306,49125,0.3944339156150818,-0.027522031217813492,0.10310652107000351,0.912706732749939,0.0026632421649992466,0.011185618117451668,-0.008256050758063793,"[0.0, 0.0, 0.0, 0.0]",-0.004987745080143213,-0.005060834344476461,0.0,0.00036796266795136034,-0.00038247977499850094,0.0,49098004,3,369992606,-1220636226,0,65535,65535,0,0,255,0,0,0,0,0,0,10,0,192,0,3,3
RAW_RPM,0,0.0003834952076431364,49125,0.3944339156150818,-0.027522031217813492,0.10310652107000351,0.912706732749939,0.0026632421649992466,0.011185618117451668,-0.008256050758063793,"[0.0, 0.0, 0.0, 0.0]",-0.004987745080143213,-0.005060834344476461,0.0,0.00036796266795136034,-0.00038247977499850094,0.0,49098004,3,369992606,-1220636226,0,65535,65535,0,0,255,0,0,0,0,0,0,10,0,192,0,3,3
RAW_RPM,1,0.0007669904152862728,49125,0.3944339156150818,-0.027522031217813492,0.10310652107000351,0.912706732749939,0.0026632421649992466,0.011185618117451668,-0.008256050758063793,"[0.0, 0.0, 0.0, 0.0]",-0.004987745080143213,-0.005060834344476461,0.0,0.00036796266795136034,-0.00038247977499850094,0.0,49098004,3,369992606,-1220636226,0,65535,65535,0,0,255,0,0,0,0,0,0,10,0,192,0,3,3
RAW_RPM,2,0.49675092101097107,49125,0.3944339156150818,-0.027522031217813492,0.10310652107000351,0.912706732749939,0.0026632421649992466,0.011185618117451668,-0.008256050758063793,"[0.0, 0.0, 0.0, 0.0]",-0.004987745080143213,-0.005060834344476461,0.0,0.00036796266795136034,-0.00038247977499850094,0.0,49098004,3,369992606,-1220636226,0,65535,65535,0,0,255,0,0,0,0,0,0,10,0,192,0,3,3
ATTITUDE_QUATERNION,2,0.49675092101097107,49176,0.3944436013698578,-0.02736786939203739,0.10283703356981277,0.9127376079559326,0.004793836269527674,0.010120321065187454,-0.003728539450094104,"[0.0, 0.0, 0.0, 0.0]",-0.004987745080143213,-0.005060834344476461,0.0,0.00036796266795136034,-0.00038247977499850094,0.0,49098004,3,369992606,-1220636226,0,65535,65535,0,0,255,0,0,0,0,0,0,10,0,192,0,3,3
LOCAL_POSITION_NED,2,0.49675092101097107,49176,0.3944436013698578,-0.02736786939203739,0.10283703356981277,0.9127376079559326,0.004793836269527674,0.010120321065187454,-0.003728539450094104,"[0.0, 0.0, 0.0, 0.0]",-0.004969517234712839,-0.005079774651676416,0.0,0.00038635602686554193,-0.00040137357427738607,0.0,49098004,3,369992606,-1220636226,0,65535,65535,0,0,255,0,0,0,0,0,0,10,0,192,0,3,3
GPS_RAW_INT,2,0.49675092101097107,49176,0.3944436013698578,-0.02736786939203739,0.10283703356981277,0.9127376079559326,0.004793836269527674,0.010120321065187454,-0.003728539450094104,"[0.0, 0.0, 0.0, 0.0]",-0.004969517234712839,-0.005079774651676416,0.0,0.00038635602686554193,-0.00040137357427738607,0.0,49199002,3,369992605,-1220636228,0,65535,65535,6,0,255,0,0,0,0,0,0,10,0,192,0,3,3
RAW_RPM,0,0.0007669904152862728,49176,0.3944436013698578,-0.02736786939203739,0.10283703356981277,0.9127376079559326,0.004793836269527674,0.010120321065187454,-0.003728539450094104,"[0.0, 0.0, 0.0, 0.0]",-0.004969517234712839,-0.005079774651676416,0.0,0.00038635602686554193,-0.00040137357427738607,0.0,49199002,3,369992605,-1220636228,0,65535,65535,6,0,255,0,0,0,0,0,0,10,0,192,0,3,3
RAW_RPM,1,-0.0007669904152862728,49176,0.3944436013698578,-0.02736786939203739,0.10283703356981277,0.9127376079559326,0.004793836269527674,0.010120321065187454,-0.003728539450094104,"[0.0, 0.0, 0.0, 0.0]",-0.004969517234712839,-0.005079774651676416,0.0,0.00038635602686554193,-0.00040137357427738607,0.0,49199002,3,369992605,-1220636228,0,65535,65535,6,0,255,0,0,0,0,0,0,10,0,192,0,3,3
RAW_RPM,2,0.49675092101097107,49176,0.3944436013698578,-0.02736786939203739,0.10283703356981277,0.9127376079559326,0.004793836269527674,0.010120321065187454,-0.003728539450094104,"[0.0, 0.0, 0.0, 0.0]",-0.004969517234712839,-0.005079774651676416,0.0,0.00038635602686554193,-0.00040137357427738607,0.0,49199002,3,369992605,-1220636228,0,65535,65535,6,0,255,0,0,0,0,0,0,10,0,192,0,3,3
ATTITUDE_QUATERNION,2,0.49675092101097107,49227,0.394513875246048,-0.0273145604878664,0.10266610980033875,0.912727952003479,0.006125457119196653,0.011718266643583775,-0.001864269725047052,"[0.0, 0.0, 0.0, 0.0]",-0.004969517234712839,-0.005079774651676416,0.0,0.00038635602686554193,-0.00040137357427738607,0.0,49199002,3,369992605,-1220636228,0,65535,65535,6,0,255,0,0,0,0,0,0,10,0,192,0,3,3
LOCAL_POSITION_NED,2,0.49675092101097107,49227,0.394513875246048,-0.0273145604878664,0.10266610980033875,0.912727952003479,0.006125457119196653,0.011718266643583775,-0.001864269725047052,"[0.0, 0.0, 0.0, 0.0]",-0.00495311850681901,-0.0050968267023563385,0.0,0.000301656371448189,-0.0003137503517791629,0.0,49199002,3,369992605,-1220636228,0,65535,65535,6,0,255,0,0,0,0,0,0,10,0,192,0,3,3
RAW_RPM,0,0.0,49227,0.394513875246048,-0.0273145604878664,0.10266610980033875,0.912727952003479,0.006125457119196653,0.011718266643583775,-0.001864269725047052,"[0.0, 0.0, 0.0, 0.0]",-0.00495311850681901,-0.0050968267023563385,0.0,0.000301656371448189,-0.0003137503517791629,0.0,49199002,3,369992605,-1220636228,0,65535,65535,6,0,255,0,0,0,0,0,0,10,0,192,0,3,3
RAW_RPM,1,0.0,49227,0.394513875246048,-0.0273145604878664,0.10266610980033875,0.912727952003479,0.006125457119196653,0.011718266643583775,-0.001864269725047052,"[0.0, 0.0, 0.0, 0.0]",-0.00495311850681901,-0.0050968267023563385,0.0,0.000301656371448189,-0.0003137503517791629,0.0,49199002,3,369992605,-1220636228,0,65535,65535,6,0,255,0,0,0,0,0,0,10,0,192,0,3,3
RAW_RPM,2,0.4970097839832306,49227,0.394513875246048,-0.0273145604878664,0.10266610980033875,0.912727952003479,0.006125457119196653,0.011718266643583775,-0.001864269725047052,"[0.0, 0.0, 0.0, 0.0]",-0.00495311850681901,-0.0050968267023563385,0.0,0.000301656371448189,-0.0003137503517791629,0.0,49199002,3,369992605,-1220636228,0,65535,65535,6,0,255,0,0,0,0,0,0,10,0,192,0,3,3
ATTITUDE_QUATERNION,2,0.4970097839832306,49278,0.3945375382900238,-0.027315102517604828,0.10252411663532257,0.912733793258667,0.0015979454619809985,0.007190754171460867,-0.00026632423396222293,"[0.0, 0.0, 0.0, 0.0]",-0.00495311850681901,-0.0050968267023563385,0.0,0.000301656371448189,-0.0003137503517791629,0.0,49199002,3,369992605,-1220636228,0,65535,65535,6,0,255,0,0,0,0,0,0,10,0,192,0,3,3
LOCAL_POSITION_NED,2,0.4970097839832306,49278,0.3945375382900238,-0.027315102517604828,0.10252411663532257,0.912733793258667,0.0015979454619809985,0.007190754171460867,-0.00026632423396222293,"[0.0, 0.0, 0.0, 0.0]",-0.004939064849168062,-0.005111439619213343,0.0,0.0002532576327212155,-0.0002634368429426104,0.0,49199002,3,369992605,-1220636228,0,65535,65535,6,0,255,0,0,0,0,0,0,10,0,192,0,3,3
GPS_RAW_INT,2,0.4970097839832306,49278,0.3945375382900238,-0.027315102517604828,0.10252411663532257,0.912733793258667,0.0015979454619809985,0.007190754171460867,-0.00026632423396222293,"[0.0, 0.0, 0.0, 0.0]",-0.004939064849168062,-0.005111439619213343,0.0,0.0002532576327212155,-0.0002634368429426104,0.0,49300003,3,369992605,-1220636228,0,65535,65535,2,0,255,0,0,0,0,0,0,10,0,192,0,3,3
RAW_RPM,0,0.0011504855938255787,49278,0.3945375382900238,-0.027315102517604828,0.10252411663532257,0.912733793258667,0.0015979454619809985,0.007190754171460867,-0.00026632423396222293,"[0.0, 0.0, 0.0, 0.0]",-0.004939064849168062,-0.005111439619213343,0.0,0.0002532576327212155,-0.0002634368429426104,0.0,49300003,3,369992605,-1220636228,0,65535,65535,2,0,255,0,0,0,0,0,0,10,0,192,0,3,3
RAW_RPM,1,0.0011504855938255787,49278,0.3945375382900238,-0.027315102517604828,0.10252411663532257,0.912733793258667,0.0015979454619809985,0.007190754171460867,-0.00026632423396222293,"[0.0, 0.0, 0.0, 0.0]",-0.004939064849168062,-0.005111439619213343,0.0,0.0002532576327212155,-0.0002634368429426104,0.0,49300003,3,369992605,-1220636228,0,65535,65535,2,0,255,0,0,0,0,0,0,10,0,192,0,3,3
RAW_RPM,2,0.4972686469554901,49278,0.3945375382900238,-0.027315102517604828,0.10252411663532257,0.912733793258667,0.0015979454619809985,0.007190754171460867,-0.00026632423396222293,"[0.0, 0.0, 0.0, 0.0]",-0.004939064849168062,-0.005111439619213343,0.0,0.0002532576327212155,-0.0002634368429426104,0.0,49300003,3,369992605,-1220636228,0,65535,65535,2,0,255,0,0,0,0,0,0,10,0,192,0,3,3
ATTITUDE_QUATERNION,2,0.4972686469554901,49329,0.39452996850013733,-0.027193527668714523,0.1021149754524231,0.9127865433692932,0.00026632423396222293,0.00905502401292324,-0.006125457119196653,"[0.0, 0.0, 0.0, 0.0]",-0.004939064849168062,-0.005111439619213343,0.0,0.0002532576327212155,-0.0002634368429426104,0.0,49300003,3,369992605,-1220636228,0,65535,65535,2,0,255,0,0,0,0,0,0,10,0,192,0,3,3
LOCAL_POSITION_NED,2,0.4972686469554901,49329,0.39452996850013733,-0.027193527668714523,0.1021149754524231,0.9127865433692932,0.00026632423396222293,0.00905502401292324,-0.006125457119196653,"[0.0, 0.0, 0.0, 0.0]",-0.004924902692437172,-0.0051261684857308865,0.0,0.00036165351048111916,-0.0003761304833460599,0.0,49300003,3,369992605,-1220636228,0,65535,65535,2,0,255,0,0,0,0,0,0,10,0,192,0,3,3
RAW_RPM,0,-0.0003834952076431364,49329,0.39452996850013733,-0.027193527668714523,0.1021149754524231,0.9127865433692932,0.00026632423396222293,0.00905502401292324,-0.006125457119196653,"[0.0, 0.0, 0.0, 0.0]",-0.004924902692437172,-0.0051261684857308865,0.0,0.00036165351048111916,-0.0003761304833460599,0.0,49300003,3,369992605,-1220636228,0,65535,65535,2,0,255,0,0,0,0,0,0,10,0,192,0,3,3
RAW_RPM,1,-0.0011504855938255787,49329,0.39452996850013733,-0.027193527668714523,0.1021149754524231,0.9127865433692932,0.00026632423396222293,0.00905502401292324,-0.006125457119196653,"[0.0, 0.0, 0.0, 0.0]",-0.004924902692437172,-0.0051261684857308865,0.0,0.00036165351048111916,-0.0003761304833460599,0.0,49300003,3,369992605,-1220636228,0,65535,65535,2,0,255,0,0,0,0,0,0,10,0,192,0,3,3
RAW_RPM,2,0.4970097839832306,49329,0.39452996850013733,-0.027193527668714523,0.1021149754524231,0.9127865433692932,0.00026632423396222293,0.00905502401292324,-0.006125457119196653,"[0.0, 0.0, 0.0, 0.0]",-0.004924902692437172,-0.0051261684857308865,0.0,0.00036165351048111916,-0.0003761304833460599,0.0,49300003,3,369992605,-1220636228,0,65535,65535,2,0,255,0,0,0,0,0,0,10,0,192,0,3,3
ATTITUDE_QUATERNION,2,0.4970097839832306,49380,0.3941956162452698,-0.02687939442694187,0.10310152918100357,0.9128293395042419,0.0,0.012517238967120647,-0.010120321065187454,"[0.0, 0.0, 0.0, 0.0]",-0.004924902692437172,-0.0051261684857308865,0.0,0.00036165351048111916,-0.0003761304833460599,0.0,49300003,3,369992605,-1220636228,0,65535,65535,2,0,255,0,0,0,0,0,0,10,0,192,0,3,3
LOCAL_POSITION_NED,2,0.4970097839832306,49380,0.3941956162452698,-0.02687939442694187,0.10310152918100357,0.9128293395042419,0.0,0.012517238967120647,-0.010120321065187454,"[0.0, 0.0, 0.0, 0.0]",-0.00491314334794879,-0.005138391628861427,0.0,0.00021119826124049723,-0.00021938617283012718,0.0,49300003,3,369992605,-1220636228,0,65535,65535,2,0,255,0,0,0,0,0,0,10,0,192,0,3,3
GPS_RAW_INT,2,0.4970097839832306,49380,0.3941956162452698,-0.02687939442694187,0.10310152918100357,0.9128293395042419,0.0,0.012517238967120647,-0.010120321065187454,"[0.0, 0.0, 0.0, 0.0]",-0.00491314334794879,-0.005138391628861427,0.0,0.00021119826124049723,-0.00021938617283012718,0.0,49401005,3,369992605,-1220636228,0,65535,65535,1,0,255,0,0,0,0,0,0,10,0,192,0,3,3
RAW_RPM,0,-0.0011504855938255787,49380,0.3941956162452698,-0.02687939442694187,0.10310152918100357,0.9128293395042419,0.0,0.012517238967120647,-0.010120321065187454,"[0.0, 0.0, 0.0, 0.0]",-0.00491314334794879,-0.005138391628861427,0.0,0.00021119826124049723,-0.00021938617283012718,0.0,49401005,3,369992605,-1220636228,0,65535,65535,1,0,255,0,0,0,0,0,0,10,0,192,0,3,3
RAW_RPM,1,-0.0015339808305725455,49380,0.3941956162452698,-0.02687939442694187,0.10310152918100357,0.9128293395042419,0.0,0.012517238967120647,-0.010120321065187454,"[0.0, 0.0, 0.0, 0.0]",-0.00491314334794879,-0.005138391628861427,0.0,0.00021119826124049723,-0.00021938617283012718,0.0,49401005,3,369992605,-1220636228,0,65535,65535,1,0,255,0,0,0,0,0,0,10,0,192,0,3,3
RAW_RPM,2,0.4972686469554901,49380,0.3941956162452698,-0.02687939442694187,0.10310152918100357,0.9128293395042419,0.0,0.012517238967120647,-0.010120321065187454,"[0.0, 0.0, 0.0, 0.0]",-0.00491314334794879,-0.005138391628861427,0.0,0.00021119826124049723,-0.00021938617283012718,0.0,49401005,3,369992605,-1220636228,0,65535,65535,1,0,255,0,0,0,0,0,0,10,0,192,0,3,3
ATTITUDE_QUATERNION,2,0.4972686469554901,49431,0.3941921591758728,-0.026912063360214233,0.10340157896280289,0.9127959609031677,0.0007989727309904993,0.011451941914856434,-0.0007989727309904993,"[0.0, 0.0, 0.0, 0.0]",-0.00491314334794879,-0.005138391628861427,0.0,0.00021119826124049723,-0.00021938617283012718,0.0,49401005,3,369992605,-1220636228,0,65535,65535,1,0,255,0,0,0,0,0,0,10,0,192,0,3,3
LOCAL_POSITION_NED,2,0.4972686469554901,49431,0.3941921591758728,-0.026912063360214233,0.10340157896280289,0.9127959609031677,0.0007989727309904993,0.011451941914856434,-0.0007989727309904993,"[0.0, 0.0, 0.0, 0.0]",-0.004901436157524586,-0.005150544457137585,0.0,0.0001749377406667918,-0.00018166308291256428,0.0,49401005,3,369992605,-1220636228,0,65535,65535,1,0,255,0,0,0,0,0,0,10,0,192,0,3,3
RAW_RPM,0,0.0003834952076431364,49431,0.3941921591758728,-0.026912063360214233,0.10340157896280289,0.9127959609031677,0.0007989727309904993,0.011451941914856434,-0.0007989727309904993,"[0.0, 0.0, 0.0, 0.0]",-0.004901436157524586,-0.005150544457137585,0.0,0.0001749377406667918,-0.00018166308291256428,0.0,49401005,3,369992605,-1220636228,0,65535,65535,1,0,255,0,0,0,0,0,0,10,0,192,0,3,3
RAW_RPM,1,0.0,49431,0.3941921591758728,-0.026912063360214233,0.10340157896280289,0.9127959609031677,0.0007989727309904993,0.011451941914856434,-0.0007989727309904993,"[0.0, 0.0, 0.0, 0.0]",-0.004901436157524586,-0.005150544457137585,0.0,0.0001749377406667918,-0.00018166308291256428,0.0,49401005,3,369992605,-1220636228,0,65535,65535,1,0,255,0,0,0,0,0,0,10,0,192,0,3,3
RAW_RPM,2,0.49675092101097107,49431,0.3941921591758728,-0.026912063360214233,0.10340157896280289,0.9127959609031677,0.0007989727309904993,0.011451941914856434,-0.0007989727309904993,"[0.0, 0.0, 0.0, 0.0]",-0.004901436157524586,-0.005150544457137585,0.0,0.0001749377406667918,-0.00018166308291256428,0.0,49401005,3,369992605,-1220636228,0,65535,65535,1,0,255,0,0,0,0,0,0,10,0,192,0,3,3
ATTITUDE_QUATERNION,2,0.49675092101097107,49482,0.39409685134887695,-0.026971982792019844,0.10398805886507034,0.9127686619758606,0.002396918134763837,0.008788700215518475,-0.0010652969358488917,"[0.0, 0.0, 0.0, 0.0]",-0.004901436157524586,-0.005150544457137585,0.0,0.0001749377406667918,-0.00018166308291256428,0.0,49401005,3,369992605,-1220636228,0,65535,65535,1,0,255,0,0,0,0,0,0,10,0,192,0,3,3
LOCAL_POSITION_NED,2,0.49675092101097107,49483,0.39409685134887695,-0.026971982792019844,0.10398805886507034,0.9127686619758606,0.002396918134763837,0.008788700215518475,-0.0010652969358488917,"[0.0, 0.0, 0.0, 0.0]",-0.004881630185991526,-0.005171101074665785,0.0,0.0003020984586328268,-0.00031332470825873315,0.0,49401005,3,369992605,-1220636228,0,65535,65535,1,0,255,0,0,0,0,0,0,10,0,192,0,3,3
GPS_RAW_INT,2,0.49675092101097107,49483,0.39409685134887695,-0.026971982792019844,0.10398805886507034,0.9127686619758606,0.002396918134763837,0.008788700215518475,-0.0010652969358488917,"[0.0, 0.0, 0.0, 0.0]",-0.004881630185991526,-0.005171101074665785,0.0,0.0003020984586328268,-0.00031332470825873315,0.0,49502420,3,369992603,-1220636226,0,65535,65535,4,0,255,0,0,0,0,0,0,10,0,192,0,3,3
RAW_RPM,0,0.0,49483,0.39409685134887695,-0.026971982792019844,0.10398805886507034,0.9127686619758606,0.002396918134763837,0.008788700215518475,-0.0010652969358488917,"[0.0, 0.0, 0.0, 0.0]",-0.004881630185991526,-0.005171101074665785,0.0,0.0003020984586328268,-0.00031332470825873315,0.0,49502420,3,369992603,-1220636226,0,65535,65535,4,0,255,0,0,0,0,0,0,10,0,192,0,3,3
RAW_RPM,1,-0.0003834952076431364,49483,0.39409685134887695,-0.026971982792019844,0.10398805886507034,0.9127686619758606,0.002396918134763837,0.008788700215518475,-0.0010652969358488917,"[0.0, 0.0, 0.0, 0.0]",-0.004881630185991526,-0.005171101074665785,0.0,0.0003020984586328268,-0.00031332470825873315,0.0,49502420,3,369992603,-1220636226,0,65535,65535,4,0,255,0,0,0,0,0,0,10,0,192,0,3,3
RAW_RPM,2,0.4972686469554901,49483,0.39409685134887695,-0.026971982792019844,0.10398805886507034,0.9127686619758606,0.002396918134763837,0.008788700215518475,-0.0010652969358488917,"[0.0, 0.0, 0.0, 0.0]",-0.004881630185991526,-0.005171101074665785,0.0,0.0003020984586328268,-0.00031332470825873315,0.0,49502420,3,369992603,-1220636226,0,65535,65535,4,0,255,0,0,0,0,0,0,10,0,192,0,3,3
ATTITUDE_QUATERNION,2,0.4972686469554901,49533,0.3942655920982361,-0.027158688753843307,0.10372523963451385,0.9127201437950134,0.0,0.010652968659996986,-0.0069244299083948135,"[0.0, 0.0, 0.0, 0.0]",-0.004881630185991526,-0.005171101074665785,0.0,0.0003020984586328268,-0.00031332470825873315,0.0,49502420,3,369992603,-1220636226,0,65535,65535,4,0,255,0,0,0,0,0,0,10,0,192,0,3,3
LOCAL_POSITION_NED,2,0.4972686469554901,49533,0.3942655920982361,-0.027158688753843307,0.10372523963451385,0.9127201437950134,0.0,0.010652968659996986,-0.0069244299083948135,"[0.0, 0.0, 0.0, 0.0]",-0.004868408665060997,-0.005184818059206009,0.0,0.0002232520782854408,-0.0002317234466318041,0.0,49502420,3,369992603,-1220636226,0,65535,65535,4,0,255,0,0,0,0,0,0,10,0,192,0,3,3
RAW_RPM,0,0.0003834952076431364,49533,0.3942655920982361,-0.027158688753843307,0.10372523963451385,0.9127201437950134,0.0,0.010652968659996986,-0.0069244299083948135,"[0.0, 0.0, 0.0, 0.0]",-0.004868408665060997,-0.005184818059206009,0.0,0.0002232520782854408,-0.0002317234466318041,0.0,49502420,3,369992603,-1220636226,0,65535,65535,4,0,255,0,0,0,0,0,0,10,0,192,0,3,3
RAW_RPM,1,0.0019174760673195124,49533,0.3942655920982361,-0.027158688753843307,0.10372523963451385,0.9127201437950134,0.0,0.010652968659996986,-0.0069244299083948135,"[0.0, 0.0, 0.0, 0.0]",-0.004868408665060997,-0.005184818059206009,0.0,0.0002232520782854408,-0.0002317234466318041,0.0,49502420,3,369992603,-1220636226,0,65535,65535,4,0,255,0,0,0,0,0,0,10,0,192,0,3,3
RAW_RPM,2,0.4972686469554901,49533,0.3942655920982361,-0.027158688753843307,0.10372523963451385,0.9127201437950134,0.0,0.010652968659996986,-0.0069244299083948135,"[0.0, 0.0, 0.0, 0.0]",-0.004868408665060997,-0.005184818059206009,0.0,0.0002232520782854408,-0.0002317234466318041,0.0,49502420,3,369992603,-1220636226,0,65535,65535,4,0,255,0,0,0,0,0,0,10,0,192,0,3,3
ATTITUDE_QUATERNION,2,0.4972686469554901,49584,0.39442726969718933,-0.027279628440737724,0.10326961427927017,0.9126984477043152,-0.0005326484679244459,0.011451941914856434,-0.005326484329998493,"[0.0, 0.0, 0.0, 0.0]",-0.004868408665060997,-0.005184818059206009,0.0,0.0002232520782854408,-0.0002317234466318041,0.0,49502420,3,369992603,-1220636226,0,65535,65535,4,0,255,0,0,0,0,0,0,10,0,192,0,3,3
LOCAL_POSITION_NED,2,0.4972686469554901,49584,0.39442726969718933,-0.027279628440737724,0.10326961427927017,0.9126984477043152,-0.0005326484679244459,0.011451941914856434,-0.005326484329998493,"[0.0, 0.0, 0.0, 0.0]",-0.004852908663451672,-0.005200922954827547,0.0,0.0003255961346440017,-0.00033841357799246907,0.0,49502420,3,369992603,-1220636226,0,65535,65535,4,0,255,0,0,0,0,0,0,10,0,192,0,3,3
GPS_RAW_INT,2,0.4972686469554901,49584,0.39442726969718933,-0.027279628440737724,0.10326961427927017,0.9126984477043152,-0.0005326484679244459,0.011451941914856434,-0.005326484329998493,"[0.0, 0.0, 0.0, 0.0]",-0.004852908663451672,-0.005200922954827547,0.0,0.0003255961346440017,-0.00033841357799246907,0.0,49603006,3,369992605,-1220636228,0,65535,65535,4,0,255,0,0,0,0,0,0,10,0,192,0,3,3
RAW_RPM,0,0.0007669904152862728,49584,0.39442726969718933,-0.027279628440737724,0.10326961427927017,0.9126984477043152,-0.0005326484679244459,0.011451941914856434,-0.005326484329998493,"[0.0, 0.0, 0.0, 0.0]",-0.004852908663451672,-0.005200922954827547,0.0,0.0003255961346440017,-0.00033841357799246907,0.0,49603006,3,369992605,-1220636228,0,65535,65535,4,0,255,0,0,0,0,0,0,10,0,192,0,3,3
RAW_RPM,1,0.0015339808305725455,49584,0.39442726969718933,-0.027279628440737724,0.10326961427927017,0.9126984477043152,-0.0005326484679244459,0.011451941914856434,-0.005326484329998493,"[0.0, 0.0, 0.0, 0.0]",-0.004852908663451672,-0.005200922954827547,0.0,0.0003255961346440017,-0.00033841357799246907,0.0,49603006,3,369992605,-1220636228,0,65535,65535,4,0,255,0,0,0,0,0,0,10,0,192,0,3,3
RAW_RPM,2,0.4972686469554901,49584,0.39442726969718933,-0.027279628440737724,0.10326961427927017,0.9126984477043152,-0.0005326484679244459,0.011451941914856434,-0.005326484329998493,"[0.0, 0.0, 0.0, 0.0]",-0.004852908663451672,-0.005200922954827547,0.0,0.0003255961346440017,-0.00033841357799246907,0.0,49603006,3,369992605,-1220636228,0,65535,65535,4,0,255,0,0,0,0,0,0,10,0,192,0,3,3
ATTITUDE_QUATERNION,2,0.4972686469554901,49635,0.39476579427719116,-0.027703508734703064,0.10264739394187927,0.9126094579696655,0.00026632423396222293,0.012250914238393307,-0.005592809058725834,"[0.0, 0.0, 0.0, 0.0]",-0.004852908663451672,-0.005200922954827547,0.0,0.0003255961346440017,-0.00033841357799246907,0.0,49603006,3,369992605,-1220636228,0,65535,65535,4,0,255,0,0,0,0,0,0,10,0,192,0,3,3
LOCAL_POSITION_NED,2,0.4972686469554901,49635,0.39476579427719116,-0.027703508734703064,0.10264739394187927,0.9126094579696655,0.00026632423396222293,0.012250914238393307,-0.005592809058725834,"[0.0, 0.0, 0.0, 0.0]",-0.004838498774915934,-0.005215908400714397,0.0,0.00031937024323269725,-0.00033233544672839344,0.0,49603006,3,369992605,-1220636228,0,65535,65535,4,0,255,0,0,0,0,0,0,10,0,192,0,3,3
RAW_RPM,0,-0.0003834952076431364,49635,0.39476579427719116,-0.027703508734703064,0.10264739394187927,0.9126094579696655,0.00026632423396222293,0.012250914238393307,-0.005592809058725834,"[0.0, 0.0, 0.0, 0.0]",-0.004838498774915934,-0.005215908400714397,0.0,0.00031937024323269725,-0.00033233544672839344,0.0,49603006,3,369992605,-1220636228,0,65535,65535,4,0,255,0,0,0,0,0,0,10,0,192,0,3,3
RAW_RPM,1,0.0007669904152862728,49635,0.39476579427719116,-0.027703508734703064,0.10264739394187927,0.9126094579696655,0.00026632423396222293,0.012250914238393307,-0.005592809058725834,"[0.0, 0.0, 0.0, 0.0]",-0.004838498774915934,-0.005215908400714397,0.0,0.00031937024323269725,-0.00033233544672839344,0.0,49603006,3,369992605,-1220636228,0,65535,65535,4,0,255,0,0,0,0,0,0,10,0,192,0,3,3
RAW_RPM,2,0.4970097839832306,49635,0.39476579427719116,-0.027703508734703064,0.10264739394187927,0.9126094579696655,0.00026632423396222293,0.012250914238393307,-0.005592809058725834,"[0.0, 0.0, 0.0, 0.0]",-0.004838498774915934,-0.005215908400714397,0.0,0.00031937024323269725,-0.00033233544672839344,0.0,49603006,3,369992605,-1220636228,0,65535,65535,4,0,255,0,0,0,0,0,0,10,0,192,0,3,3
ATTITUDE_QUATERNION,2,0.4970097839832306,49686,0.3945399224758148,-0.027316279709339142,0.10273546725511551,0.9127089381217957,0.0034622149541974068,0.009321347810328007,0.0,"[0.0, 0.0, 0.0, 0.0]",-0.004838498774915934,-0.005215908400714397,0.0,0.00031937024323269725,-0.00033233544672839344,0.0,49603006,3,369992605,-1220636228,0,65535,65535,4,0,255,0,0,0,0,0,0,10,0,192,0,3,3
LOCAL_POSITION_NED,2,0.4970097839832306,49686,0.3945399224758148,-0.027316279709339142,0.10273546725511551,0.9127089381217957,0.0034622149541974068,0.009321347810328007,0.0,"[0.0, 0.0, 0.0, 0.0]",-0.00482475571334362,-0.005230216775089502,0.0,0.00027728622080758214,-0.000288613693555817,0.0,49603006,3,369992605,-1220636228,0,65535,65535,4,0,255,0,0,0,0,0,0,10,0,192,0,3,3
GPS_RAW_INT,2,0.4970097839832306,49686,0.3945399224758148,-0.027316279709339142,0.10273546725511551,0.9127089381217957,0.0034622149541974068,0.009321347810328007,0.0,"[0.0, 0.0, 0.0, 0.0]",-0.00482475571334362,-0.005230216775089502,0.0,0.00027728622080758214,-0.000288613693555817,0.0,49704006,3,369992603,-1220636228,0,65535,65535,0,0,255,0,0,0,0,0,0,10,0,192,0,3,3
RAW_RPM,0,0.0,49686,0.3945399224758148,-0.027316279709339142,0.10273546725511551,0.9127089381217957,0.0034622149541974068,0.009321347810328007,0.0,"[0.0, 0.0, 0.0, 0.0]",-0.00482475571334362,-0.005230216775089502,0.0,0.00027728622080758214,-0.000288613693555817,0.0,49704006,3,369992603,-1220636228,0,65535,65535,0,0,255,0,0,0,0,0,0,10,0,192,0,3,3
RAW_RPM,1,-0.0011504855938255787,49686,0.3945399224758148,-0.027316279709339142,0.10273546725511551,0.9127089381217957,0.0034622149541974068,0.009321347810328007,0.0,"[0.0, 0.0, 0.0, 0.0]",-0.00482475571334362,-0.005230216775089502,0.0,0.00027728622080758214,-0.000288613693555817,0.0,49704006,3,369992603,-1220636228,0,65535,65535,0,0,255,0,0,0,0,0,0,10,0,192,0,3,3
RAW_RPM,2,0.4970097839832306,49686,0.3945399224758148,-0.027316279709339142,0.10273546725511551,0.9127089381217957,0.0034622149541974068,0.009321347810328007,0.0,"[0.0, 0.0, 0.0, 0.0]",-0.00482475571334362,-0.005230216775089502,0.0,0.00027728622080758214,-0.000288613693555817,0.0,49704006,3,369992603,-1220636228,0,65535,65535,0,0,255,0,0,0,0,0,0,10,0,192,0,3,3
ATTITUDE_QUATERNION,2,0.4970097839832306,49737,0.3941439986228943,-0.02689034305512905,0.10302028059959412,0.9128605127334595,0.005592809058725834,0.009321347810328007,-0.00452751200646162,"[0.0, 0.0, 0.0, 0.0]",-0.00482475571334362,-0.005230216775089502,0.0,0.00027728622080758214,-0.000288613693555817,0.0,49704006,3,369992603,-1220636228,0,65535,65535,0,0,255,0,0,0,0,0,0,10,0,192,0,3,3
LOCAL_POSITION_NED,2,0.4970097839832306,49737,0.3941439986228943,-0.02689034305512905,0.10302028059959412,0.9128605127334595,0.005592809058725834,0.009321347810328007,-0.00452751200646162,"[0.0, 0.0, 0.0, 0.0]",-0.004811909515410662,-0.005243564024567604,0.0,0.00027760869124904275,-0.0002883035340346396,0.0,49704006,3,369992603,-1220636228,0,65535,65535,0,0,255,0,0,0,0,0,0,10,0,192,0,3,3
RAW_RPM,0,0.0007669904152862728,49737,0.3941439986228943,-0.02689034305512905,0.10302028059959412,0.9128605127334595,0.005592809058725834,0.009321347810328007,-0.00452751200646162,"[0.0, 0.0, 0.0, 0.0]",-0.004811909515410662,-0.005243564024567604,0.0,0.00027760869124904275,-0.0002883035340346396,0.0,49704006,3,369992603,-1220636228,0,65535,65535,0,0,255,0,0,0,0,0,0,10,0,192,0,3,3
RAW_RPM,1,-0.0007669904152862728,49737,0.3941439986228943,-0.02689034305512905,0.10302028059959412,0.9128605127334595,0.005592809058725834,0.009321347810328007,-0.00452751200646162,"[0.0, 0.0, 0.0, 0.0]",-0.004811909515410662,-0.005243564024567604,0.0,0.00027760869124904275,-0.0002883035340346396,0.0,49704006,3,369992603,-1220636228,0,65535,65535,0,0,255,0,0,0,0,0,0,10,0,192,0,3,3
RAW_RPM,2,0.49675092101097107,49737,0.3941439986228943,-0.02689034305512905,0.10302028059959412,0.9128605127334595,0.005592809058725834,0.009321347810328007,-0.00452751200646162,"[0.0, 0.0, 0.0, 0.0]",-0.004811909515410662,-0.005243564024567604,0.0,0.00027760869124904275,-0.0002883035340346396,0.0,49704006,3,369992603,-1220636228,0,65535,65535,0,0,255,0,0,0,0,0,0,10,0,192,0,3,3
ATTITUDE_QUATERNION,2,0.49675092101097107,49788,0.3938431441783905,-0.026504311710596085,0.1034732535481453,0.9129503965377808,0.0005326484679244459,0.012783563695847988,-0.0029295666608959436,"[0.0, 0.0, 0.0, 0.0]",-0.004811909515410662,-0.005243564024567604,0.0,0.00027760869124904275,-0.0002883035340346396,0.0,49704006,3,369992603,-1220636228,0,65535,65535,0,0,255,0,0,0,0,0,0,10,0,192,0,3,3
LOCAL_POSITION_NED,2,0.49675092101097107,49788,0.3938431441783905,-0.026504311710596085,0.1034732535481453,0.9129503965377808,0.0005326484679244459,0.012783563695847988,-0.0029295666608959436,"[0.0, 0.0, 0.0, 0.0]",-0.004796819295734167,-0.005259222816675901,0.0,0.00026590836932882667,-0.00027566624339669943,0.0,49704006,3,369992603,-1220636228,0,65535,65535,0,0,255,0,0,0,0,0,0,10,0,192,0,3,3
GPS_RAW_INT,2,0.49675092101097107,49788,0.3938431441783905,-0.026504311710596085,0.1034732535481453,0.9129503965377808,0.0005326484679244459,0.012783563695847988,-0.0029295666608959436,"[0.0, 0.0, 0.0, 0.0]",-0.004796819295734167,-0.005259222816675901,0.0,0.00026590836932882667,-0.00027566624339669943,0.0,49805004,3,369992603,-1220636228,0,65535,65535,2,0,255,0,0,0,0,0,0,10,0,192,0,3,3
RAW_RPM,0,-0.0007669904152862728,49788,0.3938431441783905,-0.026504311710596085,0.1034732535481453,0.9129503965377808,0.0005326484679244459,0.012783563695847988,-0.0029295666608959436,"[0.0, 0.0, 0.0, 0.0]",-0.004796819295734167,-0.005259222816675901,0.0,0.00026590836932882667,-0.00027566624339669943,0.0,49805004,3,369992603,-1220636228,0,65535,65535,2,0,255,0,0,0,0,0,0,10,0,192,0,3,3
RAW_RPM,1,-0.0003834952076431364,49788,0.3938431441783905,-0.026504311710596085,0.1034732535481453,0.9129503965377808,0.0005326484679244459,0.012783563695847988,-0.0029295666608959436,"[0.0, 0.0, 0.0, 0.0]",-0.004796819295734167,-0.005259222816675901,0.0,0.00026590836932882667,-0.00027566624339669943,0.0,49805004,3,369992603,-1220636228,0,65535,65535,2,0,255,0,0,0,0,0,0,10,0,192,0,3,3
RAW_RPM,2,0.4972686469554901,49788,0.3938431441783905,-0.026504311710596085,0.1034732535481453,0.9129503965377808,0.0005326484679244459,0.012783563695847988,-0.0029295666608959436,"[0.0, 0.0, 0.0, 0.0]",-0.004796819295734167,-0.005259222816675901,0.0,0.00026590836932882667,-0.00027566624339669943,0.0,49805004,3,369992603,-1220636228,0,65535,65535,2,0,255,0,0,0,0,0,0,10,0,192,0,3,3
ATTITUDE_QUATERNION,2,0.4972686469554901,49839,0.3935486376285553,-0.026289718225598335,0.10385371744632721,0.9130404591560364,0.001864269725047052,0.013316212221980095,-0.003195890923961997,"[0.0, 0.0, 0.0, 0.0]",-0.004796819295734167,-0.005259222816675901,0.0,0.00026590836932882667,-0.00027566624339669943,0.0,49805004,3,369992603,-1220636228,0,65535,65535,2,0,255,0,0,0,0,0,0,10,0,192,0,3,3
LOCAL_POSITION_NED,2,0.4972686469554901,49839,0.3935486376285553,-0.026289718225598335,0.10385371744632721,0.9130404591560364,0.001864269725047052,0.013316212221980095,-0.003195890923961997,"[0.0, 0.0, 0.0, 0.0]",-0.004782143514603376,-0.005274426192045212,0.0,0.00025972240837290883,-0.0002690424444153905,0.0,49805004,3,369992603,-1220636228,0,65535,65535,2,0,255,0,0,0,0,0,0,10,0,192,0,3,3
RAW_RPM,0,-0.0011504855938255787,49839,0.3935486376285553,-0.026289718225598335,0.10385371744632721,0.9130404591560364,0.001864269725047052,0.013316212221980095,-0.003195890923961997,"[0.0, 0.0, 0.0, 0.0]",-0.004782143514603376,-0.005274426192045212,0.0,0.00025972240837290883,-0.0002690424444153905,0.0,49805004,3,369992603,-1220636228,0,65535,65535,2,0,255,0,0,0,0,0,0,10,0,192,0,3,3
RAW_RPM,1,-0.0007669904152862728,49839,0.3935486376285553,-0.026289718225598335,0.10385371744632721,0.9130404591560364,0.001864269725047052,0.013316212221980095,-0.003195890923961997,"[0.0, 0.0, 0.0, 0.0]",-0.004782143514603376,-0.005274426192045212,0.0,0.00025972240837290883,-0.0002690424444153905,0.0,49805004,3,369992603,-1220636228,0,65535,65535,2,0,255,0,0,0,0,0,0,10,0,192,0,3,3
RAW_RPM,2,0.4970097839832306,49839,0.3935486376285553,-0.026289718225598335,0.10385371744632721,0.9130404591560364,0.001864269725047052,0.013316212221980095,-0.003195890923961997,"[0.0, 0.0, 0.0, 0.0]",-0.004782143514603376,-0.005274426192045212,0.0,0.00025972240837290883,-0.0002690424444153905,0.0,49805004,3,369992603,-1220636228,0,65535,65535,2,0,255,0,0,0,0,0,0,10,0,192,0,3,3
ATTITUDE_QUATERNION,2,0.4970097839832306,49890,0.3936944305896759,-0.026442106813192368,0.10330483317375183,0.9130354523658752,0.0,0.010120321065187454,-0.007190754171460867,"[0.0, 0.0, 0.0, 0.0]",-0.004782143514603376,-0.005274426192045212,0.0,0.00025972240837290883,-0.0002690424444153905,0.0,49805004,3,369992603,-1220636228,0,65535,65535,2,0,255,0,0,0,0,0,0,10,0,192,0,3,3
LOCAL_POSITION_NED,2,0.4970097839832306,49890,0.3936944305896759,-0.026442106813192368,0.10330483317375183,0.9130354523658752,0.0,0.010120321065187454,-0.007190754171460867,"[0.0, 0.0, 0.0, 0.0]",-0.004766128957271576,-0.005291004665195942,0.0,0.0002840642409864813,-0.0002941654238384217,0.0,49805004,3,369992603,-1220636228,0,65535,65535,2,0,255,0,0,0,0,0,0,10,0,192,0,3,3
GPS_RAW_INT,2,0.4970097839832306,49890,0.3936944305896759,-0.026442106813192368,0.10330483317375183,0.9130354523658752,0.0,0.010120321065187454,-0.007190754171460867,"[0.0, 0.0, 0.0, 0.0]",-0.004766128957271576,-0.005291004665195942,0.0,0.0002840642409864813,-0.0002941654238384217,0.0,49906006,3,369992603,-1220636226,0,65535,65535,2,0,255,0,0,0,0,0,0,10,0,192,0,3,3
RAW_RPM,0,-0.0003834952076431364,49890,0.3936944305896759,-0.026442106813192368,0.10330483317375183,0.9130354523658752,0.0,0.010120321065187454,-0.007190754171460867,"[0.0, 0.0, 0.0, 0.0]",-0.004766128957271576,-0.005291004665195942,0.0,0.0002840642409864813,-0.0002941654238384217,0.0,49906006,3,369992603,-1220636226,0,65535,65535,2,0,255,0,0,0,0,0,0,10,0,192,0,3,3
RAW_RPM,1,-0.0007669904152862728,49890,0.3936944305896759,-0.026442106813192368,0.10330483317375183,0.9130354523658752,0.0,0.010120321065187454,-0.007190754171460867,"[0.0, 0.0, 0.0, 0.0]",-0.004766128957271576,-0.005291004665195942,0.0,0.0002840642409864813,-0.0002941654238384217,0.0,49906006,3,369992603,-1220636226,0,65535,65535,2,0,255,0,0,0,0,0,0,10,0,192,0,3,3
RAW_RPM,2,0.4970097839832306,49890,0.3936944305896759,-0.026442106813192368,0.10330483317375183,0.9130354523658752,0.0,0.010120321065187454,-0.007190754171460867,"[0.0, 0.0, 0.0, 0.0]",-0.004766128957271576,-0.005291004665195942,0.0,0.0002840642409864813,-0.0002941654238384217,0.0,49906006,3,369992603,-1220636226,0,65535,65535,2,0,255,0,0,0,0,0,0,10,0,192,0,3,3
ATTITUDE_QUATERNION,2,0.4970097839832306,49941,0.3945285975933075,-0.027707982808351517,0.10334157943725586,0.9126335978507996,0.0029295666608959436,0.013316212221980095,-0.005060160532593727,"[0.0, 0.0, 0.0, 0.0]",-0.004766128957271576,-0.005291004665195942,0.0,0.0002840642409864813,-0.0002941654238384217,0.0,49906006,3,369992603,-1220636226,0,65535,65535,2,0,255,0,0,0,0,0,0,10,0,192,0,3,3
LOCAL_POSITION_NED,2,0.4970097839832306,49941,0.3945285975933075,-0.027707982808351517,0.10334157943725586,0.9126335978507996,0.0029295666608959436,0.013316212221980095,-0.005060160532593727,"[0.0, 0.0, 0.0, 0.0]",-0.004750610329210758,-0.005307099781930447,0.0,0.0003137975581921637,-0.0003259285294916481,0.0,49906006,3,369992603,-1220636226,0,65535,65535,2,0,255,0,0,0,0,0,0,10,0,192,0,3,3
RAW_RPM,0,-0.0003834952076431364,49941,0.3945285975933075,-0.027707982808351517,0.10334157943725586,0.9126335978507996,0.0029295666608959436,0.013316212221980095,-0.005060160532593727,"[0.0, 0.0, 0.0, 0.0]",-0.004750610329210758,-0.005307099781930447,0.0,0.0003137975581921637,-0.0003259285294916481,0.0,49906006,3,369992603,-1220636226,0,65535,65535,2,0,255,0,0,0,0,0,0,10,0,192,0,3,3
RAW_RPM,1,0.0015339808305725455,49941,0.3945285975933075,-0.027707982808351517,0.10334157943725586,0.9126335978507996,0.0029295666608959436,0.013316212221980095,-0.005060160532593727,"[0.0, 0.0, 0.0, 0.0]",-0.004750610329210758,-0.005307099781930447,0.0,0.0003137975581921637,-0.0003259285294916481,0.0,49906006,3,369992603,-1220636226,0,65535,65535,2,0,255,0,0,0,0,0,0,10,0,192,0,3,3
RAW_RPM,2,0.4970097839832306,49941,0.3945285975933075,-0.027707982808351517,0.10334157943725586,0.9126335978507996,0.0029295666608959436,0.013316212221980095,-0.005060160532593727,"[0.0, 0.0, 0.0, 0.0]",-0.004750610329210758,-0.005307099781930447,0.0,0.0003137975581921637,-0.0003259285294916481,0.0,49906006,3,369992603,-1220636226,0,65535,65535,2,0,255,0,0,0,0,0,0,10,0,192,0,3,3
ATTITUDE_QUATERNION,2,0.4970097839832306,49992,0.39469364285469055,-0.02786659635603428,0.10354173183441162,0.9125347137451172,0.0013316210824996233,0.011185618117451668,-0.0069244299083948135,"[0.0, 0.0, 0.0, 0.0]",-0.004750610329210758,-0.005307099781930447,0.0,0.0003137975581921637,-0.0003259285294916481,0.0,49906006,3,369992603,-1220636226,0,65535,65535,2,0,255,0,0,0,0,0,0,10,0,192,0,3,3
LOCAL_POSITION_NED,2,0.4970097839832306,49993,0.39469364285469055,-0.02786659635603428,0.10354173183441162,0.9125347137451172,0.0013316210824996233,0.011185618117451668,-0.0069244299083948135,"[0.0, 0.0, 0.0, 0.0]",-0.00472951540723443,-0.005329039879143238,0.0,0.0003256350173614919,-0.0003386871248949319,0.0,49906006,3,369992603,-1220636226,0,65535,65535,2,0,255,0,0,0,0,0,0,10,0,192,0,3,3
GPS_RAW_INT,2,0.4970097839832306,49993,0.39469364285469055,-0.02786659635603428,0.10354173183441162,0.9125347137451172,0.0013316210824996233,0.011185618117451668,-0.0069244299083948135,"[0.0, 0.0, 0.0, 0.0]",-0.00472951540723443,-0.005329039879143238,0.0,0.0003256350173614919,-0.0003386871248949319,0.0,50007004,3,369992601,-1220636226,0,65535,65535,1,0,255,0,0,0,0,0,0,10,0,192,0,3,3
