mavpackettype,index,frequency,time_boot_ms,q1,q2,q3,q4,rollspeed,pitchspeed,yawspeed,repr_offset_q,x,y,z,vx,vy,vz,time_usec,fix_type,lat,lon,alt,eph,epv,vel,cog,satellites_visible,alt_ellipsoid,h_acc,v_acc,vel_acc,hdg_acc,yaw,type,autopilot,base_mode,custom_mode,system_status,mavlink_version,data
RAW_RPM,1,0.30602917075157166,49942,0.8467759490013123,-0.15412943065166473,0.057063765823841095,0.5059232115745544,0.015180480666458607,-0.12730298936367035,-2.238455295562744,"[0.0, 0.0, 0.0, 0.0]",0.03426231071352959,0.088267020881176,0.0,0.2721883952617645,0.4964418113231659,0.0,49907006,3,369991026,-1220635001,0,65535,65535,27,0,255,0,0,0,0,0,0,10,0,192,0,3,3,"array('B', [253, 30, 0, 0, 214, 1, 0, 1, 24, 0, 0, 13, 83, 92, 2, 0, 0, 0, 0, 86, 157, 13, 22, 131, 150, 62, 183, 0, 0, 0, 0, 255, 255, 255, 255, 4, 0, 0, 0, 3, 255, 88])"
RAW_RPM,2,-0.3416942358016968,49942,0.8467759490013123,-0.15412943065166473,0.057063765823841095,0.5059232115745544,0.015180480666458607,-0.12730298936367035,-2.238455295562744,"[0.0, 0.0, 0.0, 0.0]",0.03426231071352959,0.088267020881176,0.0,0.2721883952617645,0.4964418113231659,0.0,49907006,3,369991026,-1220635001,0,65535,65535,27,0,255,0,0,0,0,0,0,10,0,192,0,3,3,"array('B', [253, 30, 0, 0, 214, 1, 0, 1, 24, 0, 0, 13, 83, 92, 2, 0, 0, 0, 0, 86, 157, 13, 22, 131, 150, 62, 183, 0, 0, 0, 0, 255, 255, 255, 255, 4, 0, 0, 0, 3, 255, 88])"
ATTITUDE_QUATERNION,2,-0.3416942358016968,49993,0.8748554587364197,-0.16202233731746674,0.05728524923324585,0.45287442207336426,0.12144384533166885,0.13982021808624268,-1.7191228866577148,"[0.0, 0.0, 0.0, 0.0]",0.03426231071352959,0.088267020881176,0.0,0.2721883952617645,0.4964418113231659,0.0,49907006,3,369991026,-1220635001,0,65535,65535,27,0,255,0,0,0,0,0,0,10,0,192,0,3,3,"array('B', [253, 30, 0, 0, 214, 1, 0, 1, 24, 0, 0, 13, 83, 92, 2, 0, 0, 0, 0, 86, 157, 13, 22, 131, 150, 62, 183, 0, 0, 0, 0, 255, 255, 255, 255, 4, 0, 0, 0, 3, 255, 88])"
LOCAL_POSITION_NED,2,-0.3416942358016968,49994,0.8748554587364197,-0.16202233731746674,0.05728524923324585,0.45287442207336426,0.12144384533166885,0.13982021808624268,-1.7191228866577148,"[0.0, 0.0, 0.0, 0.0]",0.05543357506394386,0.1205088198184967,0.0,0.41233137249946594,0.5618816018104553,0.0,49907006,3,369991026,-1220635001,0,65535,65535,27,0,255,0,0,0,0,0,0,10,0,192,0,3,3,"array('B', [253, 30, 0, 0, 214, 1, 0, 1, 24, 0, 0, 13, 83, 92, 2, 0, 0, 0, 0, 86, 157, 13, 22, 131, 150, 62, 183, 0, 0, 0, 0, 255, 255, 255, 255, 4, 0, 0, 0, 3, 255, 88])"
GPS_RAW_INT,2,-0.3416942358016968,49994,0.8748554587364197,-0.16202233731746674,0.05728524923324585,0.45287442207336426,0.12144384533166885,0.13982021808624268,-1.7191228866577148,"[0.0, 0.0, 0.0, 0.0]",0.05543357506394386,0.1205088198184967,0.0,0.41233137249946594,0.5618816018104553,0.0,50008003,3,369991036,-1220635000,0,65535,65535,48,29748,255,0,0,0,0,0,0,10,0,192,0,3,3,"array('B', [253, 30, 0, 0, 214, 1, 0, 1, 24, 0, 0, 13, 83, 92, 2, 0, 0, 0, 0, 86, 157, 13, 22, 131, 150, 62, 183, 0, 0, 0, 0, 255, 255, 255, 255, 4, 0, 0, 0, 3, 255, 88])"
HEARTBEAT,2,-0.3416942358016968,49994,0.8748554587364197,-0.16202233731746674,0.05728524923324585,0.45287442207336426,0.12144384533166885,0.13982021808624268,-1.7191228866577148,"[0.0, 0.0, 0.0, 0.0]",0.05543357506394386,0.1205088198184967,0.0,0.41233137249946594,0.5618816018104553,0.0,50008003,3,369991036,-1220635000,0,65535,65535,48,29748,255,0,0,0,0,0,0,10,0,192,0,3,3,"array('B', [253, 30, 0, 0, 214, 1, 0, 1, 24, 0, 0, 13, 83, 92, 2, 0, 0, 0, 0, 86, 157, 13, 22, 131, 150, 62, 183, 0, 0, 0, 0, 255, 255, 255, 255, 4, 0, 0, 0, 3, 255, 88])"
RAW_RPM,0,0.006902913562953472,49994,0.8748554587364197,-0.16202233731746674,0.05728524923324585,0.45287442207336426,0.12144384533166885,0.13982021808624268,-1.7191228866577148,"[0.0, 0.0, 0.0, 0.0]",0.05543357506394386,0.1205088198184967,0.0,0.41233137249946594,0.5618816018104553,0.0,50008003,3,369991036,-1220635000,0,65535,65535,48,29748,255,0,0,0,0,0,0,10,0,192,0,3,3,"array('B', [253, 30, 0, 0, 214, 1, 0, 1, 24, 0, 0, 13, 83, 92, 2, 0, 0, 0, 0, 86, 157, 13, 22, 131, 150, 62, 183, 0, 0, 0, 0, 255, 255, 255, 255, 4, 0, 0, 0, 3, 255, 88])"
RAW_RPM,1,0.2208932340145111,49994,0.8748554587364197,-0.16202233731746674,0.05728524923324585,0.45287442207336426,0.12144384533166885,0.13982021808624268,-1.7191228866577148,"[0.0, 0.0, 0.0, 0.0]",0.05543357506394386,0.1205088198184967,0.0,0.41233137249946594,0.5618816018104553,0.0,50008003,3,369991036,-1220635000,0,65535,65535,48,29748,255,0,0,0,0,0,0,10,0,192,0,3,3,"array('B', [253, 30, 0, 0, 214, 1, 0, 1, 24, 0, 0, 13, 83, 92, 2, 0, 0, 0, 0, 86, 157, 13, 22, 131, 150, 62, 183, 0, 0, 0, 0, 255, 255, 255, 255, 4, 0, 0, 0, 3, 255, 88])"
RAW_RPM,2,-0.2609301507472992,49994,0.8748554587364197,-0.16202233731746674,0.05728524923324585,0.45287442207336426,0.12144384533166885,0.13982021808624268,-1.7191228866577148,"[0.0, 0.0, 0.0, 0.0]",0.05543357506394386,0.1205088198184967,0.0,0.41233137249946594,0.5618816018104553,0.0,50008003,3,369991036,-1220635000,0,65535,65535,48,29748,255,0,0,0,0,0,0,10,0,192,0,3,3,"array('B', [253, 30, 0, 0, 214, 1, 0, 1, 24, 0, 0, 13, 83, 92, 2, 0, 0, 0, 0, 86, 157, 13, 22, 131, 150, 62, 183, 0, 0, 0, 0, 255, 255, 255, 255, 4, 0, 0, 0, 3, 255, 88])"
ATTITUDE_QUATERNION,2,-0.2609301507472992,50044,0.8942457437515259,-0.15441001951694489,0.04339632764458656,0.4178504943847656,0.17497502267360687,0.13449373841285706,-1.2128405570983887,"[0.0, 0.0, 0.0, 0.0]",0.05543357506394386,0.1205088198184967,0.0,0.41233137249946594,0.5618816018104553,0.0,50008003,3,369991036,-1220635000,0,65535,65535,48,29748,255,0,0,0,0,0,0,10,0,192,0,3,3,"array('B', [253, 30, 0, 0, 214, 1, 0, 1, 24, 0, 0, 13, 83, 92, 2, 0, 0, 0, 0, 86, 157, 13, 22, 131, 150, 62, 183, 0, 0, 0, 0, 255, 255, 255, 255, 4, 0, 0, 0, 3, 255, 88])"
LOCAL_POSITION_NED,2,-0.2609301507472992,50044,0.8942457437515259,-0.15441001951694489,0.04339632764458656,0.4178504943847656,0.17497502267360687,0.13449373841285706,-1.2128405570983887,"[0.0, 0.0, 0.0, 0.0]",0.07865626364946365,0.1488618105649948,0.0,0.48430630564689636,0.5566814541816711,0.0,50008003,3,369991036,-1220635000,0,65535,65535,48,29748,255,0,0,0,0,0,0,10,0,192,0,3,3,"array('B', [253, 30, 0, 0, 214, 1, 0, 1, 24, 0, 0, 13, 83, 92, 2, 0, 0, 0, 0, 86, 157, 13, 22, 131, 150, 62, 183, 0, 0, 0, 0, 255, 255, 255, 255, 4, 0, 0, 0, 3, 255, 88])"
RAW_RPM,0,0.07938350737094879,50044,0.8942457437515259,-0.15441001951694489,0.04339632764458656,0.4178504943847656,0.17497502267360687,0.13449373841285706,-1.2128405570983887,"[0.0, 0.0, 0.0, 0.0]",0.07865626364946365,0.1488618105649948,0.0,0.48430630564689636,0.5566814541816711,0.0,50008003,3,369991036,-1220635000,0,65535,65535,48,29748,255,0,0,0,0,0,0,10,0,192,0,3,3,"array('B', [253, 30, 0, 0, 214, 1, 0, 1, 24, 0, 0, 13, 83, 92, 2, 0, 0, 0, 0, 86, 157, 13, 22, 131, 150, 62, 183, 0, 0, 0, 0, 255, 255, 255, 255, 4, 0, 0, 0, 3, 255, 88])"
RAW_RPM,1,0.18676216900348663,50044,0.8942457437515259,-0.15441001951694489,0.04339632764458656,0.4178504943847656,0.17497502267360687,0.13449373841285706,-1.2128405570983887,"[0.0, 0.0, 0.0, 0.0]",0.07865626364946365,0.1488618105649948,0.0,0.48430630564689636,0.5566814541816711,0.0,50008003,3,369991036,-1220635000,0,65535,65535,48,29748,255,0,0,0,0,0,0,10,0,192,0,3,3,"array('B', [253, 30, 0, 0, 214, 1, 0, 1, 24, 0, 0, 13, 83, 92, 2, 0, 0, 0, 0, 86, 157, 13, 22, 131, 150, 62, 183, 0, 0, 0, 0, 255, 255, 255, 255, 4, 0, 0, 0, 3, 255, 88])"
RAW_RPM,2,-0.1866375356912613,50044,0.8942457437515259,-0.15441001951694489,0.04339632764458656,0.4178504943847656,0.17497502267360687,0.13449373841285706,-1.2128405570983887,"[0.0, 0.0, 0.0, 0.0]",0.07865626364946365,0.1488618105649948,0.0,0.48430630564689636,0.5566814541816711,0.0,50008003,3,369991036,-1220635000,0,65535,65535,48,29748,255,0,0,0,0,0,0,10,0,192,0,3,3,"array('B', [253, 30, 0, 0, 214, 1, 0, 1, 24, 0, 0, 13, 83, 92, 2, 0, 0, 0, 0, 86, 157, 13, 22, 131, 150, 62, 183, 0, 0, 0, 0, 255, 255, 255, 255, 4, 0, 0, 0, 3, 255, 88])"
ATTITUDE_QUATERNION,2,-0.1866375356912613,50095,0.9067058563232422,-0.1504310965538025,0.03507710248231888,0.39245980978012085,0.23090310394763947,0.07403813302516937,-0.660217821598053,"[0.0, 0.0, 0.0, 0.0]",0.07865626364946365,0.1488618105649948,0.0,0.48430630564689636,0.5566814541816711,0.0,50008003,3,369991036,-1220635000,0,65535,65535,48,29748,255,0,0,0,0,0,0,10,0,192,0,3,3,"array('B', [253, 30, 0, 0, 214, 1, 0, 1, 24, 0, 0, 13, 83, 92, 2, 0, 0, 0, 0, 86, 157, 13, 22, 131, 150, 62, 183, 0, 0, 0, 0, 255, 255, 255, 255, 4, 0, 0, 0, 3, 255, 88])"
LOCAL_POSITION_NED,2,-0.1866375356912613,50095,0.9067058563232422,-0.1504310965538025,0.03507710248231888,0.39245980978012085,0.23090310394763947,0.07403813302516937,-0.660217821598053,"[0.0, 0.0, 0.0, 0.0]",0.10301521420478821,0.17506158351898193,0.0,0.4877481460571289,0.5045148134231567,0.0,50008003,3,369991036,-1220635000,0,65535,65535,48,29748,255,0,0,0,0,0,0,10,0,192,0,3,3,"array('B', [253, 30, 0, 0, 214, 1, 0, 1, 24, 0, 0, 13, 83, 92, 2, 0, 0, 0, 0, 86, 157, 13, 22, 131, 150, 62, 183, 0, 0, 0, 0, 255, 255, 255, 255, 4, 0, 0, 0, 3, 255, 88])"
GPS_RAW_INT,2,-0.1866375356912613,50095,0.9067058563232422,-0.1504310965538025,0.03507710248231888,0.39245980978012085,0.23090310394763947,0.07403813302516937,-0.660217821598053,"[0.0, 0.0, 0.0, 0.0]",0.10301521420478821,0.17506158351898193,0.0,0.4877481460571289,0.5045148134231567,0.0,50109006,3,369991050,-1220634995,0,65535,65535,65,34767,255,0,0,0,0,0,0,10,0,192,0,3,3,"array('B', [253, 30, 0, 0, 214, 1, 0, 1, 24, 0, 0, 13, 83, 92, 2, 0, 0, 0, 0, 86, 157, 13, 22, 131, 150, 62, 183, 0, 0, 0, 0, 255, 255, 255, 255, 4, 0, 0, 0, 3, 255, 88])"
RAW_RPM,0,0.29260683059692383,50095,0.9067058563232422,-0.1504310965538025,0.03507710248231888,0.39245980978012085,0.23090310394763947,0.07403813302516937,-0.660217821598053,"[0.0, 0.0, 0.0, 0.0]",0.10301521420478821,0.17506158351898193,0.0,0.4877481460571289,0.5045148134231567,0.0,50109006,3,369991050,-1220634995,0,65535,65535,65,34767,255,0,0,0,0,0,0,10,0,192,0,3,3,"array('B', [253, 30, 0, 0, 214, 1, 0, 1, 24, 0, 0, 13, 83, 92, 2, 0, 0, 0, 0, 86, 157, 13, 22, 131, 150, 62, 183, 0, 0, 0, 0, 255, 255, 255, 255, 4, 0, 0, 0, 3, 255, 88])"
RAW_RPM,1,0.24505344033241272,50095,0.9067058563232422,-0.1504310965538025,0.03507710248231888,0.39245980978012085,0.23090310394763947,0.07403813302516937,-0.660217821598053,"[0.0, 0.0, 0.0, 0.0]",0.10301521420478821,0.17506158351898193,0.0,0.4877481460571289,0.5045148134231567,0.0,50109006,3,369991050,-1220634995,0,65535,65535,65,34767,255,0,0,0,0,0,0,10,0,192,0,3,3,"array('B', [253, 30, 0, 0, 214, 1, 0, 1, 24, 0, 0, 13, 83, 92, 2, 0, 0, 0, 0, 86, 157, 13, 22, 131, 150, 62, 183, 0, 0, 0, 0, 255, 255, 255, 255, 4, 0, 0, 0, 3, 255, 88])"
RAW_RPM,2,-0.12968850135803223,50095,0.9067058563232422,-0.1504310965538025,0.03507710248231888,0.39245980978012085,0.23090310394763947,0.07403813302516937,-0.660217821598053,"[0.0, 0.0, 0.0, 0.0]",0.10301521420478821,0.17506158351898193,0.0,0.4877481460571289,0.5045148134231567,0.0,50109006,3,369991050,-1220634995,0,65535,65535,65,34767,255,0,0,0,0,0,0,10,0,192,0,3,3,"array('B', [253, 30, 0, 0, 214, 1, 0, 1, 24, 0, 0, 13, 83, 92, 2, 0, 0, 0, 0, 86, 157, 13, 22, 131, 150, 62, 183, 0, 0, 0, 0, 255, 255, 255, 255, 4, 0, 0, 0, 3, 255, 88])"
ATTITUDE_QUATERNION,2,-0.12968850135803223,50146,0.917288601398468,-0.13232964277267456,0.02042255364358425,0.37503787875175476,0.14301611483097076,-0.08229418843984604,-0.644238293170929,"[0.0, 0.0, 0.0, 0.0]",0.10301521420478821,0.17506158351898193,0.0,0.4877481460571289,0.5045148134231567,0.0,50109006,3,369991050,-1220634995,0,65535,65535,65,34767,255,0,0,0,0,0,0,10,0,192,0,3,3,"array('B', [253, 30, 0, 0, 214, 1, 0, 1, 24, 0, 0, 13, 83, 92, 2, 0, 0, 0, 0, 86, 157, 13, 22, 131, 150, 62, 183, 0, 0, 0, 0, 255, 255, 255, 255, 4, 0, 0, 0, 3, 255, 88])"
LOCAL_POSITION_NED,2,-0.12968850135803223,50146,0.917288601398468,-0.13232964277267456,0.02042255364358425,0.37503787875175476,0.14301611483097076,-0.08229418843984604,-0.644238293170929,"[0.0, 0.0, 0.0, 0.0]",0.12846951186656952,0.20001207292079926,0.0,0.5318295955657959,0.5061428546905518,0.0,50109006,3,369991050,-1220634995,0,65535,65535,65,34767,255,0,0,0,0,0,0,10,0,192,0,3,3,"array('B', [253, 30, 0, 0, 214, 1, 0, 1, 24, 0, 0, 13, 83, 92, 2, 0, 0, 0, 0, 86, 157, 13, 22, 131, 150, 62, 183, 0, 0, 0, 0, 255, 255, 255, 255, 4, 0, 0, 0, 3, 255, 88])"
RAW_RPM,0,0.1902136206626892,50146,0.917288601398468,-0.13232964277267456,0.02042255364358425,0.37503787875175476,0.14301611483097076,-0.08229418843984604,-0.644238293170929,"[0.0, 0.0, 0.0, 0.0]",0.12846951186656952,0.20001207292079926,0.0,0.5318295955657959,0.5061428546905518,0.0,50109006,3,369991050,-1220634995,0,65535,65535,65,34767,255,0,0,0,0,0,0,10,0,192,0,3,3,"array('B', [253, 30, 0, 0, 214, 1, 0, 1, 24, 0, 0, 13, 83, 92, 2, 0, 0, 0, 0, 86, 157, 13, 22, 131, 150, 62, 183, 0, 0, 0, 0, 255, 255, 255, 255, 4, 0, 0, 0, 3, 255, 88])"
RAW_RPM,1,0.17180585861206055,50146,0.917288601398468,-0.13232964277267456,0.02042255364358425,0.37503787875175476,0.14301611483097076,-0.08229418843984604,-0.644238293170929,"[0.0, 0.0, 0.0, 0.0]",0.12846951186656952,0.20001207292079926,0.0,0.5318295955657959,0.5061428546905518,0.0,50109006,3,369991050,-1220634995,0,65535,65535,65,34767,255,0,0,0,0,0,0,10,0,192,0,3,3,"array('B', [253, 30, 0, 0, 214, 1, 0, 1, 24, 0, 0, 13, 83, 92, 2, 0, 0, 0, 0, 86, 157, 13, 22, 131, 150, 62, 183, 0, 0, 0, 0, 255, 255, 255, 255, 4, 0, 0, 0, 3, 255, 88])"
RAW_RPM,2,-0.07015085965394974,50146,0.917288601398468,-0.13232964277267456,0.02042255364358425,0.37503787875175476,0.14301611483097076,-0.08229418843984604,-0.644238293170929,"[0.0, 0.0, 0.0, 0.0]",0.12846951186656952,0.20001207292079926,0.0,0.5318295955657959,0.5061428546905518,0.0,50109006,3,369991050,-1220634995,0,65535,65535,65,34767,255,0,0,0,0,0,0,10,0,192,0,3,3,"array('B', [253, 30, 0, 0, 214, 1, 0, 1, 24, 0, 0, 13, 83, 92, 2, 0, 0, 0, 0, 86, 157, 13, 22, 131, 150, 62, 183, 0, 0, 0, 0, 255, 255, 255, 255, 4, 0, 0, 0, 3, 255, 88])"
ATTITUDE_QUATERNION,2,-0.07015085965394974,50197,0.9254282712936401,-0.11239573359489441,0.015596115961670876,0.36153367161750793,-0.11931326240301132,0.11105720698833466,-0.277509868144989,"[0.0, 0.0, 0.0, 0.0]",0.12846951186656952,0.20001207292079926,0.0,0.5318295955657959,0.5061428546905518,0.0,50109006,3,369991050,-1220634995,0,65535,65535,65,34767,255,0,0,0,0,0,0,10,0,192,0,3,3,"array('B', [253, 30, 0, 0, 214, 1, 0, 1, 24, 0, 0, 13, 83, 92, 2, 0, 0, 0, 0, 86, 157, 13, 22, 131, 150, 62, 183, 0, 0, 0, 0, 255, 255, 255, 255, 4, 0, 0, 0, 3, 255, 88])"
LOCAL_POSITION_NED,2,-0.07015085965394974,50197,0.9254282712936401,-0.11239573359489441,0.015596115961670876,0.36153367161750793,-0.11931326240301132,0.11105720698833466,-0.277509868144989,"[0.0, 0.0, 0.0, 0.0]",0.15660764276981354,0.22608016431331635,0.0,0.5778234601020813,0.5240354537963867,0.0,50109006,3,369991050,-1220634995,0,65535,65535,65,34767,255,0,0,0,0,0,0,10,0,192,0,3,3,"array('B', [253, 30, 0, 0, 214, 1, 0, 1, 24, 0, 0, 13, 83, 92, 2, 0, 0, 0, 0, 86, 157, 13, 22, 131, 150, 62, 183, 0, 0, 0, 0, 255, 255, 255, 255, 4, 0, 0, 0, 3, 255, 88])"
GPS_RAW_INT,2,-0.07015085965394974,50197,0.9254282712936401,-0.11239573359489441,0.015596115961670876,0.36153367161750793,-0.11931326240301132,0.11105720698833466,-0.277509868144989,"[0.0, 0.0, 0.0, 0.0]",0.15660764276981354,0.22608016431331635,0.0,0.5778234601020813,0.5240354537963867,0.0,50210006,3,369991055,-1220634986,0,65535,65535,63,794,255,0,0,0,0,0,0,10,0,192,0,3,3,"array('B', [253, 30, 0, 0, 214, 1, 0, 1, 24, 0, 0, 13, 83, 92, 2, 0, 0, 0, 0, 86, 157, 13, 22, 131, 150, 62, 183, 0, 0, 0, 0, 255, 255, 255, 255, 4, 0, 0, 0, 3, 255, 88])"
RAW_RPM,0,0.15838351845741272,50197,0.9254282712936401,-0.11239573359489441,0.015596115961670876,0.36153367161750793,-0.11931326240301132,0.11105720698833466,-0.277509868144989,"[0.0, 0.0, 0.0, 0.0]",0.15660764276981354,0.22608016431331635,0.0,0.5778234601020813,0.5240354537963867,0.0,50210006,3,369991055,-1220634986,0,65535,65535,63,794,255,0,0,0,0,0,0,10,0,192,0,3,3,"array('B', [253, 30, 0, 0, 214, 1, 0, 1, 24, 0, 0, 13, 83, 92, 2, 0, 0, 0, 0, 86, 157, 13, 22, 131, 150, 62, 183, 0, 0, 0, 0, 255, 255, 255, 255, 4, 0, 0, 0, 3, 255, 88])"
RAW_RPM,1,0.1913641095161438,50197,0.9254282712936401,-0.11239573359489441,0.015596115961670876,0.36153367161750793,-0.11931326240301132,0.11105720698833466,-0.277509868144989,"[0.0, 0.0, 0.0, 0.0]",0.15660764276981354,0.22608016431331635,0.0,0.5778234601020813,0.5240354537963867,0.0,50210006,3,369991055,-1220634986,0,65535,65535,63,794,255,0,0,0,0,0,0,10,0,192,0,3,3,"array('B', [253, 30, 0, 0, 214, 1, 0, 1, 24, 0, 0, 13, 83, 92, 2, 0, 0, 0, 0, 86, 157, 13, 22, 131, 150, 62, 183, 0, 0, 0, 0, 255, 255, 255, 255, 4, 0, 0, 0, 3, 255, 88])"
RAW_RPM,2,-0.02329733408987522,50197,0.9254282712936401,-0.11239573359489441,0.015596115961670876,0.36153367161750793,-0.11931326240301132,0.11105720698833466,-0.277509868144989,"[0.0, 0.0, 0.0, 0.0]",0.15660764276981354,0.22608016431331635,0.0,0.5778234601020813,0.5240354537963867,0.0,50210006,3,369991055,-1220634986,0,65535,65535,63,794,255,0,0,0,0,0,0,10,0,192,0,3,3,"array('B', [253, 30, 0, 0, 214, 1, 0, 1, 24, 0, 0, 13, 83, 92, 2, 0, 0, 0, 0, 86, 157, 13, 22, 131, 150, 62, 183, 0, 0, 0, 0, 255, 255, 255, 255, 4, 0, 0, 0, 3, 255, 88])"
ATTITUDE_QUATERNION,2,-0.02329733408987522,50248,0.9298096895217896,-0.10254043340682983,0.0076723042875528336,0.353384405374527,0.13715697824954987,-0.034089501947164536,-0.13262946903705597,"[0.0, 0.0, 0.0, 0.0]",0.15660764276981354,0.22608016431331635,0.0,0.5778234601020813,0.5240354537963867,0.0,50210006,3,369991055,-1220634986,0,65535,65535,63,794,255,0,0,0,0,0,0,10,0,192,0,3,3,"array('B', [253, 30, 0, 0, 214, 1, 0, 1, 24, 0, 0, 13, 83, 92, 2, 0, 0, 0, 0, 86, 157, 13, 22, 131, 150, 62, 183, 0, 0, 0, 0, 255, 255, 255, 255, 4, 0, 0, 0, 3, 255, 88])"
LOCAL_POSITION_NED,2,-0.02329733408987522,50248,0.9298096895217896,-0.10254043340682983,0.0076723042875528336,0.353384405374527,0.13715697824954987,-0.034089501947164536,-0.13262946903705597,"[0.0, 0.0, 0.0, 0.0]",0.18583403527736664,0.2520606219768524,0.0,0.5883739590644836,0.5167427062988281,0.0,50210006,3,369991055,-1220634986,0,65535,65535,63,794,255,0,0,0,0,0,0,10,0,192,0,3,3,"array('B', [253, 30, 0, 0, 214, 1, 0, 1, 24, 0, 0, 13, 83, 92, 2, 0, 0, 0, 0, 86, 157, 13, 22, 131, 150, 62, 183, 0, 0, 0, 0, 255, 255, 255, 255, 4, 0, 0, 0, 3, 255, 88])"
RAW_RPM,0,0.028378644958138466,50248,0.9298096895217896,-0.10254043340682983,0.0076723042875528336,0.353384405374527,0.13715697824954987,-0.034089501947164536,-0.13262946903705597,"[0.0, 0.0, 0.0, 0.0]",0.18583403527736664,0.2520606219768524,0.0,0.5883739590644836,0.5167427062988281,0.0,50210006,3,369991055,-1220634986,0,65535,65535,63,794,255,0,0,0,0,0,0,10,0,192,0,3,3,"array('B', [253, 30, 0, 0, 214, 1, 0, 1, 24, 0, 0, 13, 83, 92, 2, 0, 0, 0, 0, 86, 157, 13, 22, 131, 150, 62, 183, 0, 0, 0, 0, 255, 255, 255, 255, 4, 0, 0, 0, 3, 255, 88])"
RAW_RPM,1,0.24236896634101868,50248,0.9298096895217896,-0.10254043340682983,0.0076723042875528336,0.353384405374527,0.13715697824954987,-0.034089501947164536,-0.13262946903705597,"[0.0, 0.0, 0.0, 0.0]",0.18583403527736664,0.2520606219768524,0.0,0.5883739590644836,0.5167427062988281,0.0,50210006,3,369991055,-1220634986,0,65535,65535,63,794,255,0,0,0,0,0,0,10,0,192,0,3,3,"array('B', [253, 30, 0, 0, 214, 1, 0, 1, 24, 0, 0, 13, 83, 92, 2, 0, 0, 0, 0, 86, 157, 13, 22, 131, 150, 62, 183, 0, 0, 0, 0, 255, 255, 255, 255, 4, 0, 0, 0, 3, 255, 88])"
RAW_RPM,2,-0.003365170443430543,50248,0.9298096895217896,-0.10254043340682983,0.0076723042875528336,0.353384405374527,0.13715697824954987,-0.034089501947164536,-0.13262946903705597,"[0.0, 0.0, 0.0, 0.0]",0.18583403527736664,0.2520606219768524,0.0,0.5883739590644836,0.5167427062988281,0.0,50210006,3,369991055,-1220634986,0,65535,65535,63,794,255,0,0,0,0,0,0,10,0,192,0,3,3,"array('B', [253, 30, 0, 0, 214, 1, 0, 1, 24, 0, 0, 13, 83, 92, 2, 0, 0, 0, 0, 86, 157, 13, 22, 131, 150, 62, 183, 0, 0, 0, 0, 255, 255, 255, 255, 4, 0, 0, 0, 3, 255, 88])"
ATTITUDE_QUATERNION,2,-0.003365170443430543,50299,0.9332935214042664,-0.08393564075231552,0.009564422070980072,0.3490365147590637,-0.010386645793914795,0.05219954997301102,0.0015979454619809985,"[0.0, 0.0, 0.0, 0.0]",0.18583403527736664,0.2520606219768524,0.0,0.5883739590644836,0.5167427062988281,0.0,50210006,3,369991055,-1220634986,0,65535,65535,63,794,255,0,0,0,0,0,0,10,0,192,0,3,3,"array('B', [253, 30, 0, 0, 214, 1, 0, 1, 24, 0, 0, 13, 83, 92, 2, 0, 0, 0, 0, 86, 157, 13, 22, 131, 150, 62, 183, 0, 0, 0, 0, 255, 255, 255, 255, 4, 0, 0, 0, 3, 255, 88])"
LOCAL_POSITION_NED,2,-0.003365170443430543,50299,0.9332935214042664,-0.08393564075231552,0.009564422070980072,0.3490365147590637,-0.010386645793914795,0.05219954997301102,0.0015979454619809985,"[0.0, 0.0, 0.0, 0.0]",0.21526570618152618,0.27759408950805664,0.0,0.5831137895584106,0.5017214417457581,0.0,50210006,3,369991055,-1220634986,0,65535,65535,63,794,255,0,0,0,0,0,0,10,0,192,0,3,3,"array('B', [253, 30, 0, 0, 214, 1, 0, 1, 24, 0, 0, 13, 83, 92, 2, 0, 0, 0, 0, 86, 157, 13, 22, 131, 150, 62, 183, 0, 0, 0, 0, 255, 255, 255, 255, 4, 0, 0, 0, 3, 255, 88])"
GPS_RAW_INT,2,-0.003365170443430543,50299,0.9332935214042664,-0.08393564075231552,0.009564422070980072,0.3490365147590637,-0.010386645793914795,0.05219954997301102,0.0015979454619809985,"[0.0, 0.0, 0.0, 0.0]",0.21526570618152618,0.27759408950805664,0.0,0.5831137895584106,0.5017214417457581,0.0,50311003,3,369991061,-1220634980,0,65535,65535,72,2510,255,0,0,0,0,0,0,10,0,192,0,3,3,"array('B', [253, 30, 0, 0, 214, 1, 0, 1, 24, 0, 0, 13, 83, 92, 2, 0, 0, 0, 0, 86, 157, 13, 22, 131, 150, 62, 183, 0, 0, 0, 0, 255, 255, 255, 255, 4, 0, 0, 0, 3, 255, 88])"
RAW_RPM,0,0.003067961661145091,50299,0.9332935214042664,-0.08393564075231552,0.009564422070980072,0.3490365147590637,-0.010386645793914795,0.05219954997301102,0.0015979454619809985,"[0.0, 0.0, 0.0, 0.0]",0.21526570618152618,0.27759408950805664,0.0,0.5831137895584106,0.5017214417457581,0.0,50311003,3,369991061,-1220634980,0,65535,65535,72,2510,255,0,0,0,0,0,0,10,0,192,0,3,3,"array('B', [253, 30, 0, 0, 214, 1, 0, 1, 24, 0, 0, 13, 83, 92, 2, 0, 0, 0, 0, 86, 157, 13, 22, 131, 150, 62, 183, 0, 0, 0, 0, 255, 255, 255, 255, 4, 0, 0, 0, 3, 255, 88])"
RAW_RPM,1,0.20056799054145813,50299,0.9332935214042664,-0.08393564075231552,0.009564422070980072,0.3490365147590637,-0.010386645793914795,0.05219954997301102,0.0015979454619809985,"[0.0, 0.0, 0.0, 0.0]",0.21526570618152618,0.27759408950805664,0.0,0.5831137895584106,0.5017214417457581,0.0,50311003,3,369991061,-1220634980,0,65535,65535,72,2510,255,0,0,0,0,0,0,10,0,192,0,3,3,"array('B', [253, 30, 0, 0, 214, 1, 0, 1, 24, 0, 0, 13, 83, 92, 2, 0, 0, 0, 0, 86, 157, 13, 22, 131, 150, 62, 183, 0, 0, 0, 0, 255, 255, 255, 255, 4, 0, 0, 0, 3, 255, 88])"
RAW_RPM,2,0.009318933822214603,50299,0.9332935214042664,-0.08393564075231552,0.009564422070980072,0.3490365147590637,-0.010386645793914795,0.05219954997301102,0.0015979454619809985,"[0.0, 0.0, 0.0, 0.0]",0.21526570618152618,0.27759408950805664,0.0,0.5831137895584106,0.5017214417457581,0.0,50311003,3,369991061,-1220634980,0,65535,65535,72,2510,255,0,0,0,0,0,0,10,0,192,0,3,3,"array('B', [253, 30, 0, 0, 214, 1, 0, 1, 24, 0, 0, 13, 83, 92, 2, 0, 0, 0, 0, 86, 157, 13, 22, 131, 150, 62, 183, 0, 0, 0, 0, 255, 255, 255, 255, 4, 0, 0, 0, 3, 255, 88])"
ATTITUDE_QUATERNION,2,0.009318933822214603,50350,0.936573326587677,-0.07112305611371994,0.00043827961781062186,0.3431791663169861,0.009853996336460114,0.10866028070449829,-0.10120321065187454,"[0.0, 0.0, 0.0, 0.0]",0.21526570618152618,0.27759408950805664,0.0,0.5831137895584106,0.5017214417457581,0.0,50311003,3,369991061,-1220634980,0,65535,65535,72,2510,255,0,0,0,0,0,0,10,0,192,0,3,3,"array('B', [253, 30, 0, 0, 214, 1, 0, 1, 24, 0, 0, 13, 83, 92, 2, 0, 0, 0, 0, 86, 157, 13, 22, 131, 150, 62, 183, 0, 0, 0, 0, 255, 255, 255, 255, 4, 0, 0, 0, 3, 255, 88])"
LOCAL_POSITION_NED,2,0.009318933822214603,50350,0.936573326587677,-0.07112305611371994,0.00043827961781062186,0.3431791663169861,0.009853996336460114,0.10866028070449829,-0.10120321065187454,"[0.0, 0.0, 0.0, 0.0]",0.24394643306732178,0.30205997824668884,0.0,0.5656407475471497,0.47849127650260925,0.0,50311003,3,369991061,-1220634980,0,65535,65535,72,2510,255,0,0,0,0,0,0,10,0,192,0,3,3,"array('B', [253, 30, 0, 0, 214, 1, 0, 1, 24, 0, 0, 13, 83, 92, 2, 0, 0, 0, 0, 86, 157, 13, 22, 131, 150, 62, 183, 0, 0, 0, 0, 255, 255, 255, 255, 4, 0, 0, 0, 3, 255, 88])"
RAW_RPM,0,0.22012625634670258,50350,0.936573326587677,-0.07112305611371994,0.00043827961781062186,0.3431791663169861,0.009853996336460114,0.10866028070449829,-0.10120321065187454,"[0.0, 0.0, 0.0, 0.0]",0.24394643306732178,0.30205997824668884,0.0,0.5656407475471497,0.47849127650260925,0.0,50311003,3,369991061,-1220634980,0,65535,65535,72,2510,255,0,0,0,0,0,0,10,0,192,0,3,3,"array('B', [253, 30, 0, 0, 214, 1, 0, 1, 24, 0, 0, 13, 83, 92, 2, 0, 0, 0, 0, 86, 157, 13, 22, 131, 150, 62, 183, 0, 0, 0, 0, 255, 255, 255, 255, 4, 0, 0, 0, 3, 255, 88])"
RAW_RPM,1,0.17065536975860596,50350,0.936573326587677,-0.07112305611371994,0.00043827961781062186,0.3431791663169861,0.009853996336460114,0.10866028070449829,-0.10120321065187454,"[0.0, 0.0, 0.0, 0.0]",0.24394643306732178,0.30205997824668884,0.0,0.5656407475471497,0.47849127650260925,0.0,50311003,3,369991061,-1220634980,0,65535,65535,72,2510,255,0,0,0,0,0,0,10,0,192,0,3,3,"array('B', [253, 30, 0, 0, 214, 1, 0, 1, 24, 0, 0, 13, 83, 92, 2, 0, 0, 0, 0, 86, 157, 13, 22, 131, 150, 62, 183, 0, 0, 0, 0, 255, 255, 255, 255, 4, 0, 0, 0, 3, 255, 88])"
RAW_RPM,2,0.006989200599491596,50350,0.936573326587677,-0.07112305611371994,0.00043827961781062186,0.3431791663169861,0.009853996336460114,0.10866028070449829,-0.10120321065187454,"[0.0, 0.0, 0.0, 0.0]",0.24394643306732178,0.30205997824668884,0.0,0.5656407475471497,0.47849127650260925,0.0,50311003,3,369991061,-1220634980,0,65535,65535,72,2510,255,0,0,0,0,0,0,10,0,192,0,3,3,"array('B', [253, 30, 0, 0, 214, 1, 0, 1, 24, 0, 0, 13, 83, 92, 2, 0, 0, 0, 0, 86, 157, 13, 22, 131, 150, 62, 183, 0, 0, 0, 0, 255, 255, 255, 255, 4, 0, 0, 0, 3, 255, 88])"
ATTITUDE_QUATERNION,2,0.006989200599491596,50401,0.9387368559837341,-0.059517309069633484,-0.007467839866876602,0.3393745422363281,-0.18056783080101013,-0.1360916793346405,-0.05219954997301102,"[0.0, 0.0, 0.0, 0.0]",0.24394643306732178,0.30205997824668884,0.0,0.5656407475471497,0.47849127650260925,0.0,50311003,3,369991061,-1220634980,0,65535,65535,72,2510,255,0,0,0,0,0,0,10,0,192,0,3,3,"array('B', [253, 30, 0, 0, 214, 1, 0, 1, 24, 0, 0, 13, 83, 92, 2, 0, 0, 0, 0, 86, 157, 13, 22, 131, 150, 62, 183, 0, 0, 0, 0, 255, 255, 255, 255, 4, 0, 0, 0, 3, 255, 88])"
LOCAL_POSITION_NED,2,0.006989200599491596,50401,0.9387368559837341,-0.059517309069633484,-0.007467839866876602,0.3393745422363281,-0.18056783080101013,-0.1360916793346405,-0.05219954997301102,"[0.0, 0.0, 0.0, 0.0]",0.27164459228515625,0.32519426941871643,0.0,0.5525851249694824,0.4594706892967224,0.0,50311003,3,369991061,-1220634980,0,65535,65535,72,2510,255,0,0,0,0,0,0,10,0,192,0,3,3,"array('B', [253, 30, 0, 0, 214, 1, 0, 1, 24, 0, 0, 13, 83, 92, 2, 0, 0, 0, 0, 86, 157, 13, 22, 131, 150, 62, 183, 0, 0, 0, 0, 255, 255, 255, 255, 4, 0, 0, 0, 3, 255, 88])"
GPS_RAW_INT,2,0.006989200599491596,50401,0.9387368559837341,-0.059517309069633484,-0.007467839866876602,0.3393745422363281,-0.18056783080101013,-0.1360916793346405,-0.05219954997301102,"[0.0, 0.0, 0.0, 0.0]",0.27164459228515625,0.32519426941871643,0.0,0.5525851249694824,0.4594706892967224,0.0,50412006,3,369991063,-1220634978,0,65535,65535,60,2817,255,0,0,0,0,0,0,10,0,192,0,3,3,"array('B', [253, 30, 0, 0, 214, 1, 0, 1, 24, 0, 0, 13, 83, 92, 2, 0, 0, 0, 0, 86, 157, 13, 22, 131, 150, 62, 183, 0, 0, 0, 0, 255, 255, 255, 255, 4, 0, 0, 0, 3, 255, 88])"
RAW_RPM,0,0.18561168015003204,50401,0.9387368559837341,-0.059517309069633484,-0.007467839866876602,0.3393745422363281,-0.18056783080101013,-0.1360916793346405,-0.05219954997301102,"[0.0, 0.0, 0.0, 0.0]",0.27164459228515625,0.32519426941871643,0.0,0.5525851249694824,0.4594706892967224,0.0,50412006,3,369991063,-1220634978,0,65535,65535,60,2817,255,0,0,0,0,0,0,10,0,192,0,3,3,"array('B', [253, 30, 0, 0, 214, 1, 0, 1, 24, 0, 0, 13, 83, 92, 2, 0, 0, 0, 0, 86, 157, 13, 22, 131, 150, 62, 183, 0, 0, 0, 0, 255, 255, 255, 255, 4, 0, 0, 0, 3, 255, 88])"
RAW_RPM,1,0.24275246262550354,50401,0.9387368559837341,-0.059517309069633484,-0.007467839866876602,0.3393745422363281,-0.18056783080101013,-0.1360916793346405,-0.05219954997301102,"[0.0, 0.0, 0.0, 0.0]",0.27164459228515625,0.32519426941871643,0.0,0.5525851249694824,0.4594706892967224,0.0,50412006,3,369991063,-1220634978,0,65535,65535,60,2817,255,0,0,0,0,0,0,10,0,192,0,3,3,"array('B', [253, 30, 0, 0, 214, 1, 0, 1, 24, 0, 0, 13, 83, 92, 2, 0, 0, 0, 0, 86, 157, 13, 22, 131, 150, 62, 183, 0, 0, 0, 0, 255, 255, 255, 255, 4, 0, 0, 0, 3, 255, 88])"
RAW_RPM,2,0.011389808729290962,50401,0.9387368559837341,-0.059517309069633484,-0.007467839866876602,0.3393745422363281,-0.18056783080101013,-0.1360916793346405,-0.05219954997301102,"[0.0, 0.0, 0.0, 0.0]",0.27164459228515625,0.32519426941871643,0.0,0.5525851249694824,0.4594706892967224,0.0,50412006,3,369991063,-1220634978,0,65535,65535,60,2817,255,0,0,0,0,0,0,10,0,192,0,3,3,"array('B', [253, 30, 0, 0, 214, 1, 0, 1, 24, 0, 0, 13, 83, 92, 2, 0, 0, 0, 0, 86, 157, 13, 22, 131, 150, 62, 183, 0, 0, 0, 0, 255, 255, 255, 255, 4, 0, 0, 0, 3, 255, 88])"
ATTITUDE_QUATERNION,2,0.011389808729290962,50452,0.9410686492919922,-0.043147530406713486,-0.020022785291075706,0.3348541557788849,0.1438150852918625,-0.1555333435535431,-0.060189276933670044,"[0.0, 0.0, 0.0, 0.0]",0.27164459228515625,0.32519426941871643,0.0,0.5525851249694824,0.4594706892967224,0.0,50412006,3,369991063,-1220634978,0,65535,65535,60,2817,255,0,0,0,0,0,0,10,0,192,0,3,3,"array('B', [253, 30, 0, 0, 214, 1, 0, 1, 24, 0, 0, 13, 83, 92, 2, 0, 0, 0, 0, 86, 157, 13, 22, 131, 150, 62, 183, 0, 0, 0, 0, 255, 255, 255, 255, 4, 0, 0, 0, 3, 255, 88])"
LOCAL_POSITION_NED,2,0.011389808729290962,50452,0.9410686492919922,-0.043147530406713486,-0.020022785291075706,0.3348541557788849,0.1438150852918625,-0.1555333435535431,-0.060189276933670044,"[0.0, 0.0, 0.0, 0.0]",0.3001055121421814,0.34865283966064453,0.0,0.5835355520248413,0.4778757095336914,0.0,50412006,3,369991063,-1220634978,0,65535,65535,60,2817,255,0,0,0,0,0,0,10,0,192,0,3,3,"array('B', [253, 30, 0, 0, 214, 1, 0, 1, 24, 0, 0, 13, 83, 92, 2, 0, 0, 0, 0, 86, 157, 13, 22, 131, 150, 62, 183, 0, 0, 0, 0, 255, 255, 255, 255, 4, 0, 0, 0, 3, 255, 88])"
RAW_RPM,0,0.17295633256435394,50452,0.9410686492919922,-0.043147530406713486,-0.020022785291075706,0.3348541557788849,0.1438150852918625,-0.1555333435535431,-0.060189276933670044,"[0.0, 0.0, 0.0, 0.0]",0.3001055121421814,0.34865283966064453,0.0,0.5835355520248413,0.4778757095336914,0.0,50412006,3,369991063,-1220634978,0,65535,65535,60,2817,255,0,0,0,0,0,0,10,0,192,0,3,3,"array('B', [253, 30, 0, 0, 214, 1, 0, 1, 24, 0, 0, 13, 83, 92, 2, 0, 0, 0, 0, 86, 157, 13, 22, 131, 150, 62, 183, 0, 0, 0, 0, 255, 255, 255, 255, 4, 0, 0, 0, 3, 255, 88])"
RAW_RPM,1,0.17487381398677826,50452,0.9410686492919922,-0.043147530406713486,-0.020022785291075706,0.3348541557788849,0.1438150852918625,-0.1555333435535431,-0.060189276933670044,"[0.0, 0.0, 0.0, 0.0]",0.3001055121421814,0.34865283966064453,0.0,0.5835355520248413,0.4778757095336914,0.0,50412006,3,369991063,-1220634978,0,65535,65535,60,2817,255,0,0,0,0,0,0,10,0,192,0,3,3,"array('B', [253, 30, 0, 0, 214, 1, 0, 1, 24, 0, 0, 13, 83, 92, 2, 0, 0, 0, 0, 86, 157, 13, 22, 131, 150, 62, 183, 0, 0, 0, 0, 255, 255, 255, 255, 4, 0, 0, 0, 3, 255, 88])"
RAW_RPM,2,0.016049275174736977,50452,0.9410686492919922,-0.043147530406713486,-0.020022785291075706,0.3348541557788849,0.1438150852918625,-0.1555333435535431,-0.060189276933670044,"[0.0, 0.0, 0.0, 0.0]",0.3001055121421814,0.34865283966064453,0.0,0.5835355520248413,0.4778757095336914,0.0,50412006,3,369991063,-1220634978,0,65535,65535,60,2817,255,0,0,0,0,0,0,10,0,192,0,3,3,"array('B', [253, 30, 0, 0, 214, 1, 0, 1, 24, 0, 0, 13, 83, 92, 2, 0, 0, 0, 0, 86, 157, 13, 22, 131, 150, 62, 183, 0, 0, 0, 0, 255, 255, 255, 255, 4, 0, 0, 0, 3, 255, 88])"
ATTITUDE_QUATERNION,2,0.016049275174736977,50503,0.9421907067298889,-0.0297124981880188,-0.030649853870272636,0.3323470652103424,0.18323107063770294,-0.0585913322865963,0.02929566614329815,"[0.0, 0.0, 0.0, 0.0]",0.3001055121421814,0.34865283966064453,0.0,0.5835355520248413,0.4778757095336914,0.0,50412006,3,369991063,-1220634978,0,65535,65535,60,2817,255,0,0,0,0,0,0,10,0,192,0,3,3,"array('B', [253, 30, 0, 0, 214, 1, 0, 1, 24, 0, 0, 13, 83, 92, 2, 0, 0, 0, 0, 86, 157, 13, 22, 131, 150, 62, 183, 0, 0, 0, 0, 255, 255, 255, 255, 4, 0, 0, 0, 3, 255, 88])"
LOCAL_POSITION_NED,2,0.016049275174736977,50504,0.9421907067298889,-0.0297124981880188,-0.030649853870272636,0.3323470652103424,0.18323107063770294,-0.0585913322865963,0.02929566614329815,"[0.0, 0.0, 0.0, 0.0]",0.33604109287261963,0.37784838676452637,0.0,0.6044042706489563,0.4886540472507477,0.0,50412006,3,369991063,-1220634978,0,65535,65535,60,2817,255,0,0,0,0,0,0,10,0,192,0,3,3,"array('B', [253, 30, 0, 0, 214, 1, 0, 1, 24, 0, 0, 13, 83, 92, 2, 0, 0, 0, 0, 86, 157, 13, 22, 131, 150, 62, 183, 0, 0, 0, 0, 255, 255, 255, 255, 4, 0, 0, 0, 3, 255, 88])"
GPS_RAW_INT,2,0.016049275174736977,50504,0.9421907067298889,-0.0297124981880188,-0.030649853870272636,0.3323470652103424,0.18323107063770294,-0.0585913322865963,0.02929566614329815,"[0.0, 0.0, 0.0, 0.0]",0.33604109287261963,0.37784838676452637,0.0,0.6044042706489563,0.4886540472507477,0.0,50513503,3,369991071,-1220634970,0,65535,65535,73,3288,255,0,0,0,0,0,0,10,0,192,0,3,3,"array('B', [253, 30, 0, 0, 214, 1, 0, 1, 24, 0, 0, 13, 83, 92, 2, 0, 0, 0, 0, 86, 157, 13, 22, 131, 150, 62, 183, 0, 0, 0, 0, 255, 255, 255, 255, 4, 0, 0, 0, 3, 255, 88])"
RAW_RPM,0,0.2419854700565338,50504,0.9421907067298889,-0.0297124981880188,-0.030649853870272636,0.3323470652103424,0.18323107063770294,-0.0585913322865963,0.02929566614329815,"[0.0, 0.0, 0.0, 0.0]",0.33604109287261963,0.37784838676452637,0.0,0.6044042706489563,0.4886540472507477,0.0,50513503,3,369991071,-1220634970,0,65535,65535,73,3288,255,0,0,0,0,0,0,10,0,192,0,3,3,"array('B', [253, 30, 0, 0, 214, 1, 0, 1, 24, 0, 0, 13, 83, 92, 2, 0, 0, 0, 0, 86, 157, 13, 22, 131, 150, 62, 183, 0, 0, 0, 0, 255, 255, 255, 255, 4, 0, 0, 0, 3, 255, 88])"
RAW_RPM,1,0.1944320648908615,50504,0.9421907067298889,-0.0297124981880188,-0.030649853870272636,0.3323470652103424,0.18323107063770294,-0.0585913322865963,0.02929566614329815,"[0.0, 0.0, 0.0, 0.0]",0.33604109287261963,0.37784838676452637,0.0,0.6044042706489563,0.4886540472507477,0.0,50513503,3,369991071,-1220634970,0,65535,65535,73,3288,255,0,0,0,0,0,0,10,0,192,0,3,3,"array('B', [253, 30, 0, 0, 214, 1, 0, 1, 24, 0, 0, 13, 83, 92, 2, 0, 0, 0, 0, 86, 157, 13, 22, 131, 150, 62, 183, 0, 0, 0, 0, 255, 255, 255, 255, 4, 0, 0, 0, 3, 255, 88])"
RAW_RPM,2,0.022003035992383957,50504,0.9421907067298889,-0.0297124981880188,-0.030649853870272636,0.3323470652103424,0.18323107063770294,-0.0585913322865963,0.02929566614329815,"[0.0, 0.0, 0.0, 0.0]",0.33604109287261963,0.37784838676452637,0.0,0.6044042706489563,0.4886540472507477,0.0,50513503,3,369991071,-1220634970,0,65535,65535,73,3288,255,0,0,0,0,0,0,10,0,192,0,3,3,"array('B', [253, 30, 0, 0, 214, 1, 0, 1, 24, 0, 0, 13, 83, 92, 2, 0, 0, 0, 0, 86, 157, 13, 22, 131, 150, 62, 183, 0, 0, 0, 0, 255, 255, 255, 255, 4, 0, 0, 0, 3, 255, 88])"
ATTITUDE_QUATERNION,2,0.022003035992383957,50554,0.9431365132331848,-0.015549824573099613,-0.028244275599718094,0.3308383822441101,0.02317020855844021,-0.03755171597003937,-0.039682310074567795,"[0.0, 0.0, 0.0, 0.0]",0.33604109287261963,0.37784838676452637,0.0,0.6044042706489563,0.4886540472507477,0.0,50513503,3,369991071,-1220634970,0,65535,65535,73,3288,255,0,0,0,0,0,0,10,0,192,0,3,3,"array('B', [253, 30, 0, 0, 214, 1, 0, 1, 24, 0, 0, 13, 83, 92, 2, 0, 0, 0, 0, 86, 157, 13, 22, 131, 150, 62, 183, 0, 0, 0, 0, 255, 255, 255, 255, 4, 0, 0, 0, 3, 255, 88])"
LOCAL_POSITION_NED,2,0.022003035992383957,50554,0.9431365132331848,-0.015549824573099613,-0.028244275599718094,0.3308383822441101,0.02317020855844021,-0.03755171597003937,-0.039682310074567795,"[0.0, 0.0, 0.0, 0.0]",0.36644360423088074,0.4023606479167938,0.0,0.6141260862350464,0.4927404820919037,0.0,50513503,3,369991071,-1220634970,0,65535,65535,73,3288,255,0,0,0,0,0,0,10,0,192,0,3,3,"array('B', [253, 30, 0, 0, 214, 1, 0, 1, 24, 0, 0, 13, 83, 92, 2, 0, 0, 0, 0, 86, 157, 13, 22, 131, 150, 62, 183, 0, 0, 0, 0, 255, 255, 255, 255, 4, 0, 0, 0, 3, 255, 88])"
RAW_RPM,0,0.00920388475060463,50554,0.9431365132331848,-0.015549824573099613,-0.028244275599718094,0.3308383822441101,0.02317020855844021,-0.03755171597003937,-0.039682310074567795,"[0.0, 0.0, 0.0, 0.0]",0.36644360423088074,0.4023606479167938,0.0,0.6141260862350464,0.4927404820919037,0.0,50513503,3,369991071,-1220634970,0,65535,65535,73,3288,255,0,0,0,0,0,0,10,0,192,0,3,3,"array('B', [253, 30, 0, 0, 214, 1, 0, 1, 24, 0, 0, 13, 83, 92, 2, 0, 0, 0, 0, 86, 157, 13, 22, 131, 150, 62, 183, 0, 0, 0, 0, 255, 255, 255, 255, 4, 0, 0, 0, 3, 255, 88])"
RAW_RPM,1,0.2335485816001892,50554,0.9431365132331848,-0.015549824573099613,-0.028244275599718094,0.3308383822441101,0.02317020855844021,-0.03755171597003937,-0.039682310074567795,"[0.0, 0.0, 0.0, 0.0]",0.36644360423088074,0.4023606479167938,0.0,0.6141260862350464,0.4927404820919037,0.0,50513503,3,369991071,-1220634970,0,65535,65535,73,3288,255,0,0,0,0,0,0,10,0,192,0,3,3,"array('B', [253, 30, 0, 0, 214, 1, 0, 1, 24, 0, 0, 13, 83, 92, 2, 0, 0, 0, 0, 86, 157, 13, 22, 131, 150, 62, 183, 0, 0, 0, 0, 255, 255, 255, 255, 4, 0, 0, 0, 3, 255, 88])"
RAW_RPM,2,0.03624029830098152,50554,0.9431365132331848,-0.015549824573099613,-0.028244275599718094,0.3308383822441101,0.02317020855844021,-0.03755171597003937,-0.039682310074567795,"[0.0, 0.0, 0.0, 0.0]",0.36644360423088074,0.4023606479167938,0.0,0.6141260862350464,0.4927404820919037,0.0,50513503,3,369991071,-1220634970,0,65535,65535,73,3288,255,0,0,0,0,0,0,10,0,192,0,3,3,"array('B', [253, 30, 0, 0, 214, 1, 0, 1, 24, 0, 0, 13, 83, 92, 2, 0, 0, 0, 0, 86, 157, 13, 22, 131, 150, 62, 183, 0, 0, 0, 0, 255, 255, 255, 255, 4, 0, 0, 0, 3, 255, 88])"
ATTITUDE_QUATERNION,2,0.03624029830098152,50605,0.9433260560035706,-0.007222451269626617,-0.029445871710777283,0.33047959208488464,0.013316212221980095,-0.08762066811323166,-0.036752745509147644,"[0.0, 0.0, 0.0, 0.0]",0.36644360423088074,0.4023606479167938,0.0,0.6141260862350464,0.4927404820919037,0.0,50513503,3,369991071,-1220634970,0,65535,65535,73,3288,255,0,0,0,0,0,0,10,0,192,0,3,3,"array('B', [253, 30, 0, 0, 214, 1, 0, 1, 24, 0, 0, 13, 83, 92, 2, 0, 0, 0, 0, 86, 157, 13, 22, 131, 150, 62, 183, 0, 0, 0, 0, 255, 255, 255, 255, 4, 0, 0, 0, 3, 255, 88])"
LOCAL_POSITION_NED,2,0.03624029830098152,50605,0.9433260560035706,-0.007222451269626617,-0.029445871710777283,0.33047959208488464,0.013316212221980095,-0.08762066811323166,-0.036752745509147644,"[0.0, 0.0, 0.0, 0.0]",0.3973012864589691,0.42707133293151855,0.0,0.608799159526825,0.48739394545555115,0.0,50513503,3,369991071,-1220634970,0,65535,65535,73,3288,255,0,0,0,0,0,0,10,0,192,0,3,3,"array('B', [253, 30, 0, 0, 214, 1, 0, 1, 24, 0, 0, 13, 83, 92, 2, 0, 0, 0, 0, 86, 157, 13, 22, 131, 150, 62, 183, 0, 0, 0, 0, 255, 255, 255, 255, 4, 0, 0, 0, 3, 255, 88])"
GPS_RAW_INT,2,0.03624029830098152,50605,0.9433260560035706,-0.007222451269626617,-0.029445871710777283,0.33047959208488464,0.013316212221980095,-0.08762066811323166,-0.036752745509147644,"[0.0, 0.0, 0.0, 0.0]",0.3973012864589691,0.42707133293151855,0.0,0.608799159526825,0.48739394545555115,0.0,50614006,3,369991071,-1220634961,0,65535,65535,74,3891,255,0,0,0,0,0,0,10,0,192,0,3,3,"array('B', [253, 30, 0, 0, 214, 1, 0, 1, 24, 0, 0, 13, 83, 92, 2, 0, 0, 0, 0, 86, 157, 13, 22, 131, 150, 62, 183, 0, 0, 0, 0, 255, 255, 255, 255, 4, 0, 0, 0, 3, 255, 88])"
RAW_RPM,0,0.003067961661145091,50605,0.9433260560035706,-0.007222451269626617,-0.029445871710777283,0.33047959208488464,0.013316212221980095,-0.08762066811323166,-0.036752745509147644,"[0.0, 0.0, 0.0, 0.0]",0.3973012864589691,0.42707133293151855,0.0,0.608799159526825,0.48739394545555115,0.0,50614006,3,369991071,-1220634961,0,65535,65535,74,3891,255,0,0,0,0,0,0,10,0,192,0,3,3,"array('B', [253, 30, 0, 0, 214, 1, 0, 1, 24, 0, 0, 13, 83, 92, 2, 0, 0, 0, 0, 86, 157, 13, 22, 131, 150, 62, 183, 0, 0, 0, 0, 255, 255, 255, 255, 4, 0, 0, 0, 3, 255, 88])"
RAW_RPM,1,0.19404856860637665,50605,0.9433260560035706,-0.007222451269626617,-0.029445871710777283,0.33047959208488464,0.013316212221980095,-0.08762066811323166,-0.036752745509147644,"[0.0, 0.0, 0.0, 0.0]",0.3973012864589691,0.42707133293151855,0.0,0.608799159526825,0.48739394545555115,0.0,50614006,3,369991071,-1220634961,0,65535,65535,74,3891,255,0,0,0,0,0,0,10,0,192,0,3,3,"array('B', [253, 30, 0, 0, 214, 1, 0, 1, 24, 0, 0, 13, 83, 92, 2, 0, 0, 0, 0, 86, 157, 13, 22, 131, 150, 62, 183, 0, 0, 0, 0, 255, 255, 255, 255, 4, 0, 0, 0, 3, 255, 88])"
RAW_RPM,2,0.03753459453582764,50605,0.9433260560035706,-0.007222451269626617,-0.029445871710777283,0.33047959208488464,0.013316212221980095,-0.08762066811323166,-0.036752745509147644,"[0.0, 0.0, 0.0, 0.0]",0.3973012864589691,0.42707133293151855,0.0,0.608799159526825,0.48739394545555115,0.0,50614006,3,369991071,-1220634961,0,65535,65535,74,3891,255,0,0,0,0,0,0,10,0,192,0,3,3,"array('B', [253, 30, 0, 0, 214, 1, 0, 1, 24, 0, 0, 13, 83, 92, 2, 0, 0, 0, 0, 86, 157, 13, 22, 131, 150, 62, 183, 0, 0, 0, 0, 255, 255, 255, 255, 4, 0, 0, 0, 3, 255, 88])"
ATTITUDE_QUATERNION,2,0.03753459453582764,50656,0.943687379360199,0.0024495532270520926,-0.03866606950759888,0.3285621404647827,0.042611874639987946,0.025034477934241295,-0.05646073818206787,"[0.0, 0.0, 0.0, 0.0]",0.3973012864589691,0.42707133293151855,0.0,0.608799159526825,0.48739394545555115,0.0,50614006,3,369991071,-1220634961,0,65535,65535,74,3891,255,0,0,0,0,0,0,10,0,192,0,3,3,"array('B', [253, 30, 0, 0, 214, 1, 0, 1, 24, 0, 0, 13, 83, 92, 2, 0, 0, 0, 0, 86, 157, 13, 22, 131, 150, 62, 183, 0, 0, 0, 0, 255, 255, 255, 255, 4, 0, 0, 0, 3, 255, 88])"
LOCAL_POSITION_NED,2,0.03753459453582764,50656,0.943687379360199,0.0024495532270520926,-0.03866606950759888,0.3285621404647827,0.042611874639987946,0.025034477934241295,-0.05646073818206787,"[0.0, 0.0, 0.0, 0.0]",0.4270056188106537,0.4507976770401001,0.0,0.5833554267883301,0.4642651379108429,0.0,50614006,3,369991071,-1220634961,0,65535,65535,74,3891,255,0,0,0,0,0,0,10,0,192,0,3,3,"array('B', [253, 30, 0, 0, 214, 1, 0, 1, 24, 0, 0, 13, 83, 92, 2, 0, 0, 0, 0, 86, 157, 13, 22, 131, 150, 62, 183, 0, 0, 0, 0, 255, 255, 255, 255, 4, 0, 0, 0, 3, 255, 88])"
RAW_RPM,0,0.055990301072597504,50656,0.943687379360199,0.0024495532270520926,-0.03866606950759888,0.3285621404647827,0.042611874639987946,0.025034477934241295,-0.05646073818206787,"[0.0, 0.0, 0.0, 0.0]",0.4270056188106537,0.4507976770401001,0.0,0.5833554267883301,0.4642651379108429,0.0,50614006,3,369991071,-1220634961,0,65535,65535,74,3891,255,0,0,0,0,0,0,10,0,192,0,3,3,"array('B', [253, 30, 0, 0, 214, 1, 0, 1, 24, 0, 0, 13, 83, 92, 2, 0, 0, 0, 0, 86, 157, 13, 22, 131, 150, 62, 183, 0, 0, 0, 0, 255, 255, 255, 255, 4, 0, 0, 0, 3, 255, 88])"
RAW_RPM,1,0.1637524515390396,50656,0.943687379360199,0.0024495532270520926,-0.03866606950759888,0.3285621404647827,0.042611874639987946,0.025034477934241295,-0.05646073818206787,"[0.0, 0.0, 0.0, 0.0]",0.4270056188106537,0.4507976770401001,0.0,0.5833554267883301,0.4642651379108429,0.0,50614006,3,369991071,-1220634961,0,65535,65535,74,3891,255,0,0,0,0,0,0,10,0,192,0,3,3,"array('B', [253, 30, 0, 0, 214, 1, 0, 1, 24, 0, 0, 13, 83, 92, 2, 0, 0, 0, 0, 86, 157, 13, 22, 131, 150, 62, 183, 0, 0, 0, 0, 255, 255, 255, 255, 4, 0, 0, 0, 3, 255, 88])"
RAW_RPM,2,0.031321972608566284,50656,0.943687379360199,0.0024495532270520926,-0.03866606950759888,0.3285621404647827,0.042611874639987946,0.025034477934241295,-0.05646073818206787,"[0.0, 0.0, 0.0, 0.0]",0.4270056188106537,0.4507976770401001,0.0,0.5833554267883301,0.4642651379108429,0.0,50614006,3,369991071,-1220634961,0,65535,65535,74,3891,255,0,0,0,0,0,0,10,0,192,0,3,3,"array('B', [253, 30, 0, 0, 214, 1, 0, 1, 24, 0, 0, 13, 83, 92, 2, 0, 0, 0, 0, 86, 157, 13, 22, 131, 150, 62, 183, 0, 0, 0, 0, 255, 255, 255, 255, 4, 0, 0, 0, 3, 255, 88])"
ATTITUDE_QUATERNION,2,0.031321972608566284,50707,0.9437695145606995,0.011645757593214512,-0.0443459190428257,0.32740941643714905,-0.025567127391695976,-0.08362581580877304,0.10280115157365799,"[0.0, 0.0, 0.0, 0.0]",0.4270056188106537,0.4507976770401001,0.0,0.5833554267883301,0.4642651379108429,0.0,50614006,3,369991071,-1220634961,0,65535,65535,74,3891,255,0,0,0,0,0,0,10,0,192,0,3,3,"array('B', [253, 30, 0, 0, 214, 1, 0, 1, 24, 0, 0, 13, 83, 92, 2, 0, 0, 0, 0, 86, 157, 13, 22, 131, 150, 62, 183, 0, 0, 0, 0, 255, 255, 255, 255, 4, 0, 0, 0, 3, 255, 88])"
LOCAL_POSITION_NED,2,0.031321972608566284,50707,0.9437695145606995,0.011645757593214512,-0.0443459190428257,0.32740941643714905,-0.025567127391695976,-0.08362581580877304,0.10280115157365799,"[0.0, 0.0, 0.0, 0.0]",0.4552789330482483,0.47322073578834534,0.0,0.5576012134552002,0.44191986322402954,0.0,50614006,3,369991071,-1220634961,0,65535,65535,74,3891,255,0,0,0,0,0,0,10,0,192,0,3,3,"array('B', [253, 30, 0, 0, 214, 1, 0, 1, 24, 0, 0, 13, 83, 92, 2, 0, 0, 0, 0, 86, 157, 13, 22, 131, 150, 62, 183, 0, 0, 0, 0, 255, 255, 255, 255, 4, 0, 0, 0, 3, 255, 88])"
GPS_RAW_INT,2,0.031321972608566284,50707,0.9437695145606995,0.011645757593214512,-0.0443459190428257,0.32740941643714905,-0.025567127391695976,-0.08362581580877304,0.10280115157365799,"[0.0, 0.0, 0.0, 0.0]",0.4552789330482483,0.47322073578834534,0.0,0.5576012134552002,0.44191986322402954,0.0,50715007,3,369991080,-1220634955,0,65535,65535,79,4027,255,0,0,0,0,0,0,10,0,192,0,3,3,"array('B', [253, 30, 0, 0, 214, 1, 0, 1, 24, 0, 0, 13, 83, 92, 2, 0, 0, 0, 0, 86, 157, 13, 22, 131, 150, 62, 183, 0, 0, 0, 0, 255, 255, 255, 255, 4, 0, 0, 0, 3, 255, 88])"
RAW_RPM,0,0.1798592507839203,50707,0.9437695145606995,0.011645757593214512,-0.0443459190428257,0.32740941643714905,-0.025567127391695976,-0.08362581580877304,0.10280115157365799,"[0.0, 0.0, 0.0, 0.0]",0.4552789330482483,0.47322073578834534,0.0,0.5576012134552002,0.44191986322402954,0.0,50715007,3,369991080,-1220634955,0,65535,65535,79,4027,255,0,0,0,0,0,0,10,0,192,0,3,3,"array('B', [253, 30, 0, 0, 214, 1, 0, 1, 24, 0, 0, 13, 83, 92, 2, 0, 0, 0, 0, 86, 157, 13, 22, 131, 150, 62, 183, 0, 0, 0, 0, 255, 255, 255, 255, 4, 0, 0, 0, 3, 255, 88])"
RAW_RPM,1,0.2462039291858673,50707,0.9437695145606995,0.011645757593214512,-0.0443459190428257,0.32740941643714905,-0.025567127391695976,-0.08362581580877304,0.10280115157365799,"[0.0, 0.0, 0.0, 0.0]",0.4552789330482483,0.47322073578834534,0.0,0.5576012134552002,0.44191986322402954,0.0,50715007,3,369991080,-1220634955,0,65535,65535,79,4027,255,0,0,0,0,0,0,10,0,192,0,3,3,"array('B', [253, 30, 0, 0, 214, 1, 0, 1, 24, 0, 0, 13, 83, 92, 2, 0, 0, 0, 0, 86, 157, 13, 22, 131, 150, 62, 183, 0, 0, 0, 0, 255, 255, 255, 255, 4, 0, 0, 0, 3, 255, 88])"
RAW_RPM,2,0.027956802397966385,50707,0.9437695145606995,0.011645757593214512,-0.0443459190428257,0.32740941643714905,-0.025567127391695976,-0.08362581580877304,0.10280115157365799,"[0.0, 0.0, 0.0, 0.0]",0.4552789330482483,0.47322073578834534,0.0,0.5576012134552002,0.44191986322402954,0.0,50715007,3,369991080,-1220634955,0,65535,65535,79,4027,255,0,0,0,0,0,0,10,0,192,0,3,3,"array('B', [253, 30, 0, 0, 214, 1, 0, 1, 24, 0, 0, 13, 83, 92, 2, 0, 0, 0, 0, 86, 157, 13, 22, 131, 150, 62, 183, 0, 0, 0, 0, 255, 255, 255, 255, 4, 0, 0, 0, 3, 255, 88])"
ATTITUDE_QUATERNION,2,0.027956802397966385,50758,0.942730188369751,0.017932651564478874,-0.05724380910396576,0.32811790704727173,0.13396108150482178,-0.23170208930969238,0.039682310074567795,"[0.0, 0.0, 0.0, 0.0]",0.4552789330482483,0.47322073578834534,0.0,0.5576012134552002,0.44191986322402954,0.0,50715007,3,369991080,-1220634955,0,65535,65535,79,4027,255,0,0,0,0,0,0,10,0,192,0,3,3,"array('B', [253, 30, 0, 0, 214, 1, 0, 1, 24, 0, 0, 13, 83, 92, 2, 0, 0, 0, 0, 86, 157, 13, 22, 131, 150, 62, 183, 0, 0, 0, 0, 255, 255, 255, 255, 4, 0, 0, 0, 3, 255, 88])"
LOCAL_POSITION_NED,2,0.027956802397966385,50758,0.942730188369751,0.017932651564478874,-0.05724380910396576,0.32811790704727173,0.13396108150482178,-0.23170208930969238,0.039682310074567795,"[0.0, 0.0, 0.0, 0.0]",0.4830702543258667,0.49516236782073975,0.0,0.56233149766922,0.4441070258617401,0.0,50715007,3,369991080,-1220634955,0,65535,65535,79,4027,255,0,0,0,0,0,0,10,0,192,0,3,3,"array('B', [253, 30, 0, 0, 214, 1, 0, 1, 24, 0, 0, 13, 83, 92, 2, 0, 0, 0, 0, 86, 157, 13, 22, 131, 150, 62, 183, 0, 0, 0, 0, 255, 255, 255, 255, 4, 0, 0, 0, 3, 255, 88])"
RAW_RPM,0,0.18944662809371948,50758,0.942730188369751,0.017932651564478874,-0.05724380910396576,0.32811790704727173,0.13396108150482178,-0.23170208930969238,0.039682310074567795,"[0.0, 0.0, 0.0, 0.0]",0.4830702543258667,0.49516236782073975,0.0,0.56233149766922,0.4441070258617401,0.0,50715007,3,369991080,-1220634955,0,65535,65535,79,4027,255,0,0,0,0,0,0,10,0,192,0,3,3,"array('B', [253, 30, 0, 0, 214, 1, 0, 1, 24, 0, 0, 13, 83, 92, 2, 0, 0, 0, 0, 86, 157, 13, 22, 131, 150, 62, 183, 0, 0, 0, 0, 255, 255, 255, 255, 4, 0, 0, 0, 3, 255, 88])"
RAW_RPM,1,0.18254372477531433,50758,0.942730188369751,0.017932651564478874,-0.05724380910396576,0.32811790704727173,0.13396108150482178,-0.23170208930969238,0.039682310074567795,"[0.0, 0.0, 0.0, 0.0]",0.4830702543258667,0.49516236782073975,0.0,0.56233149766922,0.4441070258617401,0.0,50715007,3,369991080,-1220634955,0,65535,65535,79,4027,255,0,0,0,0,0,0,10,0,192,0,3,3,"array('B', [253, 30, 0, 0, 214, 1, 0, 1, 24, 0, 0, 13, 83, 92, 2, 0, 0, 0, 0, 86, 157, 13, 22, 131, 150, 62, 183, 0, 0, 0, 0, 255, 255, 255, 255, 4, 0, 0, 0, 3, 255, 88])"
RAW_RPM,2,0.032357409596443176,50758,0.942730188369751,0.017932651564478874,-0.05724380910396576,0.32811790704727173,0.13396108150482178,-0.23170208930969238,0.039682310074567795,"[0.0, 0.0, 0.0, 0.0]",0.4830702543258667,0.49516236782073975,0.0,0.56233149766922,0.4441070258617401,0.0,50715007,3,369991080,-1220634955,0,65535,65535,79,4027,255,0,0,0,0,0,0,10,0,192,0,3,3,"array('B', [253, 30, 0, 0, 214, 1, 0, 1, 24, 0, 0, 13, 83, 92, 2, 0, 0, 0, 0, 86, 157, 13, 22, 131, 150, 62, 183, 0, 0, 0, 0, 255, 255, 255, 255, 4, 0, 0, 0, 3, 255, 88])"
ATTITUDE_QUATERNION,2,0.032357409596443176,50809,0.9424991011619568,0.030241558328270912,-0.06254454702138901,0.3269086182117462,-0.1757739931344986,-0.04314452409744263,0.13715697824954987,"[0.0, 0.0, 0.0, 0.0]",0.4830702543258667,0.49516236782073975,0.0,0.56233149766922,0.4441070258617401,0.0,50715007,3,369991080,-1220634955,0,65535,65535,79,4027,255,0,0,0,0,0,0,10,0,192,0,3,3,"array('B', [253, 30, 0, 0, 214, 1, 0, 1, 24, 0, 0, 13, 83, 92, 2, 0, 0, 0, 0, 86, 157, 13, 22, 131, 150, 62, 183, 0, 0, 0, 0, 255, 255, 255, 255, 4, 0, 0, 0, 3, 255, 88])"
LOCAL_POSITION_NED,2,0.032357409596443176,50809,0.9424991011619568,0.030241558328270912,-0.06254454702138901,0.3269086182117462,-0.1757739931344986,-0.04314452409744263,0.13715697824954987,"[0.0, 0.0, 0.0, 0.0]",0.5118966102600098,0.518015444278717,0.0,0.5831289291381836,0.461788147687912,0.0,50715007,3,369991080,-1220634955,0,65535,65535,79,4027,255,0,0,0,0,0,0,10,0,192,0,3,3,"array('B', [253, 30, 0, 0, 214, 1, 0, 1, 24, 0, 0, 13, 83, 92, 2, 0, 0, 0, 0, 86, 157, 13, 22, 131, 150, 62, 183, 0, 0, 0, 0, 255, 255, 255, 255, 4, 0, 0, 0, 3, 255, 88])"
GPS_RAW_INT,2,0.032357409596443176,50809,0.9424991011619568,0.030241558328270912,-0.06254454702138901,0.3269086182117462,-0.1757739931344986,-0.04314452409744263,0.13715697824954987,"[0.0, 0.0, 0.0, 0.0]",0.5118966102600098,0.518015444278717,0.0,0.5831289291381836,0.461788147687912,0.0,50816006,3,369991083,-1220634953,0,65535,65535,66,3613,255,0,0,0,0,0,0,10,0,192,0,3,3,"array('B', [253, 30, 0, 0, 214, 1, 0, 1, 24, 0, 0, 13, 83, 92, 2, 0, 0, 0, 0, 86, 157, 13, 22, 131, 150, 62, 183, 0, 0, 0, 0, 255, 255, 255, 255, 4, 0, 0, 0, 3, 255, 88])"
RAW_RPM,0,0.14841264486312866,50809,0.9424991011619568,0.030241558328270912,-0.06254454702138901,0.3269086182117462,-0.1757739931344986,-0.04314452409744263,0.13715697824954987,"[0.0, 0.0, 0.0, 0.0]",0.5118966102600098,0.518015444278717,0.0,0.5831289291381836,0.461788147687912,0.0,50816006,3,369991083,-1220634953,0,65535,65535,66,3613,255,0,0,0,0,0,0,10,0,192,0,3,3,"array('B', [253, 30, 0, 0, 214, 1, 0, 1, 24, 0, 0, 13, 83, 92, 2, 0, 0, 0, 0, 86, 157, 13, 22, 131, 150, 62, 183, 0, 0, 0, 0, 255, 255, 255, 255, 4, 0, 0, 0, 3, 255, 88])"
RAW_RPM,1,0.18944662809371948,50809,0.9424991011619568,0.030241558328270912,-0.06254454702138901,0.3269086182117462,-0.1757739931344986,-0.04314452409744263,0.13715697824954987,"[0.0, 0.0, 0.0, 0.0]",0.5118966102600098,0.518015444278717,0.0,0.5831289291381836,0.461788147687912,0.0,50816006,3,369991083,-1220634953,0,65535,65535,66,3613,255,0,0,0,0,0,0,10,0,192,0,3,3,"array('B', [253, 30, 0, 0, 214, 1, 0, 1, 24, 0, 0, 13, 83, 92, 2, 0, 0, 0, 0, 86, 157, 13, 22, 131, 150, 62, 183, 0, 0, 0, 0, 255, 255, 255, 255, 4, 0, 0, 0, 3, 255, 88])"
RAW_RPM,2,0.0359814390540123,50809,0.9424991011619568,0.030241558328270912,-0.06254454702138901,0.3269086182117462,-0.1757739931344986,-0.04314452409744263,0.13715697824954987,"[0.0, 0.0, 0.0, 0.0]",0.5118966102600098,0.518015444278717,0.0,0.5831289291381836,0.461788147687912,0.0,50816006,3,369991083,-1220634953,0,65535,65535,66,3613,255,0,0,0,0,0,0,10,0,192,0,3,3,"array('B', [253, 30, 0, 0, 214, 1, 0, 1, 24, 0, 0, 13, 83, 92, 2, 0, 0, 0, 0, 86, 157, 13, 22, 131, 150, 62, 183, 0, 0, 0, 0, 255, 255, 255, 255, 4, 0, 0, 0, 3, 255, 88])"
ATTITUDE_QUATERNION,2,0.0359814390540123,50860,0.9427294731140137,0.021458914503455162,-0.06399240344762802,0.3266585171222687,0.2271745800971985,0.034089501947164536,0.07723402976989746,"[0.0, 0.0, 0.0, 0.0]",0.5118966102600098,0.518015444278717,0.0,0.5831289291381836,0.461788147687912,0.0,50816006,3,369991083,-1220634953,0,65535,65535,66,3613,255,0,0,0,0,0,0,10,0,192,0,3,3,"array('B', [253, 30, 0, 0, 214, 1, 0, 1, 24, 0, 0, 13, 83, 92, 2, 0, 0, 0, 0, 86, 157, 13, 22, 131, 150, 62, 183, 0, 0, 0, 0, 255, 255, 255, 255, 4, 0, 0, 0, 3, 255, 88])"
LOCAL_POSITION_NED,2,0.0359814390540123,50860,0.9427294731140137,0.021458914503455162,-0.06399240344762802,0.3266585171222687,0.2271745800971985,0.034089501947164536,0.07723402976989746,"[0.0, 0.0, 0.0, 0.0]",0.5415369272232056,0.5414801836013794,0.0,0.6017317175865173,0.47560203075408936,0.0,50816006,3,369991083,-1220634953,0,65535,65535,66,3613,255,0,0,0,0,0,0,10,0,192,0,3,3,"array('B', [253, 30, 0, 0, 214, 1, 0, 1, 24, 0, 0, 13, 83, 92, 2, 0, 0, 0, 0, 86, 157, 13, 22, 131, 150, 62, 183, 0, 0, 0, 0, 255, 255, 255, 255, 4, 0, 0, 0, 3, 255, 88])"
RAW_RPM,0,0.059058260172605515,50860,0.9427294731140137,0.021458914503455162,-0.06399240344762802,0.3266585171222687,0.2271745800971985,0.034089501947164536,0.07723402976989746,"[0.0, 0.0, 0.0, 0.0]",0.5415369272232056,0.5414801836013794,0.0,0.6017317175865173,0.47560203075408936,0.0,50816006,3,369991083,-1220634953,0,65535,65535,66,3613,255,0,0,0,0,0,0,10,0,192,0,3,3,"array('B', [253, 30, 0, 0, 214, 1, 0, 1, 24, 0, 0, 13, 83, 92, 2, 0, 0, 0, 0, 86, 157, 13, 22, 131, 150, 62, 183, 0, 0, 0, 0, 255, 255, 255, 255, 4, 0, 0, 0, 3, 255, 88])"
RAW_RPM,1,0.2473544031381607,50860,0.9427294731140137,0.021458914503455162,-0.06399240344762802,0.3266585171222687,0.2271745800971985,0.034089501947164536,0.07723402976989746,"[0.0, 0.0, 0.0, 0.0]",0.5415369272232056,0.5414801836013794,0.0,0.6017317175865173,0.47560203075408936,0.0,50816006,3,369991083,-1220634953,0,65535,65535,66,3613,255,0,0,0,0,0,0,10,0,192,0,3,3,"array('B', [253, 30, 0, 0, 214, 1, 0, 1, 24, 0, 0, 13, 83, 92, 2, 0, 0, 0, 0, 86, 157, 13, 22, 131, 150, 62, 183, 0, 0, 0, 0, 255, 255, 255, 255, 4, 0, 0, 0, 3, 255, 88])"
RAW_RPM,2,0.0393466092646122,50860,0.9427294731140137,0.021458914503455162,-0.06399240344762802,0.3266585171222687,0.2271745800971985,0.034089501947164536,0.07723402976989746,"[0.0, 0.0, 0.0, 0.0]",0.5415369272232056,0.5414801836013794,0.0,0.6017317175865173,0.47560203075408936,0.0,50816006,3,369991083,-1220634953,0,65535,65535,66,3613,255,0,0,0,0,0,0,10,0,192,0,3,3,"array('B', [253, 30, 0, 0, 214, 1, 0, 1, 24, 0, 0, 13, 83, 92, 2, 0, 0, 0, 0, 86, 157, 13, 22, 131, 150, 62, 183, 0, 0, 0, 0, 255, 255, 255, 255, 4, 0, 0, 0, 3, 255, 88])"
ATTITUDE_QUATERNION,2,0.0393466092646122,50911,0.9431664943695068,0.01895144023001194,-0.06435827910900116,0.325478196144104,-0.04713939130306244,0.03222523257136345,0.07350549101829529,"[0.0, 0.0, 0.0, 0.0]",0.5415369272232056,0.5414801836013794,0.0,0.6017317175865173,0.47560203075408936,0.0,50816006,3,369991083,-1220634953,0,65535,65535,66,3613,255,0,0,0,0,0,0,10,0,192,0,3,3,"array('B', [253, 30, 0, 0, 214, 1, 0, 1, 24, 0, 0, 13, 83, 92, 2, 0, 0, 0, 0, 86, 157, 13, 22, 131, 150, 62, 183, 0, 0, 0, 0, 255, 255, 255, 255, 4, 0, 0, 0, 3, 255, 88])"
LOCAL_POSITION_NED,2,0.0393466092646122,50911,0.9431664943695068,0.01895144023001194,-0.06435827910900116,0.325478196144104,-0.04713939130306244,0.03222523257136345,0.07350549101829529,"[0.0, 0.0, 0.0, 0.0]",0.5713053345680237,0.5649428367614746,0.0,0.5899350047111511,0.462202250957489,0.0,50816006,3,369991083,-1220634953,0,65535,65535,66,3613,255,0,0,0,0,0,0,10,0,192,0,3,3,"array('B', [253, 30, 0, 0, 214, 1, 0, 1, 24, 0, 0, 13, 83, 92, 2, 0, 0, 0, 0, 86, 157, 13, 22, 131, 150, 62, 183, 0, 0, 0, 0, 255, 255, 255, 255, 4, 0, 0, 0, 3, 255, 88])"
GPS_RAW_INT,2,0.0393466092646122,50911,0.9431664943695068,0.01895144023001194,-0.06435827910900116,0.325478196144104,-0.04713939130306244,0.03222523257136345,0.07350549101829529,"[0.0, 0.0, 0.0, 0.0]",0.5713053345680237,0.5649428367614746,0.0,0.5899350047111511,0.462202250957489,0.0,50917005,3,369991090,-1220634946,0,65535,65535,70,3756,255,0,0,0,0,0,0,10,0,192,0,3,3,"array('B', [253, 30, 0, 0, 214, 1, 0, 1, 24, 0, 0, 13, 83, 92, 2, 0, 0, 0, 0, 86, 157, 13, 22, 131, 150, 62, 183, 0, 0, 0, 0, 255, 255, 255, 255, 4, 0, 0, 0, 3, 255, 88])"
RAW_RPM,0,0.0,50911,0.9431664943695068,0.01895144023001194,-0.06435827910900116,0.325478196144104,-0.04713939130306244,0.03222523257136345,0.07350549101829529,"[0.0, 0.0, 0.0, 0.0]",0.5713053345680237,0.5649428367614746,0.0,0.5899350047111511,0.462202250957489,0.0,50917005,3,369991090,-1220634946,0,65535,65535,70,3756,255,0,0,0,0,0,0,10,0,192,0,3,3,"array('B', [253, 30, 0, 0, 214, 1, 0, 1, 24, 0, 0, 13, 83, 92, 2, 0, 0, 0, 0, 86, 157, 13, 22, 131, 150, 62, 183, 0, 0, 0, 0, 255, 255, 255, 255, 4, 0, 0, 0, 3, 255, 88])"
RAW_RPM,1,0.21092236042022705,50911,0.9431664943695068,0.01895144023001194,-0.06435827910900116,0.325478196144104,-0.04713939130306244,0.03222523257136345,0.07350549101829529,"[0.0, 0.0, 0.0, 0.0]",0.5713053345680237,0.5649428367614746,0.0,0.5899350047111511,0.462202250957489,0.0,50917005,3,369991090,-1220634946,0,65535,65535,70,3756,255,0,0,0,0,0,0,10,0,192,0,3,3,"array('B', [253, 30, 0, 0, 214, 1, 0, 1, 24, 0, 0, 13, 83, 92, 2, 0, 0, 0, 0, 86, 157, 13, 22, 131, 150, 62, 183, 0, 0, 0, 0, 255, 255, 255, 255, 4, 0, 0, 0, 3, 255, 88])"
RAW_RPM,2,0.0427117794752121,50911,0.9431664943695068,0.01895144023001194,-0.06435827910900116,0.325478196144104,-0.04713939130306244,0.03222523257136345,0.07350549101829529,"[0.0, 0.0, 0.0, 0.0]",0.5713053345680237,0.5649428367614746,0.0,0.5899350047111511,0.462202250957489,0.0,50917005,3,369991090,-1220634946,0,65535,65535,70,3756,255,0,0,0,0,0,0,10,0,192,0,3,3,"array('B', [253, 30, 0, 0, 214, 1, 0, 1, 24, 0, 0, 13, 83, 92, 2, 0, 0, 0, 0, 86, 157, 13, 22, 131, 150, 62, 183, 0, 0, 0, 0, 255, 255, 255, 255, 4, 0, 0, 0, 3, 255, 88])"
