mavpackettype,index,frequency,time_boot_ms,q1,q2,q3,q4,rollspeed,pitchspeed,yawspeed,repr_offset_q,x,y,z,vx,vy,vz,time_usec,fix_type,lat,lon,alt,eph,epv,vel,cog,satellites_visible,alt_ellipsoid,h_acc,v_acc,vel_acc,hdg_acc,yaw,type,autopilot,base_mode,custom_mode,system_status,mavlink_version
RAW_RPM,1,0.14841264486312866,308766,-0.30408379435539246,-0.06147848442196846,-0.188424214720726,-0.9317992329597473,0.14115184545516968,-0.10386645048856735,-0.27511292695999146,"[0.0, 0.0, 0.0, 0.0]",-9.685463905334473,14.925508499145508,0.0,-0.3837374746799469,0.27778109908103943,0.0,308769003,3,369992766,-1220636496,0,65535,65535,50,33585,255,0,0,0,0,0,0,10,0,192,0,3,3
RAW_RPM,2,0.35955554246902466,308766,-0.30408379435539246,-0.06147848442196846,-0.188424214720726,-0.9317992329597473,0.14115184545516968,-0.10386645048856735,-0.27511292695999146,"[0.0, 0.0, 0.0, 0.0]",-9.685463905334473,14.925508499145508,0.0,-0.3837374746799469,0.27778109908103943,0.0,308769003,3,369992766,-1220636496,0,65535,65535,50,33585,255,0,0,0,0,0,0,10,0,192,0,3,3
ATTITUDE_QUATERNION,2,0.35955554246902466,308817,-0.30141371488571167,-0.07098755240440369,-0.2093333750963211,-0.9275183081626892,0.08602272719144821,-0.002396918134763837,-0.46446946263313293,"[0.0, 0.0, 0.0, 0.0]",-9.685463905334473,14.925508499145508,0.0,-0.3837374746799469,0.27778109908103943,0.0,308769003,3,369992766,-1220636496,0,65535,65535,50,33585,255,0,0,0,0,0,0,10,0,192,0,3,3
LOCAL_POSITION_NED,2,0.35955554246902466,308817,-0.30141371488571167,-0.07098755240440369,-0.2093333750963211,-0.9275183081626892,0.08602272719144821,-0.002396918134763837,-0.46446946263313293,"[0.0, 0.0, 0.0, 0.0]",-9.70584774017334,14.94017505645752,0.0,-0.42359688878059387,0.3046323359012604,0.0,308769003,3,369992766,-1220636496,0,65535,65535,50,33585,255,0,0,0,0,0,0,10,0,192,0,3,3
RAW_RPM,0,0.22817964851856232,308817,-0.30141371488571167,-0.07098755240440369,-0.2093333750963211,-0.9275183081626892,0.08602272719144821,-0.002396918134763837,-0.46446946263313293,"[0.0, 0.0, 0.0, 0.0]",-9.70584774017334,14.94017505645752,0.0,-0.42359688878059387,0.3046323359012604,0.0,308769003,3,369992766,-1220636496,0,65535,65535,50,33585,255,0,0,0,0,0,0,10,0,192,0,3,3
RAW_RPM,1,0.22587867081165314,308817,-0.30141371488571167,-0.07098755240440369,-0.2093333750963211,-0.9275183081626892,0.08602272719144821,-0.002396918134763837,-0.46446946263313293,"[0.0, 0.0, 0.0, 0.0]",-9.70584774017334,14.94017505645752,0.0,-0.42359688878059387,0.3046323359012604,0.0,308769003,3,369992766,-1220636496,0,65535,65535,50,33585,255,0,0,0,0,0,0,10,0,192,0,3,3
RAW_RPM,2,0.3608498275279999,308817,-0.30141371488571167,-0.07098755240440369,-0.2093333750963211,-0.9275183081626892,0.08602272719144821,-0.002396918134763837,-0.46446946263313293,"[0.0, 0.0, 0.0, 0.0]",-9.70584774017334,14.94017505645752,0.0,-0.42359688878059387,0.3046323359012604,0.0,308769003,3,369992766,-1220636496,0,65535,65535,50,33585,255,0,0,0,0,0,0,10,0,192,0,3,3
ATTITUDE_QUATERNION,2,0.3608498275279999,308868,-0.3001132905483246,-0.07797880470752716,-0.22940973937511444,-0.9226172566413879,0.04634041711688042,0.22557663917541504,-0.45861032605171204,"[0.0, 0.0, 0.0, 0.0]",-9.70584774017334,14.94017505645752,0.0,-0.42359688878059387,0.3046323359012604,0.0,308769003,3,369992766,-1220636496,0,65535,65535,50,33585,255,0,0,0,0,0,0,10,0,192,0,3,3
LOCAL_POSITION_NED,2,0.3608498275279999,308868,-0.3001132905483246,-0.07797880470752716,-0.22940973937511444,-0.9226172566413879,0.04634041711688042,0.22557663917541504,-0.45861032605171204,"[0.0, 0.0, 0.0, 0.0]",-9.728584289550781,14.95654010772705,0.0,-0.47863665223121643,0.3449121117591858,0.0,308769003,3,369992766,-1220636496,0,65535,65535,50,33585,255,0,0,0,0,0,0,10,0,192,0,3,3
GPS_RAW_INT,2,0.3608498275279999,308868,-0.3001132905483246,-0.07797880470752716,-0.22940973937511444,-0.9226172566413879,0.04634041711688042,0.22557663917541504,-0.45861032605171204,"[0.0, 0.0, 0.0, 0.0]",-9.728584289550781,14.95654010772705,0.0,-0.47863665223121643,0.3449121117591858,0.0,308870008,3,369992768,-1220636498,0,65535,65535,48,33911,255,0,0,0,0,0,0,10,0,192,0,3,3
RAW_RPM,0,0.0057524279691278934,308868,-0.3001132905483246,-0.07797880470752716,-0.22940973937511444,-0.9226172566413879,0.04634041711688042,0.22557663917541504,-0.45861032605171204,"[0.0, 0.0, 0.0, 0.0]",-9.728584289550781,14.95654010772705,0.0,-0.47863665223121643,0.3449121117591858,0.0,308870008,3,369992768,-1220636498,0,65535,65535,48,33911,255,0,0,0,0,0,0,10,0,192,0,3,3
RAW_RPM,1,0.19328159093856812,308868,-0.3001132905483246,-0.07797880470752716,-0.22940973937511444,-0.9226172566413879,0.04634041711688042,0.22557663917541504,-0.45861032605171204,"[0.0, 0.0, 0.0, 0.0]",-9.728584289550781,14.95654010772705,0.0,-0.47863665223121643,0.3449121117591858,0.0,308870008,3,369992768,-1220636498,0,65535,65535,48,33911,255,0,0,0,0,0,0,10,0,192,0,3,3
RAW_RPM,2,0.36266183853149414,308868,-0.3001132905483246,-0.07797880470752716,-0.22940973937511444,-0.9226172566413879,0.04634041711688042,0.22557663917541504,-0.45861032605171204,"[0.0, 0.0, 0.0, 0.0]",-9.728584289550781,14.95654010772705,0.0,-0.47863665223121643,0.3449121117591858,0.0,308870008,3,369992768,-1220636498,0,65535,65535,48,33911,255,0,0,0,0,0,0,10,0,192,0,3,3
ATTITUDE_QUATERNION,2,0.36266183853149414,308919,-0.30251815915107727,-0.06973044574260712,-0.2519517242908478,-0.9165918827056885,0.17417603731155396,-0.04154658317565918,-0.3957578241825104,"[0.0, 0.0, 0.0, 0.0]",-9.728584289550781,14.95654010772705,0.0,-0.47863665223121643,0.3449121117591858,0.0,308870008,3,369992768,-1220636498,0,65535,65535,48,33911,255,0,0,0,0,0,0,10,0,192,0,3,3
LOCAL_POSITION_NED,2,0.36266183853149414,308919,-0.30251815915107727,-0.06973044574260712,-0.2519517242908478,-0.9165918827056885,0.17417603731155396,-0.04154658317565918,-0.3957578241825104,"[0.0, 0.0, 0.0, 0.0]",-9.753331184387207,14.97436809539795,0.0,-0.4937191605567932,0.3548029065132141,0.0,308870008,3,369992768,-1220636498,0,65535,65535,48,33911,255,0,0,0,0,0,0,10,0,192,0,3,3
RAW_RPM,0,0.009587380103766918,308919,-0.30251815915107727,-0.06973044574260712,-0.2519517242908478,-0.9165918827056885,0.17417603731155396,-0.04154658317565918,-0.3957578241825104,"[0.0, 0.0, 0.0, 0.0]",-9.753331184387207,14.97436809539795,0.0,-0.4937191605567932,0.3548029065132141,0.0,308870008,3,369992768,-1220636498,0,65535,65535,48,33911,255,0,0,0,0,0,0,10,0,192,0,3,3
RAW_RPM,1,0.18369419872760773,308919,-0.30251815915107727,-0.06973044574260712,-0.2519517242908478,-0.9165918827056885,0.17417603731155396,-0.04154658317565918,-0.3957578241825104,"[0.0, 0.0, 0.0, 0.0]",-9.753331184387207,14.97436809539795,0.0,-0.4937191605567932,0.3548029065132141,0.0,308870008,3,369992768,-1220636498,0,65535,65535,48,33911,255,0,0,0,0,0,0,10,0,192,0,3,3
RAW_RPM,2,0.3636972904205322,308919,-0.30251815915107727,-0.06973044574260712,-0.2519517242908478,-0.9165918827056885,0.17417603731155396,-0.04154658317565918,-0.3957578241825104,"[0.0, 0.0, 0.0, 0.0]",-9.753331184387207,14.97436809539795,0.0,-0.4937191605567932,0.3548029065132141,0.0,308870008,3,369992768,-1220636498,0,65535,65535,48,33911,255,0,0,0,0,0,0,10,0,192,0,3,3
ATTITUDE_QUATERNION,2,0.3636972904205322,308970,-0.3076290488243103,-0.06834157556295395,-0.2685714662075043,-0.9102544784545898,-0.26792216300964355,0.009853996336460114,-0.5180006623268127,"[0.0, 0.0, 0.0, 0.0]",-9.753331184387207,14.97436809539795,0.0,-0.4937191605567932,0.3548029065132141,0.0,308870008,3,369992768,-1220636498,0,65535,65535,48,33911,255,0,0,0,0,0,0,10,0,192,0,3,3
LOCAL_POSITION_NED,2,0.3636972904205322,308970,-0.3076290488243103,-0.06834157556295395,-0.2685714662075043,-0.9102544784545898,-0.26792216300964355,0.009853996336460114,-0.5180006623268127,"[0.0, 0.0, 0.0, 0.0]",-9.777324676513672,14.991780281066895,0.0,-0.4705798327922821,0.3439686596393585,0.0,308870008,3,369992768,-1220636498,0,65535,65535,48,33911,255,0,0,0,0,0,0,10,0,192,0,3,3
GPS_RAW_INT,2,0.3636972904205322,308970,-0.3076290488243103,-0.06834157556295395,-0.2685714662075043,-0.9102544784545898,-0.26792216300964355,0.009853996336460114,-0.5180006623268127,"[0.0, 0.0, 0.0, 0.0]",-9.777324676513672,14.991780281066895,0.0,-0.4705798327922821,0.3439686596393585,0.0,308971005,3,369992775,-1220636500,0,65535,65535,57,34438,255,0,0,0,0,0,0,10,0,192,0,3,3
HEARTBEAT,2,0.3636972904205322,308970,-0.3076290488243103,-0.06834157556295395,-0.2685714662075043,-0.9102544784545898,-0.26792216300964355,0.009853996336460114,-0.5180006623268127,"[0.0, 0.0, 0.0, 0.0]",-9.777324676513672,14.991780281066895,0.0,-0.4705798327922821,0.3439686596393585,0.0,308971005,3,369992775,-1220636500,0,65535,65535,57,34438,255,0,0,0,0,0,0,10,0,192,0,3,3
RAW_RPM,0,0.12195147573947906,308970,-0.3076290488243103,-0.06834157556295395,-0.2685714662075043,-0.9102544784545898,-0.26792216300964355,0.009853996336460114,-0.5180006623268127,"[0.0, 0.0, 0.0, 0.0]",-9.777324676513672,14.991780281066895,0.0,-0.4705798327922821,0.3439686596393585,0.0,308971005,3,369992775,-1220636500,0,65535,65535,57,34438,255,0,0,0,0,0,0,10,0,192,0,3,3
RAW_RPM,1,0.2695971429347992,308970,-0.3076290488243103,-0.06834157556295395,-0.2685714662075043,-0.9102544784545898,-0.26792216300964355,0.009853996336460114,-0.5180006623268127,"[0.0, 0.0, 0.0, 0.0]",-9.777324676513672,14.991780281066895,0.0,-0.4705798327922821,0.3439686596393585,0.0,308971005,3,369992775,-1220636500,0,65535,65535,57,34438,255,0,0,0,0,0,0,10,0,192,0,3,3
RAW_RPM,2,0.3621441423892975,308970,-0.3076290488243103,-0.06834157556295395,-0.2685714662075043,-0.9102544784545898,-0.26792216300964355,0.009853996336460114,-0.5180006623268127,"[0.0, 0.0, 0.0, 0.0]",-9.777324676513672,14.991780281066895,0.0,-0.4705798327922821,0.3439686596393585,0.0,308971005,3,369992775,-1220636500,0,65535,65535,57,34438,255,0,0,0,0,0,0,10,0,192,0,3,3
ATTITUDE_QUATERNION,2,0.3621441423892975,309021,-0.3194122910499573,-0.05767679214477539,-0.2837470769882202,-0.9022953510284424,-0.06098824739456177,0.14940789341926575,-0.5741950273513794,"[0.0, 0.0, 0.0, 0.0]",-9.777324676513672,14.991780281066895,0.0,-0.4705798327922821,0.3439686596393585,0.0,308971005,3,369992775,-1220636500,0,65535,65535,57,34438,255,0,0,0,0,0,0,10,0,192,0,3,3
LOCAL_POSITION_NED,2,0.3621441423892975,309021,-0.3194122910499573,-0.05767679214477539,-0.2837470769882202,-0.9022953510284424,-0.06098824739456177,0.14940789341926575,-0.5741950273513794,"[0.0, 0.0, 0.0, 0.0]",-9.800592422485352,15.009148597717285,0.0,-0.4671819508075714,0.35439372062683105,0.0,308971005,3,369992775,-1220636500,0,65535,65535,57,34438,255,0,0,0,0,0,0,10,0,192,0,3,3
RAW_RPM,0,0.25003886222839355,309021,-0.3194122910499573,-0.05767679214477539,-0.2837470769882202,-0.9022953510284424,-0.06098824739456177,0.14940789341926575,-0.5741950273513794,"[0.0, 0.0, 0.0, 0.0]",-9.800592422485352,15.009148597717285,0.0,-0.4671819508075714,0.35439372062683105,0.0,308971005,3,369992775,-1220636500,0,65535,65535,57,34438,255,0,0,0,0,0,0,10,0,192,0,3,3
RAW_RPM,1,0.23393207788467407,309021,-0.3194122910499573,-0.05767679214477539,-0.2837470769882202,-0.9022953510284424,-0.06098824739456177,0.14940789341926575,-0.5741950273513794,"[0.0, 0.0, 0.0, 0.0]",-9.800592422485352,15.009148597717285,0.0,-0.4671819508075714,0.35439372062683105,0.0,308971005,3,369992775,-1220636500,0,65535,65535,57,34438,255,0,0,0,0,0,0,10,0,192,0,3,3
RAW_RPM,2,0.3631795644760132,309021,-0.3194122910499573,-0.05767679214477539,-0.2837470769882202,-0.9022953510284424,-0.06098824739456177,0.14940789341926575,-0.5741950273513794,"[0.0, 0.0, 0.0, 0.0]",-9.800592422485352,15.009148597717285,0.0,-0.4671819508075714,0.35439372062683105,0.0,308971005,3,369992775,-1220636500,0,65535,65535,57,34438,255,0,0,0,0,0,0,10,0,192,0,3,3
ATTITUDE_QUATERNION,2,0.3631795644760132,309072,-0.33218422532081604,-0.034742288291454315,-0.2975102365016937,-0.8943904042243958,0.2032053917646408,-0.18323107063770294,-0.5409045219421387,"[0.0, 0.0, 0.0, 0.0]",-9.800592422485352,15.009148597717285,0.0,-0.4671819508075714,0.35439372062683105,0.0,308971005,3,369992775,-1220636500,0,65535,65535,57,34438,255,0,0,0,0,0,0,10,0,192,0,3,3
LOCAL_POSITION_NED,2,0.3631795644760132,309072,-0.33218422532081604,-0.034742288291454315,-0.2975102365016937,-0.8943904042243958,0.2032053917646408,-0.18323107063770294,-0.5409045219421387,"[0.0, 0.0, 0.0, 0.0]",-9.825019836425781,15.027938842773438,0.0,-0.5038641691207886,0.3914501667022705,0.0,308971005,3,369992775,-1220636500,0,65535,65535,57,34438,255,0,0,0,0,0,0,10,0,192,0,3,3
GPS_RAW_INT,2,0.3631795644760132,309072,-0.33218422532081604,-0.034742288291454315,-0.2975102365016937,-0.8943904042243958,0.2032053917646408,-0.18323107063770294,-0.5409045219421387,"[0.0, 0.0, 0.0, 0.0]",-9.825019836425781,15.027938842773438,0.0,-0.5038641691207886,0.3914501667022705,0.0,309072772,3,369992779,-1220636500,0,65535,65535,61,34798,255,0,0,0,0,0,0,10,0,192,0,3,3
RAW_RPM,0,0.28800490498542786,309072,-0.33218422532081604,-0.034742288291454315,-0.2975102365016937,-0.8943904042243958,0.2032053917646408,-0.18323107063770294,-0.5409045219421387,"[0.0, 0.0, 0.0, 0.0]",-9.825019836425781,15.027938842773438,0.0,-0.5038641691207886,0.3914501667022705,0.0,309072772,3,369992779,-1220636500,0,65535,65535,61,34798,255,0,0,0,0,0,0,10,0,192,0,3,3
RAW_RPM,1,0.19903400540351868,309072,-0.33218422532081604,-0.034742288291454315,-0.2975102365016937,-0.8943904042243958,0.2032053917646408,-0.18323107063770294,-0.5409045219421387,"[0.0, 0.0, 0.0, 0.0]",-9.825019836425781,15.027938842773438,0.0,-0.5038641691207886,0.3914501667022705,0.0,309072772,3,369992779,-1220636500,0,65535,65535,61,34798,255,0,0,0,0,0,0,10,0,192,0,3,3
RAW_RPM,2,0.35800236463546753,309072,-0.33218422532081604,-0.034742288291454315,-0.2975102365016937,-0.8943904042243958,0.2032053917646408,-0.18323107063770294,-0.5409045219421387,"[0.0, 0.0, 0.0, 0.0]",-9.825019836425781,15.027938842773438,0.0,-0.5038641691207886,0.3914501667022705,0.0,309072772,3,369992779,-1220636500,0,65535,65535,61,34798,255,0,0,0,0,0,0,10,0,192,0,3,3
ATTITUDE_QUATERNION,2,0.35800236463546753,309123,-0.34790855646133423,-0.016117336228489876,-0.3194195330142975,-0.8812894225120544,0.18243208527565002,-0.21652160584926605,-0.5382412672042847,"[0.0, 0.0, 0.0, 0.0]",-9.825019836425781,15.027938842773438,0.0,-0.5038641691207886,0.3914501667022705,0.0,309072772,3,369992779,-1220636500,0,65535,65535,61,34798,255,0,0,0,0,0,0,10,0,192,0,3,3
LOCAL_POSITION_NED,2,0.35800236463546753,309123,-0.34790855646133423,-0.016117336228489876,-0.3194195330142975,-0.8812894225120544,0.18243208527565002,-0.21652160584926605,-0.5382412672042847,"[0.0, 0.0, 0.0, 0.0]",-9.851634979248047,15.04910659790039,0.0,-0.5499957799911499,0.4437049925327301,0.0,309072772,3,369992779,-1220636500,0,65535,65535,61,34798,255,0,0,0,0,0,0,10,0,192,0,3,3
GPS_RAW_INT,2,0.35800236463546753,309123,-0.34790855646133423,-0.016117336228489876,-0.3194195330142975,-0.8812894225120544,0.18243208527565002,-0.21652160584926605,-0.5382412672042847,"[0.0, 0.0, 0.0, 0.0]",-9.851634979248047,15.04910659790039,0.0,-0.5499957799911499,0.4437049925327301,0.0,309173008,3,369992786,-1220636498,0,65535,65535,64,35510,255,0,0,0,0,0,0,10,0,192,0,3,3
RAW_RPM,0,0.057140786200761795,309123,-0.34790855646133423,-0.016117336228489876,-0.3194195330142975,-0.8812894225120544,0.18243208527565002,-0.21652160584926605,-0.5382412672042847,"[0.0, 0.0, 0.0, 0.0]",-9.851634979248047,15.04910659790039,0.0,-0.5499957799911499,0.4437049925327301,0.0,309173008,3,369992786,-1220636498,0,65535,65535,64,35510,255,0,0,0,0,0,0,10,0,192,0,3,3
RAW_RPM,1,0.26921364665031433,309123,-0.34790855646133423,-0.016117336228489876,-0.3194195330142975,-0.8812894225120544,0.18243208527565002,-0.21652160584926605,-0.5382412672042847,"[0.0, 0.0, 0.0, 0.0]",-9.851634979248047,15.04910659790039,0.0,-0.5499957799911499,0.4437049925327301,0.0,309173008,3,369992786,-1220636498,0,65535,65535,64,35510,255,0,0,0,0,0,0,10,0,192,0,3,3
RAW_RPM,2,0.3590378165245056,309123,-0.34790855646133423,-0.016117336228489876,-0.3194195330142975,-0.8812894225120544,0.18243208527565002,-0.21652160584926605,-0.5382412672042847,"[0.0, 0.0, 0.0, 0.0]",-9.851634979248047,15.04910659790039,0.0,-0.5499957799911499,0.4437049925327301,0.0,309173008,3,369992786,-1220636498,0,65535,65535,64,35510,255,0,0,0,0,0,0,10,0,192,0,3,3
ATTITUDE_QUATERNION,2,0.3590378165245056,309174,-0.36576199531555176,0.00986421387642622,-0.33370742201805115,-0.8687693476676941,0.10013791173696518,-0.08975126594305038,-0.5467636585235596,"[0.0, 0.0, 0.0, 0.0]",-9.851634979248047,15.04910659790039,0.0,-0.5499957799911499,0.4437049925327301,0.0,309173008,3,369992786,-1220636498,0,65535,65535,64,35510,255,0,0,0,0,0,0,10,0,192,0,3,3
LOCAL_POSITION_NED,2,0.3590378165245056,309174,-0.36576199531555176,0.00986421387642622,-0.33370742201805115,-0.8687693476676941,0.10013791173696518,-0.08975126594305038,-0.5467636585235596,"[0.0, 0.0, 0.0, 0.0]",-9.87998104095459,15.072626113891602,0.0,-0.5745413899421692,0.4834745526313782,0.0,309173008,3,369992786,-1220636498,0,65535,65535,64,35510,255,0,0,0,0,0,0,10,0,192,0,3,3
RAW_RPM,0,0.21168935298919678,309174,-0.36576199531555176,0.00986421387642622,-0.33370742201805115,-0.8687693476676941,0.10013791173696518,-0.08975126594305038,-0.5467636585235596,"[0.0, 0.0, 0.0, 0.0]",-9.87998104095459,15.072626113891602,0.0,-0.5745413899421692,0.4834745526313782,0.0,309173008,3,369992786,-1220636498,0,65535,65535,64,35510,255,0,0,0,0,0,0,10,0,192,0,3,3
RAW_RPM,1,0.18331070244312286,309174,-0.36576199531555176,0.00986421387642622,-0.33370742201805115,-0.8687693476676941,0.10013791173696518,-0.08975126594305038,-0.5467636585235596,"[0.0, 0.0, 0.0, 0.0]",-9.87998104095459,15.072626113891602,0.0,-0.5745413899421692,0.4834745526313782,0.0,309173008,3,369992786,-1220636498,0,65535,65535,64,35510,255,0,0,0,0,0,0,10,0,192,0,3,3
RAW_RPM,2,0.3644738793373108,309174,-0.36576199531555176,0.00986421387642622,-0.33370742201805115,-0.8687693476676941,0.10013791173696518,-0.08975126594305038,-0.5467636585235596,"[0.0, 0.0, 0.0, 0.0]",-9.87998104095459,15.072626113891602,0.0,-0.5745413899421692,0.4834745526313782,0.0,309173008,3,369992786,-1220636498,0,65535,65535,64,35510,255,0,0,0,0,0,0,10,0,192,0,3,3
ATTITUDE_QUATERNION,2,0.3644738793373108,309225,-0.39142554998397827,0.041661981493234634,-0.34644725918769836,-0.8514838814735413,-0.04980263113975525,-0.1009368821978569,-0.5446330308914185,"[0.0, 0.0, 0.0, 0.0]",-9.87998104095459,15.072626113891602,0.0,-0.5745413899421692,0.4834745526313782,0.0,309173008,3,369992786,-1220636498,0,65535,65535,64,35510,255,0,0,0,0,0,0,10,0,192,0,3,3
LOCAL_POSITION_NED,2,0.3644738793373108,309226,-0.39142554998397827,0.041661981493234634,-0.34644725918769836,-0.8514838814735413,-0.04980263113975525,-0.1009368821978569,-0.5446330308914185,"[0.0, 0.0, 0.0, 0.0]",-9.913522720336914,15.101903915405273,0.0,-0.5544613599777222,0.4952602982521057,0.0,309173008,3,369992786,-1220636498,0,65535,65535,64,35510,255,0,0,0,0,0,0,10,0,192,0,3,3
GPS_RAW_INT,2,0.3644738793373108,309226,-0.39142554998397827,0.041661981493234634,-0.34644725918769836,-0.8514838814735413,-0.04980263113975525,-0.1009368821978569,-0.5446330308914185,"[0.0, 0.0, 0.0, 0.0]",-9.913522720336914,15.101903915405273,0.0,-0.5544613599777222,0.4952602982521057,0.0,309274005,3,369992793,-1220636500,0,65535,65535,76,35414,255,0,0,0,0,0,0,10,0,192,0,3,3
RAW_RPM,0,0.011121360585093498,309226,-0.39142554998397827,0.041661981493234634,-0.34644725918769836,-0.8514838814735413,-0.04980263113975525,-0.1009368821978569,-0.5446330308914185,"[0.0, 0.0, 0.0, 0.0]",-9.913522720336914,15.101903915405273,0.0,-0.5544613599777222,0.4952602982521057,0.0,309274005,3,369992793,-1220636500,0,65535,65535,76,35414,255,0,0,0,0,0,0,10,0,192,0,3,3
RAW_RPM,1,0.29644179344177246,309226,-0.39142554998397827,0.041661981493234634,-0.34644725918769836,-0.8514838814735413,-0.04980263113975525,-0.1009368821978569,-0.5446330308914185,"[0.0, 0.0, 0.0, 0.0]",-9.913522720336914,15.101903915405273,0.0,-0.5544613599777222,0.4952602982521057,0.0,309274005,3,369992793,-1220636500,0,65535,65535,76,35414,255,0,0,0,0,0,0,10,0,192,0,3,3
RAW_RPM,2,0.36499157547950745,309226,-0.39142554998397827,0.041661981493234634,-0.34644725918769836,-0.8514838814735413,-0.04980263113975525,-0.1009368821978569,-0.5446330308914185,"[0.0, 0.0, 0.0, 0.0]",-9.913522720336914,15.101903915405273,0.0,-0.5544613599777222,0.4952602982521057,0.0,309274005,3,369992793,-1220636500,0,65535,65535,76,35414,255,0,0,0,0,0,0,10,0,192,0,3,3
ATTITUDE_QUATERNION,2,0.36499157547950745,309276,-0.40755486488342285,0.06455899775028229,-0.36353811621665955,-0.8352073431015015,0.2924239933490753,-0.1320968121290207,-0.4695295989513397,"[0.0, 0.0, 0.0, 0.0]",-9.913522720336914,15.101903915405273,0.0,-0.5544613599777222,0.4952602982521057,0.0,309274005,3,369992793,-1220636500,0,65535,65535,76,35414,255,0,0,0,0,0,0,10,0,192,0,3,3
LOCAL_POSITION_NED,2,0.36499157547950745,309276,-0.40755486488342285,0.06455899775028229,-0.36353811621665955,-0.8352073431015015,0.2924239933490753,-0.1320968121290207,-0.4695295989513397,"[0.0, 0.0, 0.0, 0.0]",-9.941012382507324,15.127248764038086,0.0,-0.5546413660049438,0.5118892788887024,0.0,309274005,3,369992793,-1220636500,0,65535,65535,76,35414,255,0,0,0,0,0,0,10,0,192,0,3,3
RAW_RPM,0,0.22817964851856232,309276,-0.40755486488342285,0.06455899775028229,-0.36353811621665955,-0.8352073431015015,0.2924239933490753,-0.1320968121290207,-0.4695295989513397,"[0.0, 0.0, 0.0, 0.0]",-9.941012382507324,15.127248764038086,0.0,-0.5546413660049438,0.5118892788887024,0.0,309274005,3,369992793,-1220636500,0,65535,65535,76,35414,255,0,0,0,0,0,0,10,0,192,0,3,3
RAW_RPM,1,0.251572847366333,309276,-0.40755486488342285,0.06455899775028229,-0.36353811621665955,-0.8352073431015015,0.2924239933490753,-0.1320968121290207,-0.4695295989513397,"[0.0, 0.0, 0.0, 0.0]",-9.941012382507324,15.127248764038086,0.0,-0.5546413660049438,0.5118892788887024,0.0,309274005,3,369992793,-1220636500,0,65535,65535,76,35414,255,0,0,0,0,0,0,10,0,192,0,3,3
RAW_RPM,2,0.3621441423892975,309276,-0.40755486488342285,0.06455899775028229,-0.36353811621665955,-0.8352073431015015,0.2924239933490753,-0.1320968121290207,-0.4695295989513397,"[0.0, 0.0, 0.0, 0.0]",-9.941012382507324,15.127248764038086,0.0,-0.5546413660049438,0.5118892788887024,0.0,309274005,3,369992793,-1220636500,0,65535,65535,76,35414,255,0,0,0,0,0,0,10,0,192,0,3,3
ATTITUDE_QUATERNION,2,0.3621441423892975,309327,-0.41678038239479065,0.06620777398347855,-0.3759597837924957,-0.8249636292457581,0.1379559487104416,0.04181290790438652,-0.5560849905014038,"[0.0, 0.0, 0.0, 0.0]",-9.941012382507324,15.127248764038086,0.0,-0.5546413660049438,0.5118892788887024,0.0,309274005,3,369992793,-1220636500,0,65535,65535,76,35414,255,0,0,0,0,0,0,10,0,192,0,3,3
LOCAL_POSITION_NED,2,0.3621441423892975,309327,-0.41678038239479065,0.06620777398347855,-0.3759597837924957,-0.8249636292457581,0.1379559487104416,0.04181290790438652,-0.5560849905014038,"[0.0, 0.0, 0.0, 0.0]",-9.968865394592285,15.153816223144531,0.0,-0.5772120952606201,0.5539073348045349,0.0,309274005,3,369992793,-1220636500,0,65535,65535,76,35414,255,0,0,0,0,0,0,10,0,192,0,3,3
GPS_RAW_INT,2,0.3621441423892975,309327,-0.41678038239479065,0.06620777398347855,-0.3759597837924957,-0.8249636292457581,0.1379559487104416,0.04181290790438652,-0.5560849905014038,"[0.0, 0.0, 0.0, 0.0]",-9.968865394592285,15.153816223144531,0.0,-0.5772120952606201,0.5539073348045349,0.0,309375416,3,369992801,-1220636500,0,65535,65535,80,35722,255,0,0,0,0,0,0,10,0,192,0,3,3
RAW_RPM,0,0.2040194571018219,309327,-0.41678038239479065,0.06620777398347855,-0.3759597837924957,-0.8249636292457581,0.1379559487104416,0.04181290790438652,-0.5560849905014038,"[0.0, 0.0, 0.0, 0.0]",-9.968865394592285,15.153816223144531,0.0,-0.5772120952606201,0.5539073348045349,0.0,309375416,3,369992801,-1220636500,0,65535,65535,80,35722,255,0,0,0,0,0,0,10,0,192,0,3,3
RAW_RPM,1,0.18139323592185974,309327,-0.41678038239479065,0.06620777398347855,-0.3759597837924957,-0.8249636292457581,0.1379559487104416,0.04181290790438652,-0.5560849905014038,"[0.0, 0.0, 0.0, 0.0]",-9.968865394592285,15.153816223144531,0.0,-0.5772120952606201,0.5539073348045349,0.0,309375416,3,369992801,-1220636500,0,65535,65535,80,35722,255,0,0,0,0,0,0,10,0,192,0,3,3
RAW_RPM,2,0.3678390085697174,309327,-0.41678038239479065,0.06620777398347855,-0.3759597837924957,-0.8249636292457581,0.1379559487104416,0.04181290790438652,-0.5560849905014038,"[0.0, 0.0, 0.0, 0.0]",-9.968865394592285,15.153816223144531,0.0,-0.5772120952606201,0.5539073348045349,0.0,309375416,3,369992801,-1220636500,0,65535,65535,80,35722,255,0,0,0,0,0,0,10,0,192,0,3,3
ATTITUDE_QUATERNION,2,0.3678390085697174,309378,-0.42597851157188416,0.07213733345270157,-0.39080503582954407,-0.8127791881561279,0.1022685095667839,0.2045370191335678,-0.5249250531196594,"[0.0, 0.0, 0.0, 0.0]",-9.968865394592285,15.153816223144531,0.0,-0.5772120952606201,0.5539073348045349,0.0,309375416,3,369992801,-1220636500,0,65535,65535,80,35722,255,0,0,0,0,0,0,10,0,192,0,3,3
LOCAL_POSITION_NED,2,0.3678390085697174,309378,-0.42597851157188416,0.07213733345270157,-0.39080503582954407,-0.8127791881561279,0.1022685095667839,0.2045370191335678,-0.5249250531196594,"[0.0, 0.0, 0.0, 0.0]",-9.998247146606445,15.182597160339355,0.0,-0.5944616794586182,0.5821234583854675,0.0,309375416,3,369992801,-1220636500,0,65535,65535,80,35722,255,0,0,0,0,0,0,10,0,192,0,3,3
RAW_RPM,0,0.031446605920791626,309378,-0.42597851157188416,0.07213733345270157,-0.39080503582954407,-0.8127791881561279,0.1022685095667839,0.2045370191335678,-0.5249250531196594,"[0.0, 0.0, 0.0, 0.0]",-9.998247146606445,15.182597160339355,0.0,-0.5944616794586182,0.5821234583854675,0.0,309375416,3,369992801,-1220636500,0,65535,65535,80,35722,255,0,0,0,0,0,0,10,0,192,0,3,3
RAW_RPM,1,0.25847578048706055,309378,-0.42597851157188416,0.07213733345270157,-0.39080503582954407,-0.8127791881561279,0.1022685095667839,0.2045370191335678,-0.5249250531196594,"[0.0, 0.0, 0.0, 0.0]",-9.998247146606445,15.182597160339355,0.0,-0.5944616794586182,0.5821234583854675,0.0,309375416,3,369992801,-1220636500,0,65535,65535,80,35722,255,0,0,0,0,0,0,10,0,192,0,3,3
RAW_RPM,2,0.3636972904205322,309378,-0.42597851157188416,0.07213733345270157,-0.39080503582954407,-0.8127791881561279,0.1022685095667839,0.2045370191335678,-0.5249250531196594,"[0.0, 0.0, 0.0, 0.0]",-9.998247146606445,15.182597160339355,0.0,-0.5944616794586182,0.5821234583854675,0.0,309375416,3,369992801,-1220636500,0,65535,65535,80,35722,255,0,0,0,0,0,0,10,0,192,0,3,3
ATTITUDE_QUATERNION,2,0.3636972904205322,309429,-0.43883422017097473,0.08427020907402039,-0.3971371054649353,-0.8016266226768494,-0.0775003507733345,0.19388402998447418,-0.5917724370956421,"[0.0, 0.0, 0.0, 0.0]",-9.998247146606445,15.182597160339355,0.0,-0.5944616794586182,0.5821234583854675,0.0,309375416,3,369992801,-1220636500,0,65535,65535,80,35722,255,0,0,0,0,0,0,10,0,192,0,3,3
LOCAL_POSITION_NED,2,0.3636972904205322,309429,-0.43883422017097473,0.08427020907402039,-0.3971371054649353,-0.8016266226768494,-0.0775003507733345,0.19388402998447418,-0.5917724370956421,"[0.0, 0.0, 0.0, 0.0]",-10.027304649353027,15.21219253540039,0.0,-0.5691027641296387,0.5912681818008423,0.0,309375416,3,369992801,-1220636500,0,65535,65535,80,35722,255,0,0,0,0,0,0,10,0,192,0,3,3
GPS_RAW_INT,2,0.3636972904205322,309429,-0.43883422017097473,0.08427020907402039,-0.3971371054649353,-0.8016266226768494,-0.0775003507733345,0.19388402998447418,-0.5917724370956421,"[0.0, 0.0, 0.0, 0.0]",-10.027304649353027,15.21219253540039,0.0,-0.5691027641296387,0.5912681818008423,0.0,309476004,3,369992808,-1220636498,0,65535,65535,81,162,255,0,0,0,0,0,0,10,0,192,0,3,3
RAW_RPM,0,0.28608742356300354,309429,-0.43883422017097473,0.08427020907402039,-0.3971371054649353,-0.8016266226768494,-0.0775003507733345,0.19388402998447418,-0.5917724370956421,"[0.0, 0.0, 0.0, 0.0]",-10.027304649353027,15.21219253540039,0.0,-0.5691027641296387,0.5912681818008423,0.0,309476004,3,369992808,-1220636498,0,65535,65535,81,162,255,0,0,0,0,0,0,10,0,192,0,3,3
RAW_RPM,1,0.18369419872760773,309429,-0.43883422017097473,0.08427020907402039,-0.3971371054649353,-0.8016266226768494,-0.0775003507733345,0.19388402998447418,-0.5917724370956421,"[0.0, 0.0, 0.0, 0.0]",-10.027304649353027,15.21219253540039,0.0,-0.5691027641296387,0.5912681818008423,0.0,309476004,3,369992808,-1220636498,0,65535,65535,81,162,255,0,0,0,0,0,0,10,0,192,0,3,3
RAW_RPM,2,0.3427296578884125,309429,-0.43883422017097473,0.08427020907402039,-0.3971371054649353,-0.8016266226768494,-0.0775003507733345,0.19388402998447418,-0.5917724370956421,"[0.0, 0.0, 0.0, 0.0]",-10.027304649353027,15.21219253540039,0.0,-0.5691027641296387,0.5912681818008423,0.0,309476004,3,369992808,-1220636498,0,65535,65535,81,162,255,0,0,0,0,0,0,10,0,192,0,3,3
ATTITUDE_QUATERNION,2,0.3427296578884125,309480,-0.457372784614563,0.10073205083608627,-0.40006721019744873,-0.7877877354621887,-0.07723402976989746,-0.008256050758063793,-0.5054833889007568,"[0.0, 0.0, 0.0, 0.0]",-10.027304649353027,15.21219253540039,0.0,-0.5691027641296387,0.5912681818008423,0.0,309476004,3,369992808,-1220636498,0,65535,65535,81,162,255,0,0,0,0,0,0,10,0,192,0,3,3
LOCAL_POSITION_NED,2,0.3427296578884125,309480,-0.457372784614563,0.10073205083608627,-0.40006721019744873,-0.7877877354621887,-0.07723402976989746,-0.008256050758063793,-0.5054833889007568,"[0.0, 0.0, 0.0, 0.0]",-10.055211067199707,15.24206256866455,0.0,-0.5555359721183777,0.6127392649650574,0.0,309476004,3,369992808,-1220636498,0,65535,65535,81,162,255,0,0,0,0,0,0,10,0,192,0,3,3
RAW_RPM,0,0.0908883661031723,309480,-0.457372784614563,0.10073205083608627,-0.40006721019744873,-0.7877877354621887,-0.07723402976989746,-0.008256050758063793,-0.5054833889007568,"[0.0, 0.0, 0.0, 0.0]",-10.055211067199707,15.24206256866455,0.0,-0.5555359721183777,0.6127392649650574,0.0,309476004,3,369992808,-1220636498,0,65535,65535,81,162,255,0,0,0,0,0,0,10,0,192,0,3,3
RAW_RPM,1,0.21399033069610596,309480,-0.457372784614563,0.10073205083608627,-0.40006721019744873,-0.7877877354621887,-0.07723402976989746,-0.008256050758063793,-0.5054833889007568,"[0.0, 0.0, 0.0, 0.0]",-10.055211067199707,15.24206256866455,0.0,-0.5555359721183777,0.6127392649650574,0.0,309476004,3,369992808,-1220636498,0,65535,65535,81,162,255,0,0,0,0,0,0,10,0,192,0,3,3
RAW_RPM,2,0.3600732386112213,309480,-0.457372784614563,0.10073205083608627,-0.40006721019744873,-0.7877877354621887,-0.07723402976989746,-0.008256050758063793,-0.5054833889007568,"[0.0, 0.0, 0.0, 0.0]",-10.055211067199707,15.24206256866455,0.0,-0.5555359721183777,0.6127392649650574,0.0,309476004,3,369992808,-1220636498,0,65535,65535,81,162,255,0,0,0,0,0,0,10,0,192,0,3,3
ATTITUDE_QUATERNION,2,0.3600732386112213,309531,-0.47341394424438477,0.11823152750730515,-0.4083777070045471,-0.7714454531669617,0.019974317401647568,-0.0748371034860611,-0.41493314504623413,"[0.0, 0.0, 0.0, 0.0]",-10.055211067199707,15.24206256866455,0.0,-0.5555359721183777,0.6127392649650574,0.0,309476004,3,369992808,-1220636498,0,65535,65535,81,162,255,0,0,0,0,0,0,10,0,192,0,3,3
LOCAL_POSITION_NED,2,0.3600732386112213,309531,-0.47341394424438477,0.11823152750730515,-0.4083777070045471,-0.7714454531669617,0.019974317401647568,-0.0748371034860611,-0.41493314504623413,"[0.0, 0.0, 0.0, 0.0]",-10.082213401794434,15.273433685302734,0.0,-0.5251331329345703,0.6316007971763611,0.0,309476004,3,369992808,-1220636498,0,65535,65535,81,162,255,0,0,0,0,0,0,10,0,192,0,3,3
GPS_RAW_INT,2,0.3600732386112213,309531,-0.47341394424438477,0.11823152750730515,-0.4083777070045471,-0.7714454531669617,0.019974317401647568,-0.0748371034860611,-0.41493314504623413,"[0.0, 0.0, 0.0, 0.0]",-10.082213401794434,15.273433685302734,0.0,-0.5251331329345703,0.6316007971763611,0.0,309577004,3,369992813,-1220636496,0,65535,65535,73,249,255,0,0,0,0,0,0,10,0,192,0,3,3
RAW_RPM,0,0.21475732326507568,309531,-0.47341394424438477,0.11823152750730515,-0.4083777070045471,-0.7714454531669617,0.019974317401647568,-0.0748371034860611,-0.41493314504623413,"[0.0, 0.0, 0.0, 0.0]",-10.082213401794434,15.273433685302734,0.0,-0.5251331329345703,0.6316007971763611,0.0,309577004,3,369992813,-1220636496,0,65535,65535,73,249,255,0,0,0,0,0,0,10,0,192,0,3,3
RAW_RPM,1,0.26806315779685974,309531,-0.47341394424438477,0.11823152750730515,-0.4083777070045471,-0.7714454531669617,0.019974317401647568,-0.0748371034860611,-0.41493314504623413,"[0.0, 0.0, 0.0, 0.0]",-10.082213401794434,15.273433685302734,0.0,-0.5251331329345703,0.6316007971763611,0.0,309577004,3,369992813,-1220636496,0,65535,65535,73,249,255,0,0,0,0,0,0,10,0,192,0,3,3
RAW_RPM,2,0.35955554246902466,309531,-0.47341394424438477,0.11823152750730515,-0.4083777070045471,-0.7714454531669617,0.019974317401647568,-0.0748371034860611,-0.41493314504623413,"[0.0, 0.0, 0.0, 0.0]",-10.082213401794434,15.273433685302734,0.0,-0.5251331329345703,0.6316007971763611,0.0,309577004,3,369992813,-1220636496,0,65535,65535,73,249,255,0,0,0,0,0,0,10,0,192,0,3,3
ATTITUDE_QUATERNION,2,0.35955554246902466,309582,-0.4966352581977844,0.13801029324531555,-0.4001336991786957,-0.7577595710754395,0.08708801865577698,-0.14674465358257294,-0.47698670625686646,"[0.0, 0.0, 0.0, 0.0]",-10.082213401794434,15.273433685302734,0.0,-0.5251331329345703,0.6316007971763611,0.0,309577004,3,369992813,-1220636496,0,65535,65535,73,249,255,0,0,0,0,0,0,10,0,192,0,3,3
LOCAL_POSITION_NED,2,0.35955554246902466,309582,-0.4966352581977844,0.13801029324531555,-0.4001336991786957,-0.7577595710754395,0.08708801865577698,-0.14674465358257294,-0.47698670625686646,"[0.0, 0.0, 0.0, 0.0]",-10.107815742492676,15.30522632598877,0.0,-0.4973141849040985,0.6446101069450378,0.0,309577004,3,369992813,-1220636496,0,65535,65535,73,249,255,0,0,0,0,0,0,10,0,192,0,3,3
RAW_RPM,0,0.19174760580062866,309582,-0.4966352581977844,0.13801029324531555,-0.4001336991786957,-0.7577595710754395,0.08708801865577698,-0.14674465358257294,-0.47698670625686646,"[0.0, 0.0, 0.0, 0.0]",-10.107815742492676,15.30522632598877,0.0,-0.4973141849040985,0.6446101069450378,0.0,309577004,3,369992813,-1220636496,0,65535,65535,73,249,255,0,0,0,0,0,0,10,0,192,0,3,3
RAW_RPM,1,0.19404856860637665,309582,-0.4966352581977844,0.13801029324531555,-0.4001336991786957,-0.7577595710754395,0.08708801865577698,-0.14674465358257294,-0.47698670625686646,"[0.0, 0.0, 0.0, 0.0]",-10.107815742492676,15.30522632598877,0.0,-0.4973141849040985,0.6446101069450378,0.0,309577004,3,369992813,-1220636496,0,65535,65535,73,249,255,0,0,0,0,0,0,10,0,192,0,3,3
RAW_RPM,2,0.36033210158348083,309582,-0.4966352581977844,0.13801029324531555,-0.4001336991786957,-0.7577595710754395,0.08708801865577698,-0.14674465358257294,-0.47698670625686646,"[0.0, 0.0, 0.0, 0.0]",-10.107815742492676,15.30522632598877,0.0,-0.4973141849040985,0.6446101069450378,0.0,309577004,3,369992813,-1220636496,0,65535,65535,73,249,255,0,0,0,0,0,0,10,0,192,0,3,3
ATTITUDE_QUATERNION,2,0.36033210158348083,309633,-0.5157049894332886,0.15226508677005768,-0.40108785033226013,-0.741614580154419,0.07803300023078918,-0.05672706291079521,-0.5172016620635986,"[0.0, 0.0, 0.0, 0.0]",-10.107815742492676,15.30522632598877,0.0,-0.4973141849040985,0.6446101069450378,0.0,309577004,3,369992813,-1220636496,0,65535,65535,73,249,255,0,0,0,0,0,0,10,0,192,0,3,3
LOCAL_POSITION_NED,2,0.36033210158348083,309633,-0.5157049894332886,0.15226508677005768,-0.40108785033226013,-0.741614580154419,0.07803300023078918,-0.05672706291079521,-0.5172016620635986,"[0.0, 0.0, 0.0, 0.0]",-10.131946563720703,15.339058876037598,0.0,-0.472440630197525,0.6906967759132385,0.0,309577004,3,369992813,-1220636496,0,65535,65535,73,249,255,0,0,0,0,0,0,10,0,192,0,3,3
GPS_RAW_INT,2,0.36033210158348083,309633,-0.5157049894332886,0.15226508677005768,-0.40108785033226013,-0.741614580154419,0.07803300023078918,-0.05672706291079521,-0.5172016620635986,"[0.0, 0.0, 0.0, 0.0]",-10.131946563720703,15.339058876037598,0.0,-0.472440630197525,0.6906967759132385,0.0,309678005,3,369992820,-1220636496,0,65535,65535,74,465,255,0,0,0,0,0,0,10,0,192,0,3,3
RAW_RPM,0,0.014572817832231522,309633,-0.5157049894332886,0.15226508677005768,-0.40108785033226013,-0.741614580154419,0.07803300023078918,-0.05672706291079521,-0.5172016620635986,"[0.0, 0.0, 0.0, 0.0]",-10.131946563720703,15.339058876037598,0.0,-0.472440630197525,0.6906967759132385,0.0,309678005,3,369992820,-1220636496,0,65535,65535,74,465,255,0,0,0,0,0,0,10,0,192,0,3,3
RAW_RPM,1,0.18446119129657745,309633,-0.5157049894332886,0.15226508677005768,-0.40108785033226013,-0.741614580154419,0.07803300023078918,-0.05672706291079521,-0.5172016620635986,"[0.0, 0.0, 0.0, 0.0]",-10.131946563720703,15.339058876037598,0.0,-0.472440630197525,0.6906967759132385,0.0,309678005,3,369992820,-1220636496,0,65535,65535,74,465,255,0,0,0,0,0,0,10,0,192,0,3,3
RAW_RPM,2,0.3564492166042328,309633,-0.5157049894332886,0.15226508677005768,-0.40108785033226013,-0.741614580154419,0.07803300023078918,-0.05672706291079521,-0.5172016620635986,"[0.0, 0.0, 0.0, 0.0]",-10.131946563720703,15.339058876037598,0.0,-0.472440630197525,0.6906967759132385,0.0,309678005,3,369992820,-1220636496,0,65535,65535,74,465,255,0,0,0,0,0,0,10,0,192,0,3,3
ATTITUDE_QUATERNION,2,0.3564492166042328,309684,-0.5371567010879517,0.16433873772621155,-0.38958969712257385,-0.7298461198806763,-0.10493174940347672,-0.033823177218437195,-0.4844437837600708,"[0.0, 0.0, 0.0, 0.0]",-10.131946563720703,15.339058876037598,0.0,-0.472440630197525,0.6906967759132385,0.0,309678005,3,369992820,-1220636496,0,65535,65535,74,465,255,0,0,0,0,0,0,10,0,192,0,3,3
LOCAL_POSITION_NED,2,0.3564492166042328,309684,-0.5371567010879517,0.16433873772621155,-0.38958969712257385,-0.7298461198806763,-0.10493174940347672,-0.033823177218437195,-0.4844437837600708,"[0.0, 0.0, 0.0, 0.0]",-10.154216766357422,15.374448776245117,0.0,-0.4186505377292633,0.7149995565414429,0.0,309678005,3,369992820,-1220636496,0,65535,65535,74,465,255,0,0,0,0,0,0,10,0,192,0,3,3
RAW_RPM,0,0.23661653697490692,309684,-0.5371567010879517,0.16433873772621155,-0.38958969712257385,-0.7298461198806763,-0.10493174940347672,-0.033823177218437195,-0.4844437837600708,"[0.0, 0.0, 0.0, 0.0]",-10.154216766357422,15.374448776245117,0.0,-0.4186505377292633,0.7149995565414429,0.0,309678005,3,369992820,-1220636496,0,65535,65535,74,465,255,0,0,0,0,0,0,10,0,192,0,3,3
RAW_RPM,1,0.22396120429039001,309684,-0.5371567010879517,0.16433873772621155,-0.38958969712257385,-0.7298461198806763,-0.10493174940347672,-0.033823177218437195,-0.4844437837600708,"[0.0, 0.0, 0.0, 0.0]",-10.154216766357422,15.374448776245117,0.0,-0.4186505377292633,0.7149995565414429,0.0,309678005,3,369992820,-1220636496,0,65535,65535,74,465,255,0,0,0,0,0,0,10,0,192,0,3,3
RAW_RPM,2,0.3585200905799866,309684,-0.5371567010879517,0.16433873772621155,-0.38958969712257385,-0.7298461198806763,-0.10493174940347672,-0.033823177218437195,-0.4844437837600708,"[0.0, 0.0, 0.0, 0.0]",-10.154216766357422,15.374448776245117,0.0,-0.4186505377292633,0.7149995565414429,0.0,309678005,3,369992820,-1220636496,0,65535,65535,74,465,255,0,0,0,0,0,0,10,0,192,0,3,3
ATTITUDE_QUATERNION,2,0.3585200905799866,309735,-0.5619893074035645,0.18415620923042297,-0.37541326880455017,-0.7136662006378174,0.015180480666458607,0.11372044682502747,-0.26019877195358276,"[0.0, 0.0, 0.0, 0.0]",-10.154216766357422,15.374448776245117,0.0,-0.4186505377292633,0.7149995565414429,0.0,309678005,3,369992820,-1220636496,0,65535,65535,74,465,255,0,0,0,0,0,0,10,0,192,0,3,3
LOCAL_POSITION_NED,2,0.3585200905799866,309736,-0.5619893074035645,0.18415620923042297,-0.37541326880455017,-0.7136662006378174,0.015180480666458607,0.11372044682502747,-0.26019877195358276,"[0.0, 0.0, 0.0, 0.0]",-10.176820755004883,15.41745662689209,0.0,-0.34628525376319885,0.7417305111885071,0.0,309678005,3,369992820,-1220636496,0,65535,65535,74,465,255,0,0,0,0,0,0,10,0,192,0,3,3
GPS_RAW_INT,2,0.3585200905799866,309736,-0.5619893074035645,0.18415620923042297,-0.37541326880455017,-0.7136662006378174,0.015180480666458607,0.11372044682502747,-0.26019877195358276,"[0.0, 0.0, 0.0, 0.0]",-10.176820755004883,15.41745662689209,0.0,-0.34628525376319885,0.7417305111885071,0.0,309779007,3,369992825,-1220636493,0,65535,65535,67,790,255,0,0,0,0,0,0,10,0,192,0,3,3
RAW_RPM,0,0.17257283627986908,309736,-0.5619893074035645,0.18415620923042297,-0.37541326880455017,-0.7136662006378174,0.015180480666458607,0.11372044682502747,-0.26019877195358276,"[0.0, 0.0, 0.0, 0.0]",-10.176820755004883,15.41745662689209,0.0,-0.34628525376319885,0.7417305111885071,0.0,309779007,3,369992825,-1220636493,0,65535,65535,67,790,255,0,0,0,0,0,0,10,0,192,0,3,3
RAW_RPM,1,0.14457769691944122,309736,-0.5619893074035645,0.18415620923042297,-0.37541326880455017,-0.7136662006378174,0.015180480666458607,0.11372044682502747,-0.26019877195358276,"[0.0, 0.0, 0.0, 0.0]",-10.176820755004883,15.41745662689209,0.0,-0.34628525376319885,0.7417305111885071,0.0,309779007,3,369992825,-1220636493,0,65535,65535,67,790,255,0,0,0,0,0,0,10,0,192,0,3,3
RAW_RPM,2,0.3611086905002594,309736,-0.5619893074035645,0.18415620923042297,-0.37541326880455017,-0.7136662006378174,0.015180480666458607,0.11372044682502747,-0.26019877195358276,"[0.0, 0.0, 0.0, 0.0]",-10.176820755004883,15.41745662689209,0.0,-0.34628525376319885,0.7417305111885071,0.0,309779007,3,369992825,-1220636493,0,65535,65535,67,790,255,0,0,0,0,0,0,10,0,192,0,3,3
ATTITUDE_QUATERNION,2,0.3611086905002594,309786,-0.5793031454086304,0.18669340014457703,-0.3685777187347412,-0.7026406526565552,-0.1491415649652481,0.26845481991767883,-0.5052170753479004,"[0.0, 0.0, 0.0, 0.0]",-10.176820755004883,15.41745662689209,0.0,-0.34628525376319885,0.7417305111885071,0.0,309779007,3,369992825,-1220636493,0,65535,65535,67,790,255,0,0,0,0,0,0,10,0,192,0,3,3
LOCAL_POSITION_NED,2,0.3611086905002594,309786,-0.5793031454086304,0.18669340014457703,-0.3685777187347412,-0.7026406526565552,-0.1491415649652481,0.26845481991767883,-0.5052170753479004,"[0.0, 0.0, 0.0, 0.0]",-10.193225860595703,15.45555591583252,0.0,-0.30272147059440613,0.7726745009422302,0.0,309779007,3,369992825,-1220636493,0,65535,65535,67,790,255,0,0,0,0,0,0,10,0,192,0,3,3
RAW_RPM,0,0.046786416321992874,309786,-0.5793031454086304,0.18669340014457703,-0.3685777187347412,-0.7026406526565552,-0.1491415649652481,0.26845481991767883,-0.5052170753479004,"[0.0, 0.0, 0.0, 0.0]",-10.193225860595703,15.45555591583252,0.0,-0.30272147059440613,0.7726745009422302,0.0,309779007,3,369992825,-1220636493,0,65535,65535,67,790,255,0,0,0,0,0,0,10,0,192,0,3,3
RAW_RPM,1,0.17142236232757568,309786,-0.5793031454086304,0.18669340014457703,-0.3685777187347412,-0.7026406526565552,-0.1491415649652481,0.26845481991767883,-0.5052170753479004,"[0.0, 0.0, 0.0, 0.0]",-10.193225860595703,15.45555591583252,0.0,-0.30272147059440613,0.7726745009422302,0.0,309779007,3,369992825,-1220636493,0,65535,65535,67,790,255,0,0,0,0,0,0,10,0,192,0,3,3
RAW_RPM,2,0.3611086905002594,309786,-0.5793031454086304,0.18669340014457703,-0.3685777187347412,-0.7026406526565552,-0.1491415649652481,0.26845481991767883,-0.5052170753479004,"[0.0, 0.0, 0.0, 0.0]",-10.193225860595703,15.45555591583252,0.0,-0.30272147059440613,0.7726745009422302,0.0,309779007,3,369992825,-1220636493,0,65535,65535,67,790,255,0,0,0,0,0,0,10,0,192,0,3,3
ATTITUDE_QUATERNION,2,0.3611086905002594,309837,-0.5977932214736938,0.18765640258789062,-0.34933874011039734,-0.6967000365257263,0.04154658317565918,0.14807626605033875,-0.5749940276145935,"[0.0, 0.0, 0.0, 0.0]",-10.193225860595703,15.45555591583252,0.0,-0.30272147059440613,0.7726745009422302,0.0,309779007,3,369992825,-1220636493,0,65535,65535,67,790,255,0,0,0,0,0,0,10,0,192,0,3,3
LOCAL_POSITION_NED,2,0.3611086905002594,309837,-0.5977932214736938,0.18765640258789062,-0.34933874011039734,-0.6967000365257263,0.04154658317565918,0.14807626605033875,-0.5749940276145935,"[0.0, 0.0, 0.0, 0.0]",-10.207083702087402,15.4938383102417,0.0,-0.24585528671741486,0.7564048767089844,0.0,309779007,3,369992825,-1220636493,0,65535,65535,67,790,255,0,0,0,0,0,0,10,0,192,0,3,3
GPS_RAW_INT,2,0.3611086905002594,309837,-0.5977932214736938,0.18765640258789062,-0.34933874011039734,-0.6967000365257263,0.04154658317565918,0.14807626605033875,-0.5749940276145935,"[0.0, 0.0, 0.0, 0.0]",-10.207083702087402,15.4938383102417,0.0,-0.24585528671741486,0.7564048767089844,0.0,309880006,3,369992830,-1220636493,0,65535,65535,65,972,255,0,0,0,0,0,0,10,0,192,0,3,3
RAW_RPM,0,0.09740778058767319,309837,-0.5977932214736938,0.18765640258789062,-0.34933874011039734,-0.6967000365257263,0.04154658317565918,0.14807626605033875,-0.5749940276145935,"[0.0, 0.0, 0.0, 0.0]",-10.207083702087402,15.4938383102417,0.0,-0.24585528671741486,0.7564048767089844,0.0,309880006,3,369992830,-1220636493,0,65535,65535,65,972,255,0,0,0,0,0,0,10,0,192,0,3,3
RAW_RPM,1,0.22050973773002625,309837,-0.5977932214736938,0.18765640258789062,-0.34933874011039734,-0.6967000365257263,0.04154658317565918,0.14807626605033875,-0.5749940276145935,"[0.0, 0.0, 0.0, 0.0]",-10.207083702087402,15.4938383102417,0.0,-0.24585528671741486,0.7564048767089844,0.0,309880006,3,369992830,-1220636493,0,65535,65535,65,972,255,0,0,0,0,0,0,10,0,192,0,3,3
RAW_RPM,2,0.3600732386112213,309837,-0.5977932214736938,0.18765640258789062,-0.34933874011039734,-0.6967000365257263,0.04154658317565918,0.14807626605033875,-0.5749940276145935,"[0.0, 0.0, 0.0, 0.0]",-10.207083702087402,15.4938383102417,0.0,-0.24585528671741486,0.7564048767089844,0.0,309880006,3,369992830,-1220636493,0,65535,65535,65,972,255,0,0,0,0,0,0,10,0,192,0,3,3
ATTITUDE_QUATERNION,2,0.3600732386112213,309888,-0.6185963749885559,0.19260208308696747,-0.32553860545158386,-0.6886709332466125,-0.005326484329998493,-0.05672706291079521,-0.4911018908023834,"[0.0, 0.0, 0.0, 0.0]",-10.207083702087402,15.4938383102417,0.0,-0.24585528671741486,0.7564048767089844,0.0,309880006,3,369992830,-1220636493,0,65535,65535,65,972,255,0,0,0,0,0,0,10,0,192,0,3,3
LOCAL_POSITION_NED,2,0.3600732386112213,309888,-0.6185963749885559,0.19260208308696747,-0.32553860545158386,-0.6886709332466125,-0.005326484329998493,-0.05672706291079521,-0.4911018908023834,"[0.0, 0.0, 0.0, 0.0]",-10.217496871948242,15.531778335571289,0.0,-0.1827378123998642,0.7719177007675171,0.0,309880006,3,369992830,-1220636493,0,65535,65535,65,972,255,0,0,0,0,0,0,10,0,192,0,3,3
RAW_RPM,0,0.20056799054145813,309888,-0.6185963749885559,0.19260208308696747,-0.32553860545158386,-0.6886709332466125,-0.005326484329998493,-0.05672706291079521,-0.4911018908023834,"[0.0, 0.0, 0.0, 0.0]",-10.217496871948242,15.531778335571289,0.0,-0.1827378123998642,0.7719177007675171,0.0,309880006,3,369992830,-1220636493,0,65535,65535,65,972,255,0,0,0,0,0,0,10,0,192,0,3,3
RAW_RPM,1,0.1882961541414261,309888,-0.6185963749885559,0.19260208308696747,-0.32553860545158386,-0.6886709332466125,-0.005326484329998493,-0.05672706291079521,-0.4911018908023834,"[0.0, 0.0, 0.0, 0.0]",-10.217496871948242,15.531778335571289,0.0,-0.1827378123998642,0.7719177007675171,0.0,309880006,3,369992830,-1220636493,0,65535,65535,65,972,255,0,0,0,0,0,0,10,0,192,0,3,3
RAW_RPM,2,0.3585200905799866,309888,-0.6185963749885559,0.19260208308696747,-0.32553860545158386,-0.6886709332466125,-0.005326484329998493,-0.05672706291079521,-0.4911018908023834,"[0.0, 0.0, 0.0, 0.0]",-10.217496871948242,15.531778335571289,0.0,-0.1827378123998642,0.7719177007675171,0.0,309880006,3,369992830,-1220636493,0,65535,65535,65,972,255,0,0,0,0,0,0,10,0,192,0,3,3
ATTITUDE_QUATERNION,2,0.3585200905799866,309939,-0.6355664134025574,0.18489232659339905,-0.305497944355011,-0.6845008134841919,0.19574831426143646,-0.09774099290370941,-0.4596756100654602,"[0.0, 0.0, 0.0, 0.0]",-10.217496871948242,15.531778335571289,0.0,-0.1827378123998642,0.7719177007675171,0.0,309880006,3,369992830,-1220636493,0,65535,65535,65,972,255,0,0,0,0,0,0,10,0,192,0,3,3
LOCAL_POSITION_NED,2,0.3585200905799866,309939,-0.6355664134025574,0.18489232659339905,-0.305497944355011,-0.6845008134841919,0.19574831426143646,-0.09774099290370941,-0.4596756100654602,"[0.0, 0.0, 0.0, 0.0]",-10.225807189941406,15.570652961730957,0.0,-0.15588976442813873,0.7899892330169678,0.0,309880006,3,369992830,-1220636493,0,65535,65535,65,972,255,0,0,0,0,0,0,10,0,192,0,3,3
GPS_RAW_INT,2,0.3585200905799866,309939,-0.6355664134025574,0.18489232659339905,-0.305497944355011,-0.6845008134841919,0.19574831426143646,-0.09774099290370941,-0.4596756100654602,"[0.0, 0.0, 0.0, 0.0]",-10.225807189941406,15.570652961730957,0.0,-0.15588976442813873,0.7899892330169678,0.0,309981005,3,369992835,-1220636488,0,65535,65535,67,1617,255,0,0,0,0,0,0,10,0,192,0,3,3
RAW_RPM,0,0.0011504855938255787,309939,-0.6355664134025574,0.18489232659339905,-0.305497944355011,-0.6845008134841919,0.19574831426143646,-0.09774099290370941,-0.4596756100654602,"[0.0, 0.0, 0.0, 0.0]",-10.225807189941406,15.570652961730957,0.0,-0.15588976442813873,0.7899892330169678,0.0,309981005,3,369992835,-1220636488,0,65535,65535,67,1617,255,0,0,0,0,0,0,10,0,192,0,3,3
RAW_RPM,1,0.15454857051372528,309939,-0.6355664134025574,0.18489232659339905,-0.305497944355011,-0.6845008134841919,0.19574831426143646,-0.09774099290370941,-0.4596756100654602,"[0.0, 0.0, 0.0, 0.0]",-10.225807189941406,15.570652961730957,0.0,-0.15588976442813873,0.7899892330169678,0.0,309981005,3,369992835,-1220636488,0,65535,65535,67,1617,255,0,0,0,0,0,0,10,0,192,0,3,3
RAW_RPM,2,0.35955554246902466,309939,-0.6355664134025574,0.18489232659339905,-0.305497944355011,-0.6845008134841919,0.19574831426143646,-0.09774099290370941,-0.4596756100654602,"[0.0, 0.0, 0.0, 0.0]",-10.225807189941406,15.570652961730957,0.0,-0.15588976442813873,0.7899892330169678,0.0,309981005,3,369992835,-1220636488,0,65535,65535,67,1617,255,0,0,0,0,0,0,10,0,192,0,3,3
ATTITUDE_QUATERNION,2,0.35955554246902466,309990,-0.6496198177337646,0.17602303624153137,-0.2906152307987213,-0.680112361907959,-0.13768963515758514,-0.25300803780555725,-0.49962425231933594,"[0.0, 0.0, 0.0, 0.0]",-10.225807189941406,15.570652961730957,0.0,-0.15588976442813873,0.7899892330169678,0.0,309981005,3,369992835,-1220636488,0,65535,65535,67,1617,255,0,0,0,0,0,0,10,0,192,0,3,3
LOCAL_POSITION_NED,2,0.35955554246902466,309990,-0.6496198177337646,0.17602303624153137,-0.2906152307987213,-0.680112361907959,-0.13768963515758514,-0.25300803780555725,-0.49962425231933594,"[0.0, 0.0, 0.0, 0.0]",-10.231714248657227,15.60977840423584,0.0,-0.1011781245470047,0.7652434706687927,0.0,309981005,3,369992835,-1220636488,0,65535,65535,67,1617,255,0,0,0,0,0,0,10,0,192,0,3,3
HEARTBEAT,2,0.35955554246902466,309990,-0.6496198177337646,0.17602303624153137,-0.2906152307987213,-0.680112361907959,-0.13768963515758514,-0.25300803780555725,-0.49962425231933594,"[0.0, 0.0, 0.0, 0.0]",-10.231714248657227,15.60977840423584,0.0,-0.1011781245470047,0.7652434706687927,0.0,309981005,3,369992835,-1220636488,0,65535,65535,67,1617,255,0,0,0,0,0,0,10,0,192,0,3,3
RAW_RPM,0,0.17372332513332367,309990,-0.6496198177337646,0.17602303624153137,-0.2906152307987213,-0.680112361907959,-0.13768963515758514,-0.25300803780555725,-0.49962425231933594,"[0.0, 0.0, 0.0, 0.0]",-10.231714248657227,15.60977840423584,0.0,-0.1011781245470047,0.7652434706687927,0.0,309981005,3,369992835,-1220636488,0,65535,65535,67,1617,255,0,0,0,0,0,0,10,0,192,0,3,3
RAW_RPM,1,0.24083499610424042,309990,-0.6496198177337646,0.17602303624153137,-0.2906152307987213,-0.680112361907959,-0.13768963515758514,-0.25300803780555725,-0.49962425231933594,"[0.0, 0.0, 0.0, 0.0]",-10.231714248657227,15.60977840423584,0.0,-0.1011781245470047,0.7652434706687927,0.0,309981005,3,369992835,-1220636488,0,65535,65535,67,1617,255,0,0,0,0,0,0,10,0,192,0,3,3
RAW_RPM,2,0.35929667949676514,309990,-0.6496198177337646,0.17602303624153137,-0.2906152307987213,-0.680112361907959,-0.13768963515758514,-0.25300803780555725,-0.49962425231933594,"[0.0, 0.0, 0.0, 0.0]",-10.231714248657227,15.60977840423584,0.0,-0.1011781245470047,0.7652434706687927,0.0,309981005,3,369992835,-1220636488,0,65535,65535,67,1617,255,0,0,0,0,0,0,10,0,192,0,3,3
ATTITUDE_QUATERNION,2,0.35929667949676514,310041,-0.6657958030700684,0.1644018143415451,-0.2622222900390625,-0.6789165139198303,0.17071382701396942,-0.03914966061711311,-0.3704570233821869,"[0.0, 0.0, 0.0, 0.0]",-10.231714248657227,15.60977840423584,0.0,-0.1011781245470047,0.7652434706687927,0.0,309981005,3,369992835,-1220636488,0,65535,65535,67,1617,255,0,0,0,0,0,0,10,0,192,0,3,3
LOCAL_POSITION_NED,2,0.35929667949676514,310041,-0.6657958030700684,0.1644018143415451,-0.2622222900390625,-0.6789165139198303,0.17071382701396942,-0.03914966061711311,-0.3704570233821869,"[0.0, 0.0, 0.0, 0.0]",-10.235828399658203,15.646879196166992,0.0,-0.07583672553300858,0.7432815432548523,0.0,309981005,3,369992835,-1220636488,0,65535,65535,67,1617,255,0,0,0,0,0,0,10,0,192,0,3,3
GPS_RAW_INT,2,0.35929667949676514,310041,-0.6657958030700684,0.1644018143415451,-0.2622222900390625,-0.6789165139198303,0.17071382701396942,-0.03914966061711311,-0.3704570233821869,"[0.0, 0.0, 0.0, 0.0]",-10.235828399658203,15.646879196166992,0.0,-0.07583672553300858,0.7432815432548523,0.0,310082004,3,369992840,-1220636486,0,65535,65535,62,1635,255,0,0,0,0,0,0,10,0,192,0,3,3
RAW_RPM,0,0.2040194571018219,310041,-0.6657958030700684,0.1644018143415451,-0.2622222900390625,-0.6789165139198303,0.17071382701396942,-0.03914966061711311,-0.3704570233821869,"[0.0, 0.0, 0.0, 0.0]",-10.235828399658203,15.646879196166992,0.0,-0.07583672553300858,0.7432815432548523,0.0,310082004,3,369992840,-1220636486,0,65535,65535,62,1635,255,0,0,0,0,0,0,10,0,192,0,3,3
RAW_RPM,1,0.19289809465408325,310041,-0.6657958030700684,0.1644018143415451,-0.2622222900390625,-0.6789165139198303,0.17071382701396942,-0.03914966061711311,-0.3704570233821869,"[0.0, 0.0, 0.0, 0.0]",-10.235828399658203,15.646879196166992,0.0,-0.07583672553300858,0.7432815432548523,0.0,310082004,3,369992840,-1220636486,0,65535,65535,62,1635,255,0,0,0,0,0,0,10,0,192,0,3,3
RAW_RPM,2,0.3608498275279999,310041,-0.6657958030700684,0.1644018143415451,-0.2622222900390625,-0.6789165139198303,0.17071382701396942,-0.03914966061711311,-0.3704570233821869,"[0.0, 0.0, 0.0, 0.0]",-10.235828399658203,15.646879196166992,0.0,-0.07583672553300858,0.7432815432548523,0.0,310082004,3,369992840,-1220636486,0,65535,65535,62,1635,255,0,0,0,0,0,0,10,0,192,0,3,3
ATTITUDE_QUATERNION,2,0.3608498275279999,310092,-0.6754006147384644,0.15637022256851196,-0.2561304569244385,-0.6736317276954651,0.17630663514137268,0.08389213681221008,-0.5153374075889587,"[0.0, 0.0, 0.0, 0.0]",-10.235828399658203,15.646879196166992,0.0,-0.07583672553300858,0.7432815432548523,0.0,310082004,3,369992840,-1220636486,0,65535,65535,62,1635,255,0,0,0,0,0,0,10,0,192,0,3,3
LOCAL_POSITION_NED,2,0.3608498275279999,310092,-0.6754006147384644,0.15637022256851196,-0.2561304569244385,-0.6736317276954651,0.17630663514137268,0.08389213681221008,-0.5153374075889587,"[0.0, 0.0, 0.0, 0.0]",-10.238478660583496,15.685169219970703,0.0,-0.050594668835401535,0.7778805494308472,0.0,310082004,3,369992840,-1220636486,0,65535,65535,62,1635,255,0,0,0,0,0,0,10,0,192,0,3,3
RAW_RPM,0,0.04410194978117943,310092,-0.6754006147384644,0.15637022256851196,-0.2561304569244385,-0.6736317276954651,0.17630663514137268,0.08389213681221008,-0.5153374075889587,"[0.0, 0.0, 0.0, 0.0]",-10.238478660583496,15.685169219970703,0.0,-0.050594668835401535,0.7778805494308472,0.0,310082004,3,369992840,-1220636486,0,65535,65535,62,1635,255,0,0,0,0,0,0,10,0,192,0,3,3
RAW_RPM,1,0.19596605002880096,310092,-0.6754006147384644,0.15637022256851196,-0.2561304569244385,-0.6736317276954651,0.17630663514137268,0.08389213681221008,-0.5153374075889587,"[0.0, 0.0, 0.0, 0.0]",-10.238478660583496,15.685169219970703,0.0,-0.050594668835401535,0.7778805494308472,0.0,310082004,3,369992840,-1220636486,0,65535,65535,62,1635,255,0,0,0,0,0,0,10,0,192,0,3,3
RAW_RPM,2,0.36033210158348083,310092,-0.6754006147384644,0.15637022256851196,-0.2561304569244385,-0.6736317276954651,0.17630663514137268,0.08389213681221008,-0.5153374075889587,"[0.0, 0.0, 0.0, 0.0]",-10.238478660583496,15.685169219970703,0.0,-0.050594668835401535,0.7778805494308472,0.0,310082004,3,369992840,-1220636486,0,65535,65535,62,1635,255,0,0,0,0,0,0,10,0,192,0,3,3
ATTITUDE_QUATERNION,2,0.36033210158348083,310143,-0.6863299012184143,0.15827983617782593,-0.24242424964904785,-0.6671801805496216,0.1392875760793686,0.1771056205034256,-0.39629045128822327,"[0.0, 0.0, 0.0, 0.0]",-10.238478660583496,15.685169219970703,0.0,-0.050594668835401535,0.7778805494308472,0.0,310082004,3,369992840,-1220636486,0,65535,65535,62,1635,255,0,0,0,0,0,0,10,0,192,0,3,3
LOCAL_POSITION_NED,2,0.36033210158348083,310143,-0.6863299012184143,0.15827983617782593,-0.24242424964904785,-0.6671801805496216,0.1392875760793686,0.1771056205034256,-0.39629045128822327,"[0.0, 0.0, 0.0, 0.0]",-10.23991584777832,15.72469711303711,0.0,-0.025410639122128487,0.7927359938621521,0.0,310082004,3,369992840,-1220636486,0,65535,65535,62,1635,255,0,0,0,0,0,0,10,0,192,0,3,3
GPS_RAW_INT,2,0.36033210158348083,310143,-0.6863299012184143,0.15827983617782593,-0.24242424964904785,-0.6671801805496216,0.1392875760793686,0.1771056205034256,-0.39629045128822327,"[0.0, 0.0, 0.0, 0.0]",-10.23991584777832,15.72469711303711,0.0,-0.025410639122128487,0.7927359938621521,0.0,310183004,3,369992846,-1220636485,0,65535,65535,65,1668,255,0,0,0,0,0,0,10,0,192,0,3,3
RAW_RPM,0,0.1955825537443161,310143,-0.6863299012184143,0.15827983617782593,-0.24242424964904785,-0.6671801805496216,0.1392875760793686,0.1771056205034256,-0.39629045128822327,"[0.0, 0.0, 0.0, 0.0]",-10.23991584777832,15.72469711303711,0.0,-0.025410639122128487,0.7927359938621521,0.0,310183004,3,369992846,-1220636485,0,65535,65535,65,1668,255,0,0,0,0,0,0,10,0,192,0,3,3
RAW_RPM,1,0.27841752767562866,310143,-0.6863299012184143,0.15827983617782593,-0.24242424964904785,-0.6671801805496216,0.1392875760793686,0.1771056205034256,-0.39629045128822327,"[0.0, 0.0, 0.0, 0.0]",-10.23991584777832,15.72469711303711,0.0,-0.025410639122128487,0.7927359938621521,0.0,310183004,3,369992846,-1220636485,0,65535,65535,65,1668,255,0,0,0,0,0,0,10,0,192,0,3,3
RAW_RPM,2,0.36059096455574036,310143,-0.6863299012184143,0.15827983617782593,-0.24242424964904785,-0.6671801805496216,0.1392875760793686,0.1771056205034256,-0.39629045128822327,"[0.0, 0.0, 0.0, 0.0]",-10.23991584777832,15.72469711303711,0.0,-0.025410639122128487,0.7927359938621521,0.0,310183004,3,369992846,-1220636485,0,65535,65535,65,1668,255,0,0,0,0,0,0,10,0,192,0,3,3
ATTITUDE_QUATERNION,2,0.36059096455574036,310194,-0.6954266428947449,0.14554482698440552,-0.2349914014339447,-0.6633080840110779,-0.008522375486791134,0.24315403401851654,-0.5515574812889099,"[0.0, 0.0, 0.0, 0.0]",-10.23991584777832,15.72469711303711,0.0,-0.025410639122128487,0.7927359938621521,0.0,310183004,3,369992846,-1220636485,0,65535,65535,65,1668,255,0,0,0,0,0,0,10,0,192,0,3,3
LOCAL_POSITION_NED,2,0.36059096455574036,310194,-0.6954266428947449,0.14554482698440552,-0.2349914014339447,-0.6633080840110779,-0.008522375486791134,0.24315403401851654,-0.5515574812889099,"[0.0, 0.0, 0.0, 0.0]",-10.240523338317871,15.764552116394043,0.0,-0.0031741030979901552,0.7983769178390503,0.0,310183004,3,369992846,-1220636485,0,65535,65535,65,1668,255,0,0,0,0,0,0,10,0,192,0,3,3
RAW_RPM,0,0.0011504855938255787,310194,-0.6954266428947449,0.14554482698440552,-0.2349914014339447,-0.6633080840110779,-0.008522375486791134,0.24315403401851654,-0.5515574812889099,"[0.0, 0.0, 0.0, 0.0]",-10.240523338317871,15.764552116394043,0.0,-0.0031741030979901552,0.7983769178390503,0.0,310183004,3,369992846,-1220636485,0,65535,65535,65,1668,255,0,0,0,0,0,0,10,0,192,0,3,3
RAW_RPM,1,0.23738352954387665,310194,-0.6954266428947449,0.14554482698440552,-0.2349914014339447,-0.6633080840110779,-0.008522375486791134,0.24315403401851654,-0.5515574812889099,"[0.0, 0.0, 0.0, 0.0]",-10.240523338317871,15.764552116394043,0.0,-0.0031741030979901552,0.7983769178390503,0.0,310183004,3,369992846,-1220636485,0,65535,65535,65,1668,255,0,0,0,0,0,0,10,0,192,0,3,3
