mavpackettype,index,frequency,time_boot_ms,q1,q2,q3,q4,rollspeed,pitchspeed,yawspeed,repr_offset_q,x,y,z,vx,vy,vz,time_usec,fix_type,lat,lon,alt,eph,epv,vel,cog,satellites_visible,alt_ellipsoid,h_acc,v_acc,vel_acc,hdg_acc,yaw,type,autopilot,base_mode,custom_mode,system_status,mavlink_version
RAW_RPM,1,0.0019174760673195124,174791,0.6484205722808838,-0.0013777089770883322,0.006890624295920134,-0.7612498998641968,-0.004261187743395567,0.013049887493252754,-0.007457078900188208,"[0.0, 0.0, 0.0, 0.0]",0.001286100596189499,0.35245126485824585,0.0,0.00010611677134875208,0.0006592660793103278,0.0,174744437,3,0,0,0,65535,65535,0,0,255,0,0,0,0,0,0,10,0,192,0,3,3
RAW_RPM,2,-0.002588592702522874,174791,0.6484205722808838,-0.0013777089770883322,0.006890624295920134,-0.7612498998641968,-0.004261187743395567,0.013049887493252754,-0.007457078900188208,"[0.0, 0.0, 0.0, 0.0]",0.001286100596189499,0.35245126485824585,0.0,0.00010611677134875208,0.0006592660793103278,0.0,174744437,3,0,0,0,65535,65535,0,0,255,0,0,0,0,0,0,10,0,192,0,3,3
ATTITUDE_QUATERNION,2,-0.002588592702522874,174842,0.6483165621757507,-0.0004382809856906533,0.007263686507940292,-0.761336088180542,-0.0015979454619809985,0.014381508342921734,-0.007723402697592974,"[0.0, 0.0, 0.0, 0.0]",0.001286100596189499,0.35245126485824585,0.0,0.00010611677134875208,0.0006592660793103278,0.0,174744437,3,0,0,0,65535,65535,0,0,255,0,0,0,0,0,0,10,0,192,0,3,3
LOCAL_POSITION_NED,2,-0.002588592702522874,174842,0.6483165621757507,-0.0004382809856906533,0.007263686507940292,-0.761336088180542,-0.0015979454619809985,0.014381508342921734,-0.007723402697592974,"[0.0, 0.0, 0.0, 0.0]",0.001292108092457056,0.35248851776123047,0.0,0.00012754998169839382,0.0007910850690677762,0.0,174744437,3,0,0,0,65535,65535,0,0,255,0,0,0,0,0,0,10,0,192,0,3,3
GPS_RAW_INT,2,-0.002588592702522874,174842,0.6483165621757507,-0.0004382809856906533,0.007263686507940292,-0.761336088180542,-0.0015979454619809985,0.014381508342921734,-0.007723402697592974,"[0.0, 0.0, 0.0, 0.0]",0.001292108092457056,0.35248851776123047,0.0,0.00012754998169839382,0.0007910850690677762,0.0,174845004,3,0,0,0,65535,65535,0,0,255,0,0,0,0,0,0,10,0,192,0,3,3
RAW_RPM,0,0.0,174842,0.6483165621757507,-0.0004382809856906533,0.007263686507940292,-0.761336088180542,-0.0015979454619809985,0.014381508342921734,-0.007723402697592974,"[0.0, 0.0, 0.0, 0.0]",0.001292108092457056,0.35248851776123047,0.0,0.00012754998169839382,0.0007910850690677762,0.0,174845004,3,0,0,0,65535,65535,0,0,255,0,0,0,0,0,0,10,0,192,0,3,3
RAW_RPM,1,-0.0003834952076431364,174842,0.6483165621757507,-0.0004382809856906533,0.007263686507940292,-0.761336088180542,-0.0015979454619809985,0.014381508342921734,-0.007723402697592974,"[0.0, 0.0, 0.0, 0.0]",0.001292108092457056,0.35248851776123047,0.0,0.00012754998169839382,0.0007910850690677762,0.0,174845004,3,0,0,0,65535,65535,0,0,255,0,0,0,0,0,0,10,0,192,0,3,3
RAW_RPM,2,-0.00310631119646132,174842,0.6483165621757507,-0.0004382809856906533,0.007263686507940292,-0.761336088180542,-0.0015979454619809985,0.014381508342921734,-0.007723402697592974,"[0.0, 0.0, 0.0, 0.0]",0.001292108092457056,0.35248851776123047,0.0,0.00012754998169839382,0.0007910850690677762,0.0,174845004,3,0,0,0,65535,65535,0,0,255,0,0,0,0,0,0,10,0,192,0,3,3
ATTITUDE_QUATERNION,2,-0.00310631119646132,174893,0.6481385231018066,-0.000598256359808147,0.006703878752887249,-0.7614927291870117,-0.0066581061109900475,0.013049887493252754,-0.006125457119196653,"[0.0, 0.0, 0.0, 0.0]",0.001292108092457056,0.35248851776123047,0.0,0.00012754998169839382,0.0007910850690677762,0.0,174845004,3,0,0,0,65535,65535,0,0,255,0,0,0,0,0,0,10,0,192,0,3,3
LOCAL_POSITION_NED,2,-0.00310631119646132,174893,0.6481385231018066,-0.000598256359808147,0.006703878752887249,-0.7614927291870117,-0.0066581061109900475,0.013049887493252754,-0.006125457119196653,"[0.0, 0.0, 0.0, 0.0]",0.001294333371333778,0.3525022864341736,0.0,0.00010659638064680621,0.0006591886631213129,0.0,174845004,3,0,0,0,65535,65535,0,0,255,0,0,0,0,0,0,10,0,192,0,3,3
RAW_RPM,0,-0.0011504855938255787,174893,0.6481385231018066,-0.000598256359808147,0.006703878752887249,-0.7614927291870117,-0.0066581061109900475,0.013049887493252754,-0.006125457119196653,"[0.0, 0.0, 0.0, 0.0]",0.001294333371333778,0.3525022864341736,0.0,0.00010659638064680621,0.0006591886631213129,0.0,174845004,3,0,0,0,65535,65535,0,0,255,0,0,0,0,0,0,10,0,192,0,3,3
RAW_RPM,1,-0.0003834952076431364,174893,0.6481385231018066,-0.000598256359808147,0.006703878752887249,-0.7614927291870117,-0.0066581061109900475,0.013049887493252754,-0.006125457119196653,"[0.0, 0.0, 0.0, 0.0]",0.001294333371333778,0.3525022864341736,0.0,0.00010659638064680621,0.0006591886631213129,0.0,174845004,3,0,0,0,65535,65535,0,0,255,0,0,0,0,0,0,10,0,192,0,3,3
RAW_RPM,2,-0.002588592702522874,174893,0.6481385231018066,-0.000598256359808147,0.006703878752887249,-0.7614927291870117,-0.0066581061109900475,0.013049887493252754,-0.006125457119196653,"[0.0, 0.0, 0.0, 0.0]",0.001294333371333778,0.3525022864341736,0.0,0.00010659638064680621,0.0006591886631213129,0.0,174845004,3,0,0,0,65535,65535,0,0,255,0,0,0,0,0,0,10,0,192,0,3,3
ATTITUDE_QUATERNION,2,-0.002588592702522874,174944,0.6478652954101562,-0.0007603074773214757,0.005939987953752279,-0.7617313861846924,-0.003728539450094104,0.013316212221980095,-0.007989726960659027,"[0.0, 0.0, 0.0, 0.0]",0.001294333371333778,0.3525022864341736,0.0,0.00010659638064680621,0.0006591886631213129,0.0,174845004,3,0,0,0,65535,65535,0,0,255,0,0,0,0,0,0,10,0,192,0,3,3
LOCAL_POSITION_NED,2,-0.002588592702522874,174945,0.6478652954101562,-0.0007603074773214757,0.005939987953752279,-0.7617313861846924,-0.003728539450094104,0.013316212221980095,-0.007989726960659027,"[0.0, 0.0, 0.0, 0.0]",0.0013011508854106069,0.35254430770874023,0.0,0.00012857165711466223,0.0007909195846877992,0.0,174845004,3,0,0,0,65535,65535,0,0,255,0,0,0,0,0,0,10,0,192,0,3,3
GPS_RAW_INT,2,-0.002588592702522874,174945,0.6478652954101562,-0.0007603074773214757,0.005939987953752279,-0.7617313861846924,-0.003728539450094104,0.013316212221980095,-0.007989726960659027,"[0.0, 0.0, 0.0, 0.0]",0.0013011508854106069,0.35254430770874023,0.0,0.00012857165711466223,0.0007909195846877992,0.0,174946002,3,0,0,0,65535,65535,0,0,255,0,0,0,0,0,0,10,0,192,0,3,3
RAW_RPM,0,-0.0003834952076431364,174945,0.6478652954101562,-0.0007603074773214757,0.005939987953752279,-0.7617313861846924,-0.003728539450094104,0.013316212221980095,-0.007989726960659027,"[0.0, 0.0, 0.0, 0.0]",0.0013011508854106069,0.35254430770874023,0.0,0.00012857165711466223,0.0007909195846877992,0.0,174946002,3,0,0,0,65535,65535,0,0,255,0,0,0,0,0,0,10,0,192,0,3,3
RAW_RPM,1,0.0007669904152862728,174945,0.6478652954101562,-0.0007603074773214757,0.005939987953752279,-0.7617313861846924,-0.003728539450094104,0.013316212221980095,-0.007989726960659027,"[0.0, 0.0, 0.0, 0.0]",0.0013011508854106069,0.35254430770874023,0.0,0.00012857165711466223,0.0007909195846877992,0.0,174946002,3,0,0,0,65535,65535,0,0,255,0,0,0,0,0,0,10,0,192,0,3,3
RAW_RPM,2,-0.002588592702522874,174945,0.6478652954101562,-0.0007603074773214757,0.005939987953752279,-0.7617313861846924,-0.003728539450094104,0.013316212221980095,-0.007989726960659027,"[0.0, 0.0, 0.0, 0.0]",0.0013011508854106069,0.35254430770874023,0.0,0.00012857165711466223,0.0007909195846877992,0.0,174946002,3,0,0,0,65535,65535,0,0,255,0,0,0,0,0,0,10,0,192,0,3,3
ATTITUDE_QUATERNION,2,-0.002588592702522874,174995,0.6475008130073547,-0.0006986099760979414,0.005089535377919674,-0.762047529220581,-0.005592809058725834,0.016245778650045395,-0.008788700215518475,"[0.0, 0.0, 0.0, 0.0]",0.0013011508854106069,0.35254430770874023,0.0,0.00012857165711466223,0.0007909195846877992,0.0,174946002,3,0,0,0,65535,65535,0,0,255,0,0,0,0,0,0,10,0,192,0,3,3
LOCAL_POSITION_NED,2,-0.002588592702522874,174995,0.6475008130073547,-0.0006986099760979414,0.005089535377919674,-0.762047529220581,-0.005592809058725834,0.016245778650045395,-0.008788700215518475,"[0.0, 0.0, 0.0, 0.0]",0.0013058844488114119,0.3525732755661011,0.0,0.00012926102499477565,0.0007908073021098971,0.0,174946002,3,0,0,0,65535,65535,0,0,255,0,0,0,0,0,0,10,0,192,0,3,3
HEARTBEAT,2,-0.002588592702522874,174995,0.6475008130073547,-0.0006986099760979414,0.005089535377919674,-0.762047529220581,-0.005592809058725834,0.016245778650045395,-0.008788700215518475,"[0.0, 0.0, 0.0, 0.0]",0.0013058844488114119,0.3525732755661011,0.0,0.00012926102499477565,0.0007908073021098971,0.0,174946002,3,0,0,0,65535,65535,0,0,255,0,0,0,0,0,0,10,0,192,0,3,3
RAW_RPM,0,0.0015339808305725455,174995,0.6475008130073547,-0.0006986099760979414,0.005089535377919674,-0.762047529220581,-0.005592809058725834,0.016245778650045395,-0.008788700215518475,"[0.0, 0.0, 0.0, 0.0]",0.0013058844488114119,0.3525732755661011,0.0,0.00012926102499477565,0.0007908073021098971,0.0,174946002,3,0,0,0,65535,65535,0,0,255,0,0,0,0,0,0,10,0,192,0,3,3
RAW_RPM,1,0.0003834952076431364,174995,0.6475008130073547,-0.0006986099760979414,0.005089535377919674,-0.762047529220581,-0.005592809058725834,0.016245778650045395,-0.008788700215518475,"[0.0, 0.0, 0.0, 0.0]",0.0013058844488114119,0.3525732755661011,0.0,0.00012926102499477565,0.0007908073021098971,0.0,174946002,3,0,0,0,65535,65535,0,0,255,0,0,0,0,0,0,10,0,192,0,3,3
RAW_RPM,2,-0.0028474521823227406,174995,0.6475008130073547,-0.0006986099760979414,0.005089535377919674,-0.762047529220581,-0.005592809058725834,0.016245778650045395,-0.008788700215518475,"[0.0, 0.0, 0.0, 0.0]",0.0013058844488114119,0.3525732755661011,0.0,0.00012926102499477565,0.0007908073021098971,0.0,174946002,3,0,0,0,65535,65535,0,0,255,0,0,0,0,0,0,10,0,192,0,3,3
ATTITUDE_QUATERNION,2,-0.0028474521823227406,175046,0.647720456123352,-0.00044241969590075314,0.006309533026069403,-0.7618519067764282,-0.0015979454619809985,0.013582535088062286,-0.00452751200646162,"[0.0, 0.0, 0.0, 0.0]",0.0013058844488114119,0.3525732755661011,0.0,0.00012926102499477565,0.0007908073021098971,0.0,174946002,3,0,0,0,65535,65535,0,0,255,0,0,0,0,0,0,10,0,192,0,3,3
LOCAL_POSITION_NED,2,-0.0028474521823227406,175046,0.647720456123352,-0.00044241969590075314,0.006309533026069403,-0.7618519067764282,-0.0015979454619809985,0.013582535088062286,-0.00452751200646162,"[0.0, 0.0, 0.0, 0.0]",0.0013119938084855676,0.35261061787605286,0.0,0.00011733641440514475,0.0007189441239461303,0.0,174946002,3,0,0,0,65535,65535,0,0,255,0,0,0,0,0,0,10,0,192,0,3,3
GPS_RAW_INT,2,-0.0028474521823227406,175046,0.647720456123352,-0.00044241969590075314,0.006309533026069403,-0.7618519067764282,-0.0015979454619809985,0.013582535088062286,-0.00452751200646162,"[0.0, 0.0, 0.0, 0.0]",0.0013119938084855676,0.35261061787605286,0.0,0.00011733641440514475,0.0007189441239461303,0.0,175047005,3,0,0,0,65535,65535,0,0,255,0,0,0,0,0,0,10,0,192,0,3,3
RAW_RPM,0,0.0,175046,0.647720456123352,-0.00044241969590075314,0.006309533026069403,-0.7618519067764282,-0.0015979454619809985,0.013582535088062286,-0.00452751200646162,"[0.0, 0.0, 0.0, 0.0]",0.0013119938084855676,0.35261061787605286,0.0,0.00011733641440514475,0.0007189441239461303,0.0,175047005,3,0,0,0,65535,65535,0,0,255,0,0,0,0,0,0,10,0,192,0,3,3
RAW_RPM,1,-0.0011504855938255787,175046,0.647720456123352,-0.00044241969590075314,0.006309533026069403,-0.7618519067764282,-0.0015979454619809985,0.013582535088062286,-0.00452751200646162,"[0.0, 0.0, 0.0, 0.0]",0.0013119938084855676,0.35261061787605286,0.0,0.00011733641440514475,0.0007189441239461303,0.0,175047005,3,0,0,0,65535,65535,0,0,255,0,0,0,0,0,0,10,0,192,0,3,3
RAW_RPM,2,-0.002588592702522874,175046,0.647720456123352,-0.00044241969590075314,0.006309533026069403,-0.7618519067764282,-0.0015979454619809985,0.013582535088062286,-0.00452751200646162,"[0.0, 0.0, 0.0, 0.0]",0.0013119938084855676,0.35261061787605286,0.0,0.00011733641440514475,0.0007189441239461303,0.0,175047005,3,0,0,0,65535,65535,0,0,255,0,0,0,0,0,0,10,0,192,0,3,3
ATTITUDE_QUATERNION,2,-0.002588592702522874,175097,0.647689163684845,-0.00046451814705505967,0.006296819541603327,-0.761878490447998,-0.0066581061109900475,0.014914157800376415,-0.005326484329998493,"[0.0, 0.0, 0.0, 0.0]",0.0013119938084855676,0.35261061787605286,0.0,0.00011733641440514475,0.0007189441239461303,0.0,175047005,3,0,0,0,65535,65535,0,0,255,0,0,0,0,0,0,10,0,192,0,3,3
LOCAL_POSITION_NED,2,-0.002588592702522874,175097,0.647689163684845,-0.00046451814705505967,0.006296819541603327,-0.761878490447998,-0.0066581061109900475,0.014914157800376415,-0.005326484329998493,"[0.0, 0.0, 0.0, 0.0]",0.0013160033849999309,0.3526352047920227,0.0,0.0001289610518142581,0.0007908561965450644,0.0,175047005,3,0,0,0,65535,65535,0,0,255,0,0,0,0,0,0,10,0,192,0,3,3
RAW_RPM,0,0.0003834952076431364,175097,0.647689163684845,-0.00046451814705505967,0.006296819541603327,-0.761878490447998,-0.0066581061109900475,0.014914157800376415,-0.005326484329998493,"[0.0, 0.0, 0.0, 0.0]",0.0013160033849999309,0.3526352047920227,0.0,0.0001289610518142581,0.0007908561965450644,0.0,175047005,3,0,0,0,65535,65535,0,0,255,0,0,0,0,0,0,10,0,192,0,3,3
RAW_RPM,1,0.0007669904152862728,175097,0.647689163684845,-0.00046451814705505967,0.006296819541603327,-0.761878490447998,-0.0066581061109900475,0.014914157800376415,-0.005326484329998493,"[0.0, 0.0, 0.0, 0.0]",0.0013160033849999309,0.3526352047920227,0.0,0.0001289610518142581,0.0007908561965450644,0.0,175047005,3,0,0,0,65535,65535,0,0,255,0,0,0,0,0,0,10,0,192,0,3,3
RAW_RPM,2,-0.002329733455553651,175097,0.647689163684845,-0.00046451814705505967,0.006296819541603327,-0.761878490447998,-0.0066581061109900475,0.014914157800376415,-0.005326484329998493,"[0.0, 0.0, 0.0, 0.0]",0.0013160033849999309,0.3526352047920227,0.0,0.0001289610518142581,0.0007908561965450644,0.0,175047005,3,0,0,0,65535,65535,0,0,255,0,0,0,0,0,0,10,0,192,0,3,3
ATTITUDE_QUATERNION,2,-0.002329733455553651,175148,0.6478351354598999,-0.0005772118456661701,0.006679452955722809,-0.761751115322113,-0.0026632421649992466,0.012783563695847988,-0.00452751200646162,"[0.0, 0.0, 0.0, 0.0]",0.0013160033849999309,0.3526352047920227,0.0,0.0001289610518142581,0.0007908561965450644,0.0,175047005,3,0,0,0,65535,65535,0,0,255,0,0,0,0,0,0,10,0,192,0,3,3
LOCAL_POSITION_NED,2,-0.002329733455553651,175148,0.6478351354598999,-0.0005772118456661701,0.006679452955722809,-0.761751115322113,-0.0026632421649992466,0.012783563695847988,-0.00452751200646162,"[0.0, 0.0, 0.0, 0.0]",0.001322877942584455,0.3526773750782013,0.0,0.00014300027396529913,0.000878776132594794,0.0,175047005,3,0,0,0,65535,65535,0,0,255,0,0,0,0,0,0,10,0,192,0,3,3
GPS_RAW_INT,2,-0.002329733455553651,175148,0.6478351354598999,-0.0005772118456661701,0.006679452955722809,-0.761751115322113,-0.0026632421649992466,0.012783563695847988,-0.00452751200646162,"[0.0, 0.0, 0.0, 0.0]",0.001322877942584455,0.3526773750782013,0.0,0.00014300027396529913,0.000878776132594794,0.0,175148763,3,0,0,0,65535,65535,0,0,255,0,0,0,0,0,0,10,0,192,0,3,3
RAW_RPM,0,-0.0007669904152862728,175148,0.6478351354598999,-0.0005772118456661701,0.006679452955722809,-0.761751115322113,-0.0026632421649992466,0.012783563695847988,-0.00452751200646162,"[0.0, 0.0, 0.0, 0.0]",0.001322877942584455,0.3526773750782013,0.0,0.00014300027396529913,0.000878776132594794,0.0,175148763,3,0,0,0,65535,65535,0,0,255,0,0,0,0,0,0,10,0,192,0,3,3
RAW_RPM,1,-0.0011504855938255787,175148,0.6478351354598999,-0.0005772118456661701,0.006679452955722809,-0.761751115322113,-0.0026632421649992466,0.012783563695847988,-0.00452751200646162,"[0.0, 0.0, 0.0, 0.0]",0.001322877942584455,0.3526773750782013,0.0,0.00014300027396529913,0.000878776132594794,0.0,175148763,3,0,0,0,65535,65535,0,0,255,0,0,0,0,0,0,10,0,192,0,3,3
RAW_RPM,2,-0.002588592702522874,175148,0.6478351354598999,-0.0005772118456661701,0.006679452955722809,-0.761751115322113,-0.0026632421649992466,0.012783563695847988,-0.00452751200646162,"[0.0, 0.0, 0.0, 0.0]",0.001322877942584455,0.3526773750782013,0.0,0.00014300027396529913,0.000878776132594794,0.0,175148763,3,0,0,0,65535,65535,0,0,255,0,0,0,0,0,0,10,0,192,0,3,3
ATTITUDE_QUATERNION,2,-0.002588592702522874,175199,0.6477285027503967,-0.0008855263004079461,0.006100924219936132,-0.7618463039398193,-0.00452751200646162,0.012250914238393307,-0.005859133321791887,"[0.0, 0.0, 0.0, 0.0]",0.001322877942584455,0.3526773750782013,0.0,0.00014300027396529913,0.000878776132594794,0.0,175148763,3,0,0,0,65535,65535,0,0,255,0,0,0,0,0,0,10,0,192,0,3,3
LOCAL_POSITION_NED,2,-0.002588592702522874,175199,0.6477285027503967,-0.0008855263004079461,0.006100924219936132,-0.7618463039398193,-0.00452751200646162,0.012250914238393307,-0.005859133321791887,"[0.0, 0.0, 0.0, 0.0]",0.0013295490061864257,0.352718323469162,0.0,0.0001287726772716269,0.0007908869301900268,0.0,175148763,3,0,0,0,65535,65535,0,0,255,0,0,0,0,0,0,10,0,192,0,3,3
GPS_RAW_INT,2,-0.002588592702522874,175199,0.6477285027503967,-0.0008855263004079461,0.006100924219936132,-0.7618463039398193,-0.00452751200646162,0.012250914238393307,-0.005859133321791887,"[0.0, 0.0, 0.0, 0.0]",0.0013295490061864257,0.352718323469162,0.0,0.0001287726772716269,0.0007908869301900268,0.0,175249005,3,0,0,0,65535,65535,0,0,255,0,0,0,0,0,0,10,0,192,0,3,3
RAW_RPM,0,0.0,175199,0.6477285027503967,-0.0008855263004079461,0.006100924219936132,-0.7618463039398193,-0.00452751200646162,0.012250914238393307,-0.005859133321791887,"[0.0, 0.0, 0.0, 0.0]",0.0013295490061864257,0.352718323469162,0.0,0.0001287726772716269,0.0007908869301900268,0.0,175249005,3,0,0,0,65535,65535,0,0,255,0,0,0,0,0,0,10,0,192,0,3,3
RAW_RPM,1,0.0,175199,0.6477285027503967,-0.0008855263004079461,0.006100924219936132,-0.7618463039398193,-0.00452751200646162,0.012250914238393307,-0.005859133321791887,"[0.0, 0.0, 0.0, 0.0]",0.0013295490061864257,0.352718323469162,0.0,0.0001287726772716269,0.0007908869301900268,0.0,175249005,3,0,0,0,65535,65535,0,0,255,0,0,0,0,0,0,10,0,192,0,3,3
RAW_RPM,2,-0.002588592702522874,175199,0.6477285027503967,-0.0008855263004079461,0.006100924219936132,-0.7618463039398193,-0.00452751200646162,0.012250914238393307,-0.005859133321791887,"[0.0, 0.0, 0.0, 0.0]",0.0013295490061864257,0.352718323469162,0.0,0.0001287726772716269,0.0007908869301900268,0.0,175249005,3,0,0,0,65535,65535,0,0,255,0,0,0,0,0,0,10,0,192,0,3,3
ATTITUDE_QUATERNION,2,-0.002588592702522874,175250,0.647625744342804,-0.0006691527087241411,0.0059771789237856865,-0.7619348764419556,-0.001864269725047052,0.015713129192590714,-0.005859133321791887,"[0.0, 0.0, 0.0, 0.0]",0.0013295490061864257,0.352718323469162,0.0,0.0001287726772716269,0.0007908869301900268,0.0,175249005,3,0,0,0,65535,65535,0,0,255,0,0,0,0,0,0,10,0,192,0,3,3
LOCAL_POSITION_NED,2,-0.002588592702522874,175250,0.647625744342804,-0.0006691527087241411,0.0059771789237856865,-0.7619348764419556,-0.001864269725047052,0.015713129192590714,-0.005859133321791887,"[0.0, 0.0, 0.0, 0.0]",0.001335315522737801,0.3527536988258362,0.0,0.0001289307838305831,0.0007908611441962421,0.0,175249005,3,0,0,0,65535,65535,0,0,255,0,0,0,0,0,0,10,0,192,0,3,3
RAW_RPM,0,-0.0003834952076431364,175250,0.647625744342804,-0.0006691527087241411,0.0059771789237856865,-0.7619348764419556,-0.001864269725047052,0.015713129192590714,-0.005859133321791887,"[0.0, 0.0, 0.0, 0.0]",0.001335315522737801,0.3527536988258362,0.0,0.0001289307838305831,0.0007908611441962421,0.0,175249005,3,0,0,0,65535,65535,0,0,255,0,0,0,0,0,0,10,0,192,0,3,3
RAW_RPM,1,-0.0003834952076431364,175250,0.647625744342804,-0.0006691527087241411,0.0059771789237856865,-0.7619348764419556,-0.001864269725047052,0.015713129192590714,-0.005859133321791887,"[0.0, 0.0, 0.0, 0.0]",0.001335315522737801,0.3527536988258362,0.0,0.0001289307838305831,0.0007908611441962421,0.0,175249005,3,0,0,0,65535,65535,0,0,255,0,0,0,0,0,0,10,0,192,0,3,3
RAW_RPM,2,-0.002588592702522874,175250,0.647625744342804,-0.0006691527087241411,0.0059771789237856865,-0.7619348764419556,-0.001864269725047052,0.015713129192590714,-0.005859133321791887,"[0.0, 0.0, 0.0, 0.0]",0.001335315522737801,0.3527536988258362,0.0,0.0001289307838305831,0.0007908611441962421,0.0,175249005,3,0,0,0,65535,65535,0,0,255,0,0,0,0,0,0,10,0,192,0,3,3
ATTITUDE_QUATERNION,2,-0.002588592702522874,175301,0.64761883020401,3.795653901761398e-05,0.006541029550135136,-0.7619364261627197,-0.0034622149541974068,0.014381508342921734,-0.007457078900188208,"[0.0, 0.0, 0.0, 0.0]",0.001335315522737801,0.3527536988258362,0.0,0.0001289307838305831,0.0007908611441962421,0.0,175249005,3,0,0,0,65535,65535,0,0,255,0,0,0,0,0,0,10,0,192,0,3,3
LOCAL_POSITION_NED,2,-0.002588592702522874,175301,0.64761883020401,3.795653901761398e-05,0.006541029550135136,-0.7619364261627197,-0.0034622149541974068,0.014381508342921734,-0.007457078900188208,"[0.0, 0.0, 0.0, 0.0]",0.0013393322005867958,0.35277828574180603,0.0,0.0,0.0,0.0,175249005,3,0,0,0,65535,65535,0,0,255,0,0,0,0,0,0,10,0,192,0,3,3
GPS_RAW_INT,2,-0.002588592702522874,175301,0.64761883020401,3.795653901761398e-05,0.006541029550135136,-0.7619364261627197,-0.0034622149541974068,0.014381508342921734,-0.007457078900188208,"[0.0, 0.0, 0.0, 0.0]",0.0013393322005867958,0.35277828574180603,0.0,0.0,0.0,0.0,175350006,3,0,0,0,65535,65535,0,0,255,0,0,0,0,0,0,10,0,192,0,3,3
RAW_RPM,0,0.0,175301,0.64761883020401,3.795653901761398e-05,0.006541029550135136,-0.7619364261627197,-0.0034622149541974068,0.014381508342921734,-0.007457078900188208,"[0.0, 0.0, 0.0, 0.0]",0.0013393322005867958,0.35277828574180603,0.0,0.0,0.0,0.0,175350006,3,0,0,0,65535,65535,0,0,255,0,0,0,0,0,0,10,0,192,0,3,3
RAW_RPM,1,0.0003834952076431364,175301,0.64761883020401,3.795653901761398e-05,0.006541029550135136,-0.7619364261627197,-0.0034622149541974068,0.014381508342921734,-0.007457078900188208,"[0.0, 0.0, 0.0, 0.0]",0.0013393322005867958,0.35277828574180603,0.0,0.0,0.0,0.0,175350006,3,0,0,0,65535,65535,0,0,255,0,0,0,0,0,0,10,0,192,0,3,3
RAW_RPM,2,-0.0028474521823227406,175301,0.64761883020401,3.795653901761398e-05,0.006541029550135136,-0.7619364261627197,-0.0034622149541974068,0.014381508342921734,-0.007457078900188208,"[0.0, 0.0, 0.0, 0.0]",0.0013393322005867958,0.35277828574180603,0.0,0.0,0.0,0.0,175350006,3,0,0,0,65535,65535,0,0,255,0,0,0,0,0,0,10,0,192,0,3,3
ATTITUDE_QUATERNION,2,-0.0028474521823227406,175352,0.6477381587028503,0.0006324985879473388,0.007321908138692379,-0.7618276476860046,0.0007989727309904993,0.011185618117451668,-0.0026632421649992466,"[0.0, 0.0, 0.0, 0.0]",0.0013393322005867958,0.35277828574180603,0.0,0.0,0.0,0.0,175350006,3,0,0,0,65535,65535,0,0,255,0,0,0,0,0,0,10,0,192,0,3,3
LOCAL_POSITION_NED,2,-0.0028474521823227406,175352,0.6477381587028503,0.0006324985879473388,0.007321908138692379,-0.7618276476860046,0.0007989727309904993,0.011185618117451668,-0.0026632421649992466,"[0.0, 0.0, 0.0, 0.0]",0.0013415750581771135,0.35279205441474915,0.0,0.0,0.0,0.0,175350006,3,0,0,0,65535,65535,0,0,255,0,0,0,0,0,0,10,0,192,0,3,3
RAW_RPM,0,-0.0007669904152862728,175352,0.6477381587028503,0.0006324985879473388,0.007321908138692379,-0.7618276476860046,0.0007989727309904993,0.011185618117451668,-0.0026632421649992466,"[0.0, 0.0, 0.0, 0.0]",0.0013415750581771135,0.35279205441474915,0.0,0.0,0.0,0.0,175350006,3,0,0,0,65535,65535,0,0,255,0,0,0,0,0,0,10,0,192,0,3,3
RAW_RPM,1,0.0003834952076431364,175352,0.6477381587028503,0.0006324985879473388,0.007321908138692379,-0.7618276476860046,0.0007989727309904993,0.011185618117451668,-0.0026632421649992466,"[0.0, 0.0, 0.0, 0.0]",0.0013415750581771135,0.35279205441474915,0.0,0.0,0.0,0.0,175350006,3,0,0,0,65535,65535,0,0,255,0,0,0,0,0,0,10,0,192,0,3,3
RAW_RPM,2,-0.002070874208584428,175352,0.6477381587028503,0.0006324985879473388,0.007321908138692379,-0.7618276476860046,0.0007989727309904993,0.011185618117451668,-0.0026632421649992466,"[0.0, 0.0, 0.0, 0.0]",0.0013415750581771135,0.35279205441474915,0.0,0.0,0.0,0.0,175350006,3,0,0,0,65535,65535,0,0,255,0,0,0,0,0,0,10,0,192,0,3,3
ATTITUDE_QUATERNION,2,-0.002070874208584428,175403,0.6480542421340942,-5.32273443241138e-05,0.0077049690298736095,-0.7615551352500916,-0.003195890923961997,0.012783563695847988,-0.0066581061109900475,"[0.0, 0.0, 0.0, 0.0]",0.0013415750581771135,0.35279205441474915,0.0,0.0,0.0,0.0,175350006,3,0,0,0,65535,65535,0,0,255,0,0,0,0,0,0,10,0,192,0,3,3
LOCAL_POSITION_NED,2,-0.002070874208584428,175403,0.6480542421340942,-5.32273443241138e-05,0.0077049690298736095,-0.7615551352500916,-0.003195890923961997,0.012783563695847988,-0.0066581061109900475,"[0.0, 0.0, 0.0, 0.0]",0.0013441623887047172,0.35280802845954895,0.0,0.0,0.0,0.0,175350006,3,0,0,0,65535,65535,0,0,255,0,0,0,0,0,0,10,0,192,0,3,3
GPS_RAW_INT,2,-0.002070874208584428,175403,0.6480542421340942,-5.32273443241138e-05,0.0077049690298736095,-0.7615551352500916,-0.003195890923961997,0.012783563695847988,-0.0066581061109900475,"[0.0, 0.0, 0.0, 0.0]",0.0013441623887047172,0.35280802845954895,0.0,0.0,0.0,0.0,175451003,3,0,0,0,65535,65535,0,0,255,0,0,0,0,0,0,10,0,192,0,3,3
RAW_RPM,0,-0.0007669904152862728,175403,0.6480542421340942,-5.32273443241138e-05,0.0077049690298736095,-0.7615551352500916,-0.003195890923961997,0.012783563695847988,-0.0066581061109900475,"[0.0, 0.0, 0.0, 0.0]",0.0013441623887047172,0.35280802845954895,0.0,0.0,0.0,0.0,175451003,3,0,0,0,65535,65535,0,0,255,0,0,0,0,0,0,10,0,192,0,3,3
RAW_RPM,1,-0.0011504855938255787,175403,0.6480542421340942,-5.32273443241138e-05,0.0077049690298736095,-0.7615551352500916,-0.003195890923961997,0.012783563695847988,-0.0066581061109900475,"[0.0, 0.0, 0.0, 0.0]",0.0013441623887047172,0.35280802845954895,0.0,0.0,0.0,0.0,175451003,3,0,0,0,65535,65535,0,0,255,0,0,0,0,0,0,10,0,192,0,3,3
RAW_RPM,2,-0.0028474521823227406,175403,0.6480542421340942,-5.32273443241138e-05,0.0077049690298736095,-0.7615551352500916,-0.003195890923961997,0.012783563695847988,-0.0066581061109900475,"[0.0, 0.0, 0.0, 0.0]",0.0013441623887047172,0.35280802845954895,0.0,0.0,0.0,0.0,175451003,3,0,0,0,65535,65535,0,0,255,0,0,0,0,0,0,10,0,192,0,3,3
ATTITUDE_QUATERNION,2,-0.0028474521823227406,175454,0.6479806303977966,-0.00019028161477763206,0.007191523443907499,-0.7616229057312012,-0.0066581061109900475,0.014914157800376415,-0.004793836269527674,"[0.0, 0.0, 0.0, 0.0]",0.0013441623887047172,0.35280802845954895,0.0,0.0,0.0,0.0,175451003,3,0,0,0,65535,65535,0,0,255,0,0,0,0,0,0,10,0,192,0,3,3
LOCAL_POSITION_NED,2,-0.0028474521823227406,175455,0.6479806303977966,-0.00019028161477763206,0.007191523443907499,-0.7616229057312012,-0.0066581061109900475,0.014914157800376415,-0.004793836269527674,"[0.0, 0.0, 0.0, 0.0]",0.00135048886295408,0.35284698009490967,0.0,0.00011656423157546669,0.0007190697360783815,0.0,175451003,3,0,0,0,65535,65535,0,0,255,0,0,0,0,0,0,10,0,192,0,3,3
RAW_RPM,0,0.0007669904152862728,175455,0.6479806303977966,-0.00019028161477763206,0.007191523443907499,-0.7616229057312012,-0.0066581061109900475,0.014914157800376415,-0.004793836269527674,"[0.0, 0.0, 0.0, 0.0]",0.00135048886295408,0.35284698009490967,0.0,0.00011656423157546669,0.0007190697360783815,0.0,175451003,3,0,0,0,65535,65535,0,0,255,0,0,0,0,0,0,10,0,192,0,3,3
RAW_RPM,1,0.0,175455,0.6479806303977966,-0.00019028161477763206,0.007191523443907499,-0.7616229057312012,-0.0066581061109900475,0.014914157800376415,-0.004793836269527674,"[0.0, 0.0, 0.0, 0.0]",0.00135048886295408,0.35284698009490967,0.0,0.00011656423157546669,0.0007190697360783815,0.0,175451003,3,0,0,0,65535,65535,0,0,255,0,0,0,0,0,0,10,0,192,0,3,3
RAW_RPM,2,-0.002588592702522874,175455,0.6479806303977966,-0.00019028161477763206,0.007191523443907499,-0.7616229057312012,-0.0066581061109900475,0.014914157800376415,-0.004793836269527674,"[0.0, 0.0, 0.0, 0.0]",0.00135048886295408,0.35284698009490967,0.0,0.00011656423157546669,0.0007190697360783815,0.0,175451003,3,0,0,0,65535,65535,0,0,255,0,0,0,0,0,0,10,0,192,0,3,3
ATTITUDE_QUATERNION,2,-0.002588592702522874,175505,0.6478144526481628,0.00024884528829716146,0.007115546148270369,-0.7617649435997009,-0.0029295666608959436,0.014115184545516968,-0.00452751200646162,"[0.0, 0.0, 0.0, 0.0]",0.00135048886295408,0.35284698009490967,0.0,0.00011656423157546669,0.0007190697360783815,0.0,175451003,3,0,0,0,65535,65535,0,0,255,0,0,0,0,0,0,10,0,192,0,3,3
LOCAL_POSITION_NED,2,-0.002588592702522874,175505,0.6478144526481628,0.00024884528829716146,0.007115546148270369,-0.7617649435997009,-0.0029295666608959436,0.014115184545516968,-0.00452751200646162,"[0.0, 0.0, 0.0, 0.0]",0.001355519751086831,0.3528778553009033,0.0,0.00012887110642623156,0.0007908708648756146,0.0,175451003,3,0,0,0,65535,65535,0,0,255,0,0,0,0,0,0,10,0,192,0,3,3
GPS_RAW_INT,2,-0.002588592702522874,175505,0.6478144526481628,0.00024884528829716146,0.007115546148270369,-0.7617649435997009,-0.0029295666608959436,0.014115184545516968,-0.00452751200646162,"[0.0, 0.0, 0.0, 0.0]",0.001355519751086831,0.3528778553009033,0.0,0.00012887110642623156,0.0007908708648756146,0.0,175552004,3,0,0,0,65535,65535,0,0,255,0,0,0,0,0,0,10,0,192,0,3,3
RAW_RPM,0,0.0003834952076431364,175505,0.6478144526481628,0.00024884528829716146,0.007115546148270369,-0.7617649435997009,-0.0029295666608959436,0.014115184545516968,-0.00452751200646162,"[0.0, 0.0, 0.0, 0.0]",0.001355519751086831,0.3528778553009033,0.0,0.00012887110642623156,0.0007908708648756146,0.0,175552004,3,0,0,0,65535,65535,0,0,255,0,0,0,0,0,0,10,0,192,0,3,3
RAW_RPM,1,0.0007669904152862728,175505,0.6478144526481628,0.00024884528829716146,0.007115546148270369,-0.7617649435997009,-0.0029295666608959436,0.014115184545516968,-0.00452751200646162,"[0.0, 0.0, 0.0, 0.0]",0.001355519751086831,0.3528778553009033,0.0,0.00012887110642623156,0.0007908708648756146,0.0,175552004,3,0,0,0,65535,65535,0,0,255,0,0,0,0,0,0,10,0,192,0,3,3
RAW_RPM,2,-0.0028474521823227406,175505,0.6478144526481628,0.00024884528829716146,0.007115546148270369,-0.7617649435997009,-0.0029295666608959436,0.014115184545516968,-0.00452751200646162,"[0.0, 0.0, 0.0, 0.0]",0.001355519751086831,0.3528778553009033,0.0,0.00012887110642623156,0.0007908708648756146,0.0,175552004,3,0,0,0,65535,65535,0,0,255,0,0,0,0,0,0,10,0,192,0,3,3
ATTITUDE_QUATERNION,2,-0.0028474521823227406,175556,0.6476470232009888,0.0003247271233703941,0.006649712100625038,-0.7619115114212036,-0.0029295666608959436,0.011185618117451668,-0.006391781847923994,"[0.0, 0.0, 0.0, 0.0]",0.001355519751086831,0.3528778553009033,0.0,0.00012887110642623156,0.0007908708648756146,0.0,175552004,3,0,0,0,65535,65535,0,0,255,0,0,0,0,0,0,10,0,192,0,3,3
LOCAL_POSITION_NED,2,-0.0028474521823227406,175556,0.6476470232009888,0.0003247271233703941,0.006649712100625038,-0.7619115114212036,-0.0029295666608959436,0.011185618117451668,-0.006391781847923994,"[0.0, 0.0, 0.0, 0.0]",0.0013605881249532104,0.3529089093208313,0.0,0.00011747953249141574,0.000718920782674104,0.0,175552004,3,0,0,0,65535,65535,0,0,255,0,0,0,0,0,0,10,0,192,0,3,3
RAW_RPM,0,0.0003834952076431364,175556,0.6476470232009888,0.0003247271233703941,0.006649712100625038,-0.7619115114212036,-0.0029295666608959436,0.011185618117451668,-0.006391781847923994,"[0.0, 0.0, 0.0, 0.0]",0.0013605881249532104,0.3529089093208313,0.0,0.00011747953249141574,0.000718920782674104,0.0,175552004,3,0,0,0,65535,65535,0,0,255,0,0,0,0,0,0,10,0,192,0,3,3
RAW_RPM,1,0.0007669904152862728,175556,0.6476470232009888,0.0003247271233703941,0.006649712100625038,-0.7619115114212036,-0.0029295666608959436,0.011185618117451668,-0.006391781847923994,"[0.0, 0.0, 0.0, 0.0]",0.0013605881249532104,0.3529089093208313,0.0,0.00011747953249141574,0.000718920782674104,0.0,175552004,3,0,0,0,65535,65535,0,0,255,0,0,0,0,0,0,10,0,192,0,3,3
RAW_RPM,2,-0.0028474521823227406,175556,0.6476470232009888,0.0003247271233703941,0.006649712100625038,-0.7619115114212036,-0.0029295666608959436,0.011185618117451668,-0.006391781847923994,"[0.0, 0.0, 0.0, 0.0]",0.0013605881249532104,0.3529089093208313,0.0,0.00011747953249141574,0.000718920782674104,0.0,175552004,3,0,0,0,65535,65535,0,0,255,0,0,0,0,0,0,10,0,192,0,3,3
ATTITUDE_QUATERNION,2,-0.0028474521823227406,175607,0.6475690007209778,0.0005159680731594563,0.00656623812392354,-0.7619783282279968,-0.005859133321791887,0.010919293388724327,-0.007190754171460867,"[0.0, 0.0, 0.0, 0.0]",0.0013605881249532104,0.3529089093208313,0.0,0.00011747953249141574,0.000718920782674104,0.0,175552004,3,0,0,0,65535,65535,0,0,255,0,0,0,0,0,0,10,0,192,0,3,3
LOCAL_POSITION_NED,2,-0.0028474521823227406,175607,0.6475690007209778,0.0005159680731594563,0.00656623812392354,-0.7619783282279968,-0.005859133321791887,0.010919293388724327,-0.007190754171460867,"[0.0, 0.0, 0.0, 0.0]",0.0013662200653925538,0.3529433310031891,0.0,0.00011762128997361287,0.0007188976160250604,0.0,175552004,3,0,0,0,65535,65535,0,0,255,0,0,0,0,0,0,10,0,192,0,3,3
GPS_RAW_INT,2,-0.0028474521823227406,175607,0.6475690007209778,0.0005159680731594563,0.00656623812392354,-0.7619783282279968,-0.005859133321791887,0.010919293388724327,-0.007190754171460867,"[0.0, 0.0, 0.0, 0.0]",0.0013662200653925538,0.3529433310031891,0.0,0.00011762128997361287,0.0007188976160250604,0.0,175653007,3,0,0,0,65535,65535,0,0,255,0,0,0,0,0,0,10,0,192,0,3,3
RAW_RPM,0,0.0007669904152862728,175607,0.6475690007209778,0.0005159680731594563,0.00656623812392354,-0.7619783282279968,-0.005859133321791887,0.010919293388724327,-0.007190754171460867,"[0.0, 0.0, 0.0, 0.0]",0.0013662200653925538,0.3529433310031891,0.0,0.00011762128997361287,0.0007188976160250604,0.0,175653007,3,0,0,0,65535,65535,0,0,255,0,0,0,0,0,0,10,0,192,0,3,3
RAW_RPM,1,0.0003834952076431364,175607,0.6475690007209778,0.0005159680731594563,0.00656623812392354,-0.7619783282279968,-0.005859133321791887,0.010919293388724327,-0.007190754171460867,"[0.0, 0.0, 0.0, 0.0]",0.0013662200653925538,0.3529433310031891,0.0,0.00011762128997361287,0.0007188976160250604,0.0,175653007,3,0,0,0,65535,65535,0,0,255,0,0,0,0,0,0,10,0,192,0,3,3
RAW_RPM,2,-0.0028474521823227406,175607,0.6475690007209778,0.0005159680731594563,0.00656623812392354,-0.7619783282279968,-0.005859133321791887,0.010919293388724327,-0.007190754171460867,"[0.0, 0.0, 0.0, 0.0]",0.0013662200653925538,0.3529433310031891,0.0,0.00011762128997361287,0.0007188976160250604,0.0,175653007,3,0,0,0,65535,65535,0,0,255,0,0,0,0,0,0,10,0,192,0,3,3
ATTITUDE_QUATERNION,2,-0.0028474521823227406,175658,0.6478362679481506,0.0004924606764689088,0.00749781122431159,-0.7617425322532654,-0.005326484329998493,0.015180480666458607,-0.0015979454619809985,"[0.0, 0.0, 0.0, 0.0]",0.0013662200653925538,0.3529433310031891,0.0,0.00011762128997361287,0.0007188976160250604,0.0,175653007,3,0,0,0,65535,65535,0,0,255,0,0,0,0,0,0,10,0,192,0,3,3
LOCAL_POSITION_NED,2,-0.0028474521823227406,175658,0.6478362679481506,0.0004924606764689088,0.00749781122431159,-0.7617425322532654,-0.005326484329998493,0.015180480666458607,-0.0015979454619809985,"[0.0, 0.0, 0.0, 0.0]",0.0013722542207688093,0.35298025608062744,0.0,0.00011723759234882891,0.0007189603056758642,0.0,175653007,3,0,0,0,65535,65535,0,0,255,0,0,0,0,0,0,10,0,192,0,3,3
RAW_RPM,0,-0.0007669904152862728,175658,0.6478362679481506,0.0004924606764689088,0.00749781122431159,-0.7617425322532654,-0.005326484329998493,0.015180480666458607,-0.0015979454619809985,"[0.0, 0.0, 0.0, 0.0]",0.0013722542207688093,0.35298025608062744,0.0,0.00011723759234882891,0.0007189603056758642,0.0,175653007,3,0,0,0,65535,65535,0,0,255,0,0,0,0,0,0,10,0,192,0,3,3
RAW_RPM,1,-0.0003834952076431364,175658,0.6478362679481506,0.0004924606764689088,0.00749781122431159,-0.7617425322532654,-0.005326484329998493,0.015180480666458607,-0.0015979454619809985,"[0.0, 0.0, 0.0, 0.0]",0.0013722542207688093,0.35298025608062744,0.0,0.00011723759234882891,0.0007189603056758642,0.0,175653007,3,0,0,0,65535,65535,0,0,255,0,0,0,0,0,0,10,0,192,0,3,3
RAW_RPM,2,-0.0028474521823227406,175658,0.6478362679481506,0.0004924606764689088,0.00749781122431159,-0.7617425322532654,-0.005326484329998493,0.015180480666458607,-0.0015979454619809985,"[0.0, 0.0, 0.0, 0.0]",0.0013722542207688093,0.35298025608062744,0.0,0.00011723759234882891,0.0007189603056758642,0.0,175653007,3,0,0,0,65535,65535,0,0,255,0,0,0,0,0,0,10,0,192,0,3,3
ATTITUDE_QUATERNION,2,-0.0028474521823227406,175709,0.647762656211853,4.694635572377592e-05,0.0070016696117818356,-0.7618100643157959,-0.005326484329998493,0.009321347810328007,-0.004793836269527674,"[0.0, 0.0, 0.0, 0.0]",0.0013722542207688093,0.35298025608062744,0.0,0.00011723759234882891,0.0007189603056758642,0.0,175653007,3,0,0,0,65535,65535,0,0,255,0,0,0,0,0,0,10,0,192,0,3,3
LOCAL_POSITION_NED,2,-0.0028474521823227406,175709,0.647762656211853,4.694635572377592e-05,0.0070016696117818356,-0.7618100643157959,-0.005326484329998493,0.009321347810328007,-0.004793836269527674,"[0.0, 0.0, 0.0, 0.0]",0.0013786099152639508,0.35301920771598816,0.0,0.00011717734014382586,0.0007189700845628977,0.0,175653007,3,0,0,0,65535,65535,0,0,255,0,0,0,0,0,0,10,0,192,0,3,3
GPS_RAW_INT,2,-0.0028474521823227406,175709,0.647762656211853,4.694635572377592e-05,0.0070016696117818356,-0.7618100643157959,-0.005326484329998493,0.009321347810328007,-0.004793836269527674,"[0.0, 0.0, 0.0, 0.0]",0.0013786099152639508,0.35301920771598816,0.0,0.00011717734014382586,0.0007189700845628977,0.0,175754421,3,0,0,0,65535,65535,0,0,255,0,0,0,0,0,0,10,0,192,0,3,3
RAW_RPM,0,-0.0003834952076431364,175709,0.647762656211853,4.694635572377592e-05,0.0070016696117818356,-0.7618100643157959,-0.005326484329998493,0.009321347810328007,-0.004793836269527674,"[0.0, 0.0, 0.0, 0.0]",0.0013786099152639508,0.35301920771598816,0.0,0.00011717734014382586,0.0007189700845628977,0.0,175754421,3,0,0,0,65535,65535,0,0,255,0,0,0,0,0,0,10,0,192,0,3,3
RAW_RPM,1,0.0007669904152862728,175709,0.647762656211853,4.694635572377592e-05,0.0070016696117818356,-0.7618100643157959,-0.005326484329998493,0.009321347810328007,-0.004793836269527674,"[0.0, 0.0, 0.0, 0.0]",0.0013786099152639508,0.35301920771598816,0.0,0.00011717734014382586,0.0007189700845628977,0.0,175754421,3,0,0,0,65535,65535,0,0,255,0,0,0,0,0,0,10,0,192,0,3,3
RAW_RPM,2,-0.0028474521823227406,175709,0.647762656211853,4.694635572377592e-05,0.0070016696117818356,-0.7618100643157959,-0.005326484329998493,0.009321347810328007,-0.004793836269527674,"[0.0, 0.0, 0.0, 0.0]",0.0013786099152639508,0.35301920771598816,0.0,0.00011717734014382586,0.0007189700845628977,0.0,175754421,3,0,0,0,65535,65535,0,0,255,0,0,0,0,0,0,10,0,192,0,3,3
ATTITUDE_QUATERNION,2,-0.0028474521823227406,175760,0.6479937434196472,1.665490162849892e-05,0.007798180449754,-0.7616057395935059,-0.0039948634803295135,0.016512101516127586,-0.003195890923961997,"[0.0, 0.0, 0.0, 0.0]",0.0013786099152639508,0.35301920771598816,0.0,0.00011717734014382586,0.0007189700845628977,0.0,175754421,3,0,0,0,65535,65535,0,0,255,0,0,0,0,0,0,10,0,192,0,3,3
LOCAL_POSITION_NED,2,-0.0028474521823227406,175760,0.6479937434196472,1.665490162849892e-05,0.007798180449754,-0.7616057395935059,-0.0039948634803295135,0.016512101516127586,-0.003195890923961997,"[0.0, 0.0, 0.0, 0.0]",0.0013846008805558085,0.3530559539794922,0.0,0.00011697737500071526,0.0007190026808530092,0.0,175754421,3,0,0,0,65535,65535,0,0,255,0,0,0,0,0,0,10,0,192,0,3,3
RAW_RPM,0,0.0003834952076431364,175760,0.6479937434196472,1.665490162849892e-05,0.007798180449754,-0.7616057395935059,-0.0039948634803295135,0.016512101516127586,-0.003195890923961997,"[0.0, 0.0, 0.0, 0.0]",0.0013846008805558085,0.3530559539794922,0.0,0.00011697737500071526,0.0007190026808530092,0.0,175754421,3,0,0,0,65535,65535,0,0,255,0,0,0,0,0,0,10,0,192,0,3,3
RAW_RPM,1,-0.0003834952076431364,175760,0.6479937434196472,1.665490162849892e-05,0.007798180449754,-0.7616057395935059,-0.0039948634803295135,0.016512101516127586,-0.003195890923961997,"[0.0, 0.0, 0.0, 0.0]",0.0013846008805558085,0.3530559539794922,0.0,0.00011697737500071526,0.0007190026808530092,0.0,175754421,3,0,0,0,65535,65535,0,0,255,0,0,0,0,0,0,10,0,192,0,3,3
RAW_RPM,2,-0.0028474521823227406,175760,0.6479937434196472,1.665490162849892e-05,0.007798180449754,-0.7616057395935059,-0.0039948634803295135,0.016512101516127586,-0.003195890923961997,"[0.0, 0.0, 0.0, 0.0]",0.0013846008805558085,0.3530559539794922,0.0,0.00011697737500071526,0.0007190026808530092,0.0,175754421,3,0,0,0,65535,65535,0,0,255,0,0,0,0,0,0,10,0,192,0,3,3
ATTITUDE_QUATERNION,2,-0.0028474521823227406,175811,0.6482110023498535,-0.0007554712938144803,0.0077683585695922375,-0.7614208459854126,-0.0029295666608959436,0.008788700215518475,-0.004793836269527674,"[0.0, 0.0, 0.0, 0.0]",0.0013846008805558085,0.3530559539794922,0.0,0.00011697737500071526,0.0007190026808530092,0.0,175754421,3,0,0,0,65535,65535,0,0,255,0,0,0,0,0,0,10,0,192,0,3,3
LOCAL_POSITION_NED,2,-0.0028474521823227406,175811,0.6482110023498535,-0.0007554712938144803,0.0077683585695922375,-0.7614208459854126,-0.0029295666608959436,0.008788700215518475,-0.004793836269527674,"[0.0, 0.0, 0.0, 0.0]",0.0013907733373343945,0.3530940115451813,0.0,0.00011644225742202252,0.0007190895266830921,0.0,175754421,3,0,0,0,65535,65535,0,0,255,0,0,0,0,0,0,10,0,192,0,3,3
GPS_RAW_INT,2,-0.0028474521823227406,175811,0.6482110023498535,-0.0007554712938144803,0.0077683585695922375,-0.7614208459854126,-0.0029295666608959436,0.008788700215518475,-0.004793836269527674,"[0.0, 0.0, 0.0, 0.0]",0.0013907733373343945,0.3530940115451813,0.0,0.00011644225742202252,0.0007190895266830921,0.0,175855003,3,0,0,0,65535,65535,0,0,255,0,0,0,0,0,0,10,0,192,0,3,3
RAW_RPM,0,0.0,175811,0.6482110023498535,-0.0007554712938144803,0.0077683585695922375,-0.7614208459854126,-0.0029295666608959436,0.008788700215518475,-0.004793836269527674,"[0.0, 0.0, 0.0, 0.0]",0.0013907733373343945,0.3530940115451813,0.0,0.00011644225742202252,0.0007190895266830921,0.0,175855003,3,0,0,0,65535,65535,0,0,255,0,0,0,0,0,0,10,0,192,0,3,3
RAW_RPM,1,0.0,175811,0.6482110023498535,-0.0007554712938144803,0.0077683585695922375,-0.7614208459854126,-0.0029295666608959436,0.008788700215518475,-0.004793836269527674,"[0.0, 0.0, 0.0, 0.0]",0.0013907733373343945,0.3530940115451813,0.0,0.00011644225742202252,0.0007190895266830921,0.0,175855003,3,0,0,0,65535,65535,0,0,255,0,0,0,0,0,0,10,0,192,0,3,3
RAW_RPM,2,-0.0028474521823227406,175811,0.6482110023498535,-0.0007554712938144803,0.0077683585695922375,-0.7614208459854126,-0.0029295666608959436,0.008788700215518475,-0.004793836269527674,"[0.0, 0.0, 0.0, 0.0]",0.0013907733373343945,0.3530940115451813,0.0,0.00011644225742202252,0.0007190895266830921,0.0,175855003,3,0,0,0,65535,65535,0,0,255,0,0,0,0,0,0,10,0,192,0,3,3
ATTITUDE_QUATERNION,2,-0.0028474521823227406,175862,0.6485079526901245,-0.0017602816224098206,0.007748393341898918,-0.7611663937568665,-0.003195890923961997,0.013582535088062286,-0.004793836269527674,"[0.0, 0.0, 0.0, 0.0]",0.0013907733373343945,0.3530940115451813,0.0,0.00011644225742202252,0.0007190895266830921,0.0,175855003,3,0,0,0,65535,65535,0,0,255,0,0,0,0,0,0,10,0,192,0,3,3
LOCAL_POSITION_NED,2,-0.0028474521823227406,175862,0.6485079526901245,-0.0017602816224098206,0.007748393341898918,-0.7611663937568665,-0.003195890923961997,0.013582535088062286,-0.004793836269527674,"[0.0, 0.0, 0.0, 0.0]",0.001395765575580299,0.3531248867511749,0.0,0.00011577057011891156,0.0007191979675553739,0.0,175855003,3,0,0,0,65535,65535,0,0,255,0,0,0,0,0,0,10,0,192,0,3,3
RAW_RPM,0,0.0011504855938255787,175862,0.6485079526901245,-0.0017602816224098206,0.007748393341898918,-0.7611663937568665,-0.003195890923961997,0.013582535088062286,-0.004793836269527674,"[0.0, 0.0, 0.0, 0.0]",0.001395765575580299,0.3531248867511749,0.0,0.00011577057011891156,0.0007191979675553739,0.0,175855003,3,0,0,0,65535,65535,0,0,255,0,0,0,0,0,0,10,0,192,0,3,3
RAW_RPM,1,0.0011504855938255787,175862,0.6485079526901245,-0.0017602816224098206,0.007748393341898918,-0.7611663937568665,-0.003195890923961997,0.013582535088062286,-0.004793836269527674,"[0.0, 0.0, 0.0, 0.0]",0.001395765575580299,0.3531248867511749,0.0,0.00011577057011891156,0.0007191979675553739,0.0,175855003,3,0,0,0,65535,65535,0,0,255,0,0,0,0,0,0,10,0,192,0,3,3
RAW_RPM,2,-0.002588592702522874,175862,0.6485079526901245,-0.0017602816224098206,0.007748393341898918,-0.7611663937568665,-0.003195890923961997,0.013582535088062286,-0.004793836269527674,"[0.0, 0.0, 0.0, 0.0]",0.001395765575580299,0.3531248867511749,0.0,0.00011577057011891156,0.0007191979675553739,0.0,175855003,3,0,0,0,65535,65535,0,0,255,0,0,0,0,0,0,10,0,192,0,3,3
ATTITUDE_QUATERNION,2,-0.002588592702522874,175913,0.6486635804176331,-0.0018203075742349029,0.008006604388356209,-0.7610309720039368,-0.004261187743395567,0.012783563695847988,-0.0034622149541974068,"[0.0, 0.0, 0.0, 0.0]",0.001395765575580299,0.3531248867511749,0.0,0.00011577057011891156,0.0007191979675553739,0.0,175855003,3,0,0,0,65535,65535,0,0,255,0,0,0,0,0,0,10,0,192,0,3,3
LOCAL_POSITION_NED,2,-0.002588592702522874,175913,0.6486635804176331,-0.0018203075742349029,0.008006604388356209,-0.7610309720039368,-0.004261187743395567,0.012783563695847988,-0.0034622149541974068,"[0.0, 0.0, 0.0, 0.0]",0.0014004099648445845,0.3531537353992462,0.0,0.00012721499660983682,0.0007911389693617821,0.0,175855003,3,0,0,0,65535,65535,0,0,255,0,0,0,0,0,0,10,0,192,0,3,3
GPS_RAW_INT,2,-0.002588592702522874,175913,0.6486635804176331,-0.0018203075742349029,0.008006604388356209,-0.7610309720039368,-0.004261187743395567,0.012783563695847988,-0.0034622149541974068,"[0.0, 0.0, 0.0, 0.0]",0.0014004099648445845,0.3531537353992462,0.0,0.00012721499660983682,0.0007911389693617821,0.0,175956002,3,0,0,0,65535,65535,0,0,255,0,0,0,0,0,0,10,0,192,0,3,3
RAW_RPM,0,0.0,175913,0.6486635804176331,-0.0018203075742349029,0.008006604388356209,-0.7610309720039368,-0.004261187743395567,0.012783563695847988,-0.0034622149541974068,"[0.0, 0.0, 0.0, 0.0]",0.0014004099648445845,0.3531537353992462,0.0,0.00012721499660983682,0.0007911389693617821,0.0,175956002,3,0,0,0,65535,65535,0,0,255,0,0,0,0,0,0,10,0,192,0,3,3
RAW_RPM,1,0.0003834952076431364,175913,0.6486635804176331,-0.0018203075742349029,0.008006604388356209,-0.7610309720039368,-0.004261187743395567,0.012783563695847988,-0.0034622149541974068,"[0.0, 0.0, 0.0, 0.0]",0.0014004099648445845,0.3531537353992462,0.0,0.00012721499660983682,0.0007911389693617821,0.0,175956002,3,0,0,0,65535,65535,0,0,255,0,0,0,0,0,0,10,0,192,0,3,3
RAW_RPM,2,-0.002588592702522874,175913,0.6486635804176331,-0.0018203075742349029,0.008006604388356209,-0.7610309720039368,-0.004261187743395567,0.012783563695847988,-0.0034622149541974068,"[0.0, 0.0, 0.0, 0.0]",0.0014004099648445845,0.3531537353992462,0.0,0.00012721499660983682,0.0007911389693617821,0.0,175956002,3,0,0,0,65535,65535,0,0,255,0,0,0,0,0,0,10,0,192,0,3,3
ATTITUDE_QUATERNION,2,-0.002588592702522874,175964,0.6487928032875061,-0.0009492082172073424,0.008812383748590946,-0.7609134912490845,-0.0039948634803295135,0.012250914238393307,-0.007723402697592974,"[0.0, 0.0, 0.0, 0.0]",0.0014004099648445845,0.3531537353992462,0.0,0.00012721499660983682,0.0007911389693617821,0.0,175956002,3,0,0,0,65535,65535,0,0,255,0,0,0,0,0,0,10,0,192,0,3,3
LOCAL_POSITION_NED,2,-0.002588592702522874,175965,0.6487928032875061,-0.0009492082172073424,0.008812383748590946,-0.7609134912490845,-0.0039948634803295135,0.012250914238393307,-0.007723402697592974,"[0.0, 0.0, 0.0, 0.0]",0.0014067688025534153,0.3531934320926666,0.0,0.00012682066881097853,0.0007912022992968559,0.0,175956002,3,0,0,0,65535,65535,0,0,255,0,0,0,0,0,0,10,0,192,0,3,3
HEARTBEAT,2,-0.002588592702522874,175965,0.6487928032875061,-0.0009492082172073424,0.008812383748590946,-0.7609134912490845,-0.0039948634803295135,0.012250914238393307,-0.007723402697592974,"[0.0, 0.0, 0.0, 0.0]",0.0014067688025534153,0.3531934320926666,0.0,0.00012682066881097853,0.0007912022992968559,0.0,175956002,3,0,0,0,65535,65535,0,0,255,0,0,0,0,0,0,10,0,192,0,3,3
RAW_RPM,0,0.0011504855938255787,175965,0.6487928032875061,-0.0009492082172073424,0.008812383748590946,-0.7609134912490845,-0.0039948634803295135,0.012250914238393307,-0.007723402697592974,"[0.0, 0.0, 0.0, 0.0]",0.0014067688025534153,0.3531934320926666,0.0,0.00012682066881097853,0.0007912022992968559,0.0,175956002,3,0,0,0,65535,65535,0,0,255,0,0,0,0,0,0,10,0,192,0,3,3
RAW_RPM,1,-0.0003834952076431364,175965,0.6487928032875061,-0.0009492082172073424,0.008812383748590946,-0.7609134912490845,-0.0039948634803295135,0.012250914238393307,-0.007723402697592974,"[0.0, 0.0, 0.0, 0.0]",0.0014067688025534153,0.3531934320926666,0.0,0.00012682066881097853,0.0007912022992968559,0.0,175956002,3,0,0,0,65535,65535,0,0,255,0,0,0,0,0,0,10,0,192,0,3,3
RAW_RPM,2,-0.002329733455553651,175965,0.6487928032875061,-0.0009492082172073424,0.008812383748590946,-0.7609134912490845,-0.0039948634803295135,0.012250914238393307,-0.007723402697592974,"[0.0, 0.0, 0.0, 0.0]",0.0014067688025534153,0.3531934320926666,0.0,0.00012682066881097853,0.0007912022992968559,0.0,175956002,3,0,0,0,65535,65535,0,0,255,0,0,0,0,0,0,10,0,192,0,3,3
ATTITUDE_QUATERNION,2,-0.002329733455553651,176015,0.6487860083580017,-0.000748929800465703,0.008710990659892559,-0.7609207630157471,-0.004261187743395567,0.011984591372311115,-0.008256050758063793,"[0.0, 0.0, 0.0, 0.0]",0.0014067688025534153,0.3531934320926666,0.0,0.00012682066881097853,0.0007912022992968559,0.0,175956002,3,0,0,0,65535,65535,0,0,255,0,0,0,0,0,0,10,0,192,0,3,3
LOCAL_POSITION_NED,2,-0.002329733455553651,176015,0.6487860083580017,-0.000748929800465703,0.008710990659892559,-0.7609207630157471,-0.004261187743395567,0.011984591372311115,-0.008256050758063793,"[0.0, 0.0, 0.0, 0.0]",0.0014130360214039683,0.3532325029373169,0.0,0.00014081991685088724,0.0008791282307356596,0.0,175956002,3,0,0,0,65535,65535,0,0,255,0,0,0,0,0,0,10,0,192,0,3,3
GPS_RAW_INT,2,-0.002329733455553651,176015,0.6487860083580017,-0.000748929800465703,0.008710990659892559,-0.7609207630157471,-0.004261187743395567,0.011984591372311115,-0.008256050758063793,"[0.0, 0.0, 0.0, 0.0]",0.0014130360214039683,0.3532325029373169,0.0,0.00014081991685088724,0.0008791282307356596,0.0,176057006,3,0,0,0,65535,65535,0,0,255,0,0,0,0,0,0,10,0,192,0,3,3
RAW_RPM,0,-0.0003834952076431364,176015,0.6487860083580017,-0.000748929800465703,0.008710990659892559,-0.7609207630157471,-0.004261187743395567,0.011984591372311115,-0.008256050758063793,"[0.0, 0.0, 0.0, 0.0]",0.0014130360214039683,0.3532325029373169,0.0,0.00014081991685088724,0.0008791282307356596,0.0,176057006,3,0,0,0,65535,65535,0,0,255,0,0,0,0,0,0,10,0,192,0,3,3
RAW_RPM,1,0.0,176015,0.6487860083580017,-0.000748929800465703,0.008710990659892559,-0.7609207630157471,-0.004261187743395567,0.011984591372311115,-0.008256050758063793,"[0.0, 0.0, 0.0, 0.0]",0.0014130360214039683,0.3532325029373169,0.0,0.00014081991685088724,0.0008791282307356596,0.0,176057006,3,0,0,0,65535,65535,0,0,255,0,0,0,0,0,0,10,0,192,0,3,3
RAW_RPM,2,-0.002588592702522874,176015,0.6487860083580017,-0.000748929800465703,0.008710990659892559,-0.7609207630157471,-0.004261187743395567,0.011984591372311115,-0.008256050758063793,"[0.0, 0.0, 0.0, 0.0]",0.0014130360214039683,0.3532325029373169,0.0,0.00014081991685088724,0.0008791282307356596,0.0,176057006,3,0,0,0,65535,65535,0,0,255,0,0,0,0,0,0,10,0,192,0,3,3
ATTITUDE_QUATERNION,2,-0.002588592702522874,176066,0.6485850214958191,-0.0005304280784912407,0.008177009411156178,-0.7610980868339539,-0.005859133321791887,0.011984591372311115,-0.0069244299083948135,"[0.0, 0.0, 0.0, 0.0]",0.0014130360214039683,0.3532325029373169,0.0,0.00014081991685088724,0.0008791282307356596,0.0,176057006,3,0,0,0,65535,65535,0,0,255,0,0,0,0,0,0,10,0,192,0,3,3
LOCAL_POSITION_NED,2,-0.002588592702522874,176066,0.6485850214958191,-0.0005304280784912407,0.008177009411156178,-0.7610980868339539,-0.005859133321791887,0.011984591372311115,-0.0069244299083948135,"[0.0, 0.0, 0.0, 0.0]",0.001417670282535255,0.3532613515853882,0.0,0.00012697912461590022,0.0007911768043413758,0.0,176057006,3,0,0,0,65535,65535,0,0,255,0,0,0,0,0,0,10,0,192,0,3,3
RAW_RPM,0,0.0003834952076431364,176066,0.6485850214958191,-0.0005304280784912407,0.008177009411156178,-0.7610980868339539,-0.005859133321791887,0.011984591372311115,-0.0069244299083948135,"[0.0, 0.0, 0.0, 0.0]",0.001417670282535255,0.3532613515853882,0.0,0.00012697912461590022,0.0007911768043413758,0.0,176057006,3,0,0,0,65535,65535,0,0,255,0,0,0,0,0,0,10,0,192,0,3,3
RAW_RPM,1,0.0,176066,0.6485850214958191,-0.0005304280784912407,0.008177009411156178,-0.7610980868339539,-0.005859133321791887,0.011984591372311115,-0.0069244299083948135,"[0.0, 0.0, 0.0, 0.0]",0.001417670282535255,0.3532613515853882,0.0,0.00012697912461590022,0.0007911768043413758,0.0,176057006,3,0,0,0,65535,65535,0,0,255,0,0,0,0,0,0,10,0,192,0,3,3
RAW_RPM,2,-0.0028474521823227406,176066,0.6485850214958191,-0.0005304280784912407,0.008177009411156178,-0.7610980868339539,-0.005859133321791887,0.011984591372311115,-0.0069244299083948135,"[0.0, 0.0, 0.0, 0.0]",0.001417670282535255,0.3532613515853882,0.0,0.00012697912461590022,0.0007911768043413758,0.0,176057006,3,0,0,0,65535,65535,0,0,255,0,0,0,0,0,0,10,0,192,0,3,3
ATTITUDE_QUATERNION,2,-0.0028474521823227406,176117,0.6485861539840698,-0.000529909913893789,0.008078471757471561,-0.7610982656478882,-0.0029295666608959436,0.014381508342921734,-0.005592809058725834,"[0.0, 0.0, 0.0, 0.0]",0.001417670282535255,0.3532613515853882,0.0,0.00012697912461590022,0.0007911768043413758,0.0,176057006,3,0,0,0,65535,65535,0,0,255,0,0,0,0,0,0,10,0,192,0,3,3
LOCAL_POSITION_NED,2,-0.0028474521823227406,176117,0.6485861539840698,-0.000529909913893789,0.008078471757471561,-0.7610982656478882,-0.0029295666608959436,0.014381508342921734,-0.005592809058725834,"[0.0, 0.0, 0.0, 0.0]",0.0014210742665454745,0.35328251123428345,0.0,0.0001155435384134762,0.0007192345219664276,0.0,176057006,3,0,0,0,65535,65535,0,0,255,0,0,0,0,0,0,10,0,192,0,3,3
GPS_RAW_INT,2,-0.0028474521823227406,176117,0.6485861539840698,-0.000529909913893789,0.008078471757471561,-0.7610982656478882,-0.0029295666608959436,0.014381508342921734,-0.005592809058725834,"[0.0, 0.0, 0.0, 0.0]",0.0014210742665454745,0.35328251123428345,0.0,0.0001155435384134762,0.0007192345219664276,0.0,176158002,3,0,0,0,65535,65535,0,0,255,0,0,0,0,0,0,10,0,192,0,3,3
RAW_RPM,0,0.0,176117,0.6485861539840698,-0.000529909913893789,0.008078471757471561,-0.7610982656478882,-0.0029295666608959436,0.014381508342921734,-0.005592809058725834,"[0.0, 0.0, 0.0, 0.0]",0.0014210742665454745,0.35328251123428345,0.0,0.0001155435384134762,0.0007192345219664276,0.0,176158002,3,0,0,0,65535,65535,0,0,255,0,0,0,0,0,0,10,0,192,0,3,3
RAW_RPM,1,-0.0003834952076431364,176117,0.6485861539840698,-0.000529909913893789,0.008078471757471561,-0.7610982656478882,-0.0029295666608959436,0.014381508342921734,-0.005592809058725834,"[0.0, 0.0, 0.0, 0.0]",0.0014210742665454745,0.35328251123428345,0.0,0.0001155435384134762,0.0007192345219664276,0.0,176158002,3,0,0,0,65535,65535,0,0,255,0,0,0,0,0,0,10,0,192,0,3,3
RAW_RPM,2,-0.0028474521823227406,176117,0.6485861539840698,-0.000529909913893789,0.008078471757471561,-0.7610982656478882,-0.0029295666608959436,0.014381508342921734,-0.005592809058725834,"[0.0, 0.0, 0.0, 0.0]",0.0014210742665454745,0.35328251123428345,0.0,0.0001155435384134762,0.0007192345219664276,0.0,176158002,3,0,0,0,65535,65535,0,0,255,0,0,0,0,0,0,10,0,192,0,3,3
ATTITUDE_QUATERNION,2,-0.0028474521823227406,176168,0.6483659744262695,-4.668533802032471e-05,0.007629717234522104,-0.7612906694412231,-0.0026632421649992466,0.011718266643583775,-0.010652968659996986,"[0.0, 0.0, 0.0, 0.0]",0.0014210742665454745,0.35328251123428345,0.0,0.0001155435384134762,0.0007192345219664276,0.0,176158002,3,0,0,0,65535,65535,0,0,255,0,0,0,0,0,0,10,0,192,0,3,3
LOCAL_POSITION_NED,2,-0.0028474521823227406,176168,0.6483659744262695,-4.668533802032471e-05,0.007629717234522104,-0.7612906694412231,-0.0026632421649992466,0.011718266643583775,-0.010652968659996986,"[0.0, 0.0, 0.0, 0.0]",0.00142753089312464,0.3533225655555725,0.0,0.00011616698611760512,0.0007191340555436909,0.0,176158002,3,0,0,0,65535,65535,0,0,255,0,0,0,0,0,0,10,0,192,0,3,3
RAW_RPM,0,-0.0007669904152862728,176168,0.6483659744262695,-4.668533802032471e-05,0.007629717234522104,-0.7612906694412231,-0.0026632421649992466,0.011718266643583775,-0.010652968659996986,"[0.0, 0.0, 0.0, 0.0]",0.00142753089312464,0.3533225655555725,0.0,0.00011616698611760512,0.0007191340555436909,0.0,176158002,3,0,0,0,65535,65535,0,0,255,0,0,0,0,0,0,10,0,192,0,3,3
RAW_RPM,1,0.0007669904152862728,176168,0.6483659744262695,-4.668533802032471e-05,0.007629717234522104,-0.7612906694412231,-0.0026632421649992466,0.011718266643583775,-0.010652968659996986,"[0.0, 0.0, 0.0, 0.0]",0.00142753089312464,0.3533225655555725,0.0,0.00011616698611760512,0.0007191340555436909,0.0,176158002,3,0,0,0,65535,65535,0,0,255,0,0,0,0,0,0,10,0,192,0,3,3
RAW_RPM,2,-0.002070874208584428,176168,0.6483659744262695,-4.668533802032471e-05,0.007629717234522104,-0.7612906694412231,-0.0026632421649992466,0.011718266643583775,-0.010652968659996986,"[0.0, 0.0, 0.0, 0.0]",0.00142753089312464,0.3533225655555725,0.0,0.00011616698611760512,0.0007191340555436909,0.0,176158002,3,0,0,0,65535,65535,0,0,255,0,0,0,0,0,0,10,0,192,0,3,3
ATTITUDE_QUATERNION,2,-0.002070874208584428,176219,0.6483579277992249,0.0010036888998001814,0.008217631839215755,-0.7612906694412231,-0.007457078900188208,0.007723402697592974,-0.006391781847923994,"[0.0, 0.0, 0.0, 0.0]",0.00142753089312464,0.3533225655555725,0.0,0.00011616698611760512,0.0007191340555436909,0.0,176158002,3,0,0,0,65535,65535,0,0,255,0,0,0,0,0,0,10,0,192,0,3,3
LOCAL_POSITION_NED,2,-0.002070874208584428,176219,0.6483579277992249,0.0010036888998001814,0.008217631839215755,-0.7612906694412231,-0.007457078900188208,0.007723402697592974,-0.006391781847923994,"[0.0, 0.0, 0.0, 0.0]",0.0014339261688292027,0.35336220264434814,0.0,0.00015967139916028827,0.0009888181230053306,0.0,176158002,3,0,0,0,65535,65535,0,0,255,0,0,0,0,0,0,10,0,192,0,3,3
GPS_RAW_INT,2,-0.002070874208584428,176219,0.6483579277992249,0.0010036888998001814,0.008217631839215755,-0.7612906694412231,-0.007457078900188208,0.007723402697592974,-0.006391781847923994,"[0.0, 0.0, 0.0, 0.0]",0.0014339261688292027,0.35336220264434814,0.0,0.00015967139916028827,0.0009888181230053306,0.0,176259004,3,0,0,0,65535,65535,0,0,255,0,0,0,0,0,0,10,0,192,0,3,3
RAW_RPM,0,-0.0007669904152862728,176219,0.6483579277992249,0.0010036888998001814,0.008217631839215755,-0.7612906694412231,-0.007457078900188208,0.007723402697592974,-0.006391781847923994,"[0.0, 0.0, 0.0, 0.0]",0.0014339261688292027,0.35336220264434814,0.0,0.00015967139916028827,0.0009888181230053306,0.0,176259004,3,0,0,0,65535,65535,0,0,255,0,0,0,0,0,0,10,0,192,0,3,3
RAW_RPM,1,-0.0003834952076431364,176219,0.6483579277992249,0.0010036888998001814,0.008217631839215755,-0.7612906694412231,-0.007457078900188208,0.007723402697592974,-0.006391781847923994,"[0.0, 0.0, 0.0, 0.0]",0.0014339261688292027,0.35336220264434814,0.0,0.00015967139916028827,0.0009888181230053306,0.0,176259004,3,0,0,0,65535,65535,0,0,255,0,0,0,0,0,0,10,0,192,0,3,3
RAW_RPM,2,-0.002329733455553651,176219,0.6483579277992249,0.0010036888998001814,0.008217631839215755,-0.7612906694412231,-0.007457078900188208,0.007723402697592974,-0.006391781847923994,"[0.0, 0.0, 0.0, 0.0]",0.0014339261688292027,0.35336220264434814,0.0,0.00015967139916028827,0.0009888181230053306,0.0,176259004,3,0,0,0,65535,65535,0,0,255,0,0,0,0,0,0,10,0,192,0,3,3
ATTITUDE_QUATERNION,2,-0.002329733455553651,176270,0.6484163403511047,0.0008852834580466151,0.008384158834815025,-0.7612392902374268,-0.004261187743395567,0.012517238967120647,-0.0066581061109900475,"[0.0, 0.0, 0.0, 0.0]",0.0014339261688292027,0.35336220264434814,0.0,0.00015967139916028827,0.0009888181230053306,0.0,176259004,3,0,0,0,65535,65535,0,0,255,0,0,0,0,0,0,10,0,192,0,3,3
LOCAL_POSITION_NED,2,-0.002329733455553651,176270,0.6484163403511047,0.0008852834580466151,0.008384158834815025,-0.7612392902374268,-0.004261187743395567,0.012517238967120647,-0.0066581061109900475,"[0.0, 0.0, 0.0, 0.0]",0.00143863121047616,0.3533913493156433,0.0,0.00014179793652147055,0.0008789709536358714,0.0,176259004,3,0,0,0,65535,65535,0,0,255,0,0,0,0,0,0,10,0,192,0,3,3
RAW_RPM,0,0.0007669904152862728,176270,0.6484163403511047,0.0008852834580466151,0.008384158834815025,-0.7612392902374268,-0.004261187743395567,0.012517238967120647,-0.0066581061109900475,"[0.0, 0.0, 0.0, 0.0]",0.00143863121047616,0.3533913493156433,0.0,0.00014179793652147055,0.0008789709536358714,0.0,176259004,3,0,0,0,65535,65535,0,0,255,0,0,0,0,0,0,10,0,192,0,3,3
