mavpackettype,time_usec,xacc,yacc,zacc,xgyro,ygyro,zgyro,xmag,ymag,zmag,abs_pressure,diff_pressure,pressure_alt,temperature,fields_updated,id,time_boot_ms,q1,q2,q3,q4,rollspeed,pitchspeed,yawspeed,repr_offset_q,x,y,z,vx,vy,vz,fix_type,lat,lon,alt,eph,epv,vel,cog,satellites_visible,alt_ellipsoid,h_acc,v_acc,vel_acc,hdg_acc,yaw,type,autopilot,base_mode,custom_mode,system_status,mavlink_version,data
ATTITUDE_QUATERNION,35101003,-0.04390908405184746,-0.0068915667943656445,1.0067567825317383,0.33570361137390137,0.6256294250488281,-0.47303688526153564,0.4384051561355591,-0.3807469606399536,-0.5863580107688904,0.0,0.0,0.0,-2048.0,0,0,35101,0.4722139835357666,-0.051305100321769714,0.0643373653292656,0.877634584903717,0.005859133321791887,0.010919293388724327,-0.008256050758063793,"[0.0, 0.0, 0.0, 0.0]",0.19214655458927155,-0.1280878633260727,0.0,0.0,0.0,0.0,3,369630718,-1220337813,0,65535,65535,3,0,255,0,0,0,0,0,0,10,0,192,0,3,3,"array('B', [253, 60, 0, 0, 0, 185, 1, 1, 105, 0, 0, 162, 167, 177, 1, 0, 0, 0, 0, 106, 255, 60, 189, 0, 163, 118, 187, 222, 102, 128, 63, 56, 65, 156, 61, 213, 97, 106, 63, 182, 193, 90, 190, 64, 53, 235, 62, 28, 64, 193, 190, 192, 225, 16, 191, 0, 0, 0, 0, 0, 0, 0, 0, 0, 0, 0, 0, 0, 0, 6, 197, 77])"
LOCAL_POSITION_NED,35101003,-0.04390908405184746,-0.0068915667943656445,1.0067567825317383,0.33570361137390137,0.6256294250488281,-0.47303688526153564,0.4384051561355591,-0.3807469606399536,-0.5863580107688904,0.0,0.0,0.0,-2048.0,0,0,35101,0.4722139835357666,-0.051305100321769714,0.0643373653292656,0.877634584903717,0.005859133321791887,0.010919293388724327,-0.008256050758063793,"[0.0, 0.0, 0.0, 0.0]",0.19214655458927155,-0.1280878633260727,0.0,0.0,0.0,0.0,3,369630718,-1220337813,0,65535,65535,3,0,255,0,0,0,0,0,0,10,0,192,0,3,3,"array('B', [253, 60, 0, 0, 0, 185, 1, 1, 105, 0, 0, 162, 167, 177, 1, 0, 0, 0, 0, 106, 255, 60, 189, 0, 163, 118, 187, 222, 102, 128, 63, 56, 65, 156, 61, 213, 97, 106, 63, 182, 193, 90, 190, 64, 53, 235, 62, 28, 64, 193, 190, 192, 225, 16, 191, 0, 0, 0, 0, 0, 0, 0, 0, 0, 0, 0, 0, 0, 0, 6, 197, 77])"
HIGHRES_IMU,35152006,-0.046736203134059906,-0.0045340522192418575,1.0033243894577026,0.10681478679180145,0.9002960324287415,0.13733328878879547,0.4065791368484497,-0.374279260635376,-0.544842004776001,0.0,0.0,0.0,-2096.0,0,0,35101,0.4722139835357666,-0.051305100321769714,0.0643373653292656,0.877634584903717,0.005859133321791887,0.010919293388724327,-0.008256050758063793,"[0.0, 0.0, 0.0, 0.0]",0.19214655458927155,-0.1280878633260727,0.0,0.0,0.0,0.0,3,369630718,-1220337813,0,65535,65535,3,0,255,0,0,0,0,0,0,10,0,192,0,3,3,"array('B', [253, 60, 0, 0, 0, 185, 1, 1, 105, 0, 0, 162, 167, 177, 1, 0, 0, 0, 0, 106, 255, 60, 189, 0, 163, 118, 187, 222, 102, 128, 63, 56, 65, 156, 61, 213, 97, 106, 63, 182, 193, 90, 190, 64, 53, 235, 62, 28, 64, 193, 190, 192, 225, 16, 191, 0, 0, 0, 0, 0, 0, 0, 0, 0, 0, 0, 0, 0, 0, 6, 197, 77])"
ATTITUDE_QUATERNION,35152006,-0.046736203134059906,-0.0045340522192418575,1.0033243894577026,0.10681478679180145,0.9002960324287415,0.13733328878879547,0.4065791368484497,-0.374279260635376,-0.544842004776001,0.0,0.0,0.0,-2096.0,0,0,35152,0.4719384014606476,-0.05062540993094444,0.06556282192468643,0.8777316212654114,0.001864269725047052,0.015713129192590714,0.002396918134763837,"[0.0, 0.0, 0.0, 0.0]",0.19214655458927155,-0.1280878633260727,0.0,0.0,0.0,0.0,3,369630718,-1220337813,0,65535,65535,3,0,255,0,0,0,0,0,0,10,0,192,0,3,3,"array('B', [253, 60, 0, 0, 0, 185, 1, 1, 105, 0, 0, 162, 167, 177, 1, 0, 0, 0, 0, 106, 255, 60, 189, 0, 163, 118, 187, 222, 102, 128, 63, 56, 65, 156, 61, 213, 97, 106, 63, 182, 193, 90, 190, 64, 53, 235, 62, 28, 64, 193, 190, 192, 225, 16, 191, 0, 0, 0, 0, 0, 0, 0, 0, 0, 0, 0, 0, 0, 0, 6, 197, 77])"
LOCAL_POSITION_NED,35152006,-0.046736203134059906,-0.0045340522192418575,1.0033243894577026,0.10681478679180145,0.9002960324287415,0.13733328878879547,0.4065791368484497,-0.374279260635376,-0.544842004776001,0.0,0.0,0.0,-2096.0,0,0,35152,0.4719384014606476,-0.05062540993094444,0.06556282192468643,0.8777316212654114,0.001864269725047052,0.015713129192590714,0.002396918134763837,"[0.0, 0.0, 0.0, 0.0]",0.19214655458927155,-0.1280878633260727,0.0,0.0,0.0,0.0,3,369630718,-1220337813,0,65535,65535,3,0,255,0,0,0,0,0,0,10,0,192,0,3,3,"array('B', [253, 60, 0, 0, 0, 185, 1, 1, 105, 0, 0, 162, 167, 177, 1, 0, 0, 0, 0, 106, 255, 60, 189, 0, 163, 118, 187, 222, 102, 128, 63, 56, 65, 156, 61, 213, 97, 106, 63, 182, 193, 90, 190, 64, 53, 235, 62, 28, 64, 193, 190, 192, 225, 16, 191, 0, 0, 0, 0, 0, 0, 0, 0, 0, 0, 0, 0, 0, 0, 6, 197, 77])"
GPS_RAW_INT,35161006,-0.046736203134059906,-0.0045340522192418575,1.0033243894577026,0.10681478679180145,0.9002960324287415,0.13733328878879547,0.4065791368484497,-0.374279260635376,-0.544842004776001,0.0,0.0,0.0,-2096.0,0,0,35152,0.4719384014606476,-0.05062540993094444,0.06556282192468643,0.8777316212654114,0.001864269725047052,0.015713129192590714,0.002396918134763837,"[0.0, 0.0, 0.0, 0.0]",0.19214655458927155,-0.1280878633260727,0.0,0.0,0.0,0.0,3,369630718,-1220337811,0,65535,65535,2,0,255,0,0,0,0,0,0,10,0,192,0,3,3,"array('B', [253, 60, 0, 0, 0, 185, 1, 1, 105, 0, 0, 162, 167, 177, 1, 0, 0, 0, 0, 106, 255, 60, 189, 0, 163, 118, 187, 222, 102, 128, 63, 56, 65, 156, 61, 213, 97, 106, 63, 182, 193, 90, 190, 64, 53, 235, 62, 28, 64, 193, 190, 192, 225, 16, 191, 0, 0, 0, 0, 0, 0, 0, 0, 0, 0, 0, 0, 0, 0, 6, 197, 77])"
HIGHRES_IMU,35203416,-0.04747452959418297,-0.004411439411342144,1.0057463645935059,0.13733328878879547,0.6714072227478027,-0.16785180568695068,0.44527769088745117,-0.39424991607666016,-0.5521258115768433,0.0,0.0,0.0,-2112.0,0,0,35152,0.4719384014606476,-0.05062540993094444,0.06556282192468643,0.8777316212654114,0.001864269725047052,0.015713129192590714,0.002396918134763837,"[0.0, 0.0, 0.0, 0.0]",0.19214655458927155,-0.1280878633260727,0.0,0.0,0.0,0.0,3,369630718,-1220337811,0,65535,65535,2,0,255,0,0,0,0,0,0,10,0,192,0,3,3,"array('B', [253, 60, 0, 0, 0, 185, 1, 1, 105, 0, 0, 162, 167, 177, 1, 0, 0, 0, 0, 106, 255, 60, 189, 0, 163, 118, 187, 222, 102, 128, 63, 56, 65, 156, 61, 213, 97, 106, 63, 182, 193, 90, 190, 64, 53, 235, 62, 28, 64, 193, 190, 192, 225, 16, 191, 0, 0, 0, 0, 0, 0, 0, 0, 0, 0, 0, 0, 0, 0, 6, 197, 77])"
ATTITUDE_QUATERNION,35203416,-0.04747452959418297,-0.004411439411342144,1.0057463645935059,0.13733328878879547,0.6714072227478027,-0.16785180568695068,0.44527769088745117,-0.39424991607666016,-0.5521258115768433,0.0,0.0,0.0,-2112.0,0,0,35203,0.47163471579551697,-0.04993772879242897,0.06637430191040039,0.8778731822967529,0.002396918134763837,0.011718266643583775,-0.0029295666608959436,"[0.0, 0.0, 0.0, 0.0]",0.19214655458927155,-0.1280878633260727,0.0,0.0,0.0,0.0,3,369630718,-1220337811,0,65535,65535,2,0,255,0,0,0,0,0,0,10,0,192,0,3,3,"array('B', [253, 60, 0, 0, 0, 185, 1, 1, 105, 0, 0, 162, 167, 177, 1, 0, 0, 0, 0, 106, 255, 60, 189, 0, 163, 118, 187, 222, 102, 128, 63, 56, 65, 156, 61, 213, 97, 106, 63, 182, 193, 90, 190, 64, 53, 235, 62, 28, 64, 193, 190, 192, 225, 16, 191, 0, 0, 0, 0, 0, 0, 0, 0, 0, 0, 0, 0, 0, 0, 6, 197, 77])"
LOCAL_POSITION_NED,35203416,-0.04747452959418297,-0.004411439411342144,1.0057463645935059,0.13733328878879547,0.6714072227478027,-0.16785180568695068,0.44527769088745117,-0.39424991607666016,-0.5521258115768433,0.0,0.0,0.0,-2112.0,0,0,35204,0.47163471579551697,-0.04993772879242897,0.06637430191040039,0.8778731822967529,0.002396918134763837,0.011718266643583775,-0.0029295666608959436,"[0.0, 0.0, 0.0, 0.0]",0.19214655458927155,-0.1280878633260727,0.0,0.0,0.0,0.0,3,369630718,-1220337811,0,65535,65535,2,0,255,0,0,0,0,0,0,10,0,192,0,3,3,"array('B', [253, 60, 0, 0, 0, 185, 1, 1, 105, 0, 0, 162, 167, 177, 1, 0, 0, 0, 0, 106, 255, 60, 189, 0, 163, 118, 187, 222, 102, 128, 63, 56, 65, 156, 61, 213, 97, 106, 63, 182, 193, 90, 190, 64, 53, 235, 62, 28, 64, 193, 190, 192, 225, 16, 191, 0, 0, 0, 0, 0, 0, 0, 0, 0, 0, 0, 0, 0, 0, 6, 197, 77])"
HIGHRES_IMU,35254004,-0.04937707632780075,-0.004781587049365044,1.003157138824463,0.07629626989364624,0.5951109528541565,-0.3967406153678894,0.4592679738998413,-0.3608105182647705,-0.5418636798858643,0.0,0.0,0.0,-2112.0,0,0,35204,0.47163471579551697,-0.04993772879242897,0.06637430191040039,0.8778731822967529,0.002396918134763837,0.011718266643583775,-0.0029295666608959436,"[0.0, 0.0, 0.0, 0.0]",0.19214655458927155,-0.1280878633260727,0.0,0.0,0.0,0.0,3,369630718,-1220337811,0,65535,65535,2,0,255,0,0,0,0,0,0,10,0,192,0,3,3,"array('B', [253, 60, 0, 0, 0, 185, 1, 1, 105, 0, 0, 162, 167, 177, 1, 0, 0, 0, 0, 106, 255, 60, 189, 0, 163, 118, 187, 222, 102, 128, 63, 56, 65, 156, 61, 213, 97, 106, 63, 182, 193, 90, 190, 64, 53, 235, 62, 28, 64, 193, 190, 192, 225, 16, 191, 0, 0, 0, 0, 0, 0, 0, 0, 0, 0, 0, 0, 0, 0, 6, 197, 77])"
ATTITUDE_QUATERNION,35254004,-0.04937707632780075,-0.004781587049365044,1.003157138824463,0.07629626989364624,0.5951109528541565,-0.3967406153678894,0.4592679738998413,-0.3608105182647705,-0.5418636798858643,0.0,0.0,0.0,-2112.0,0,0,35254,0.4719468653202057,-0.0504349060356617,0.0673418715596199,0.8776033520698547,0.0013316210824996233,0.010386645793914795,-0.0069244299083948135,"[0.0, 0.0, 0.0, 0.0]",0.19214655458927155,-0.1280878633260727,0.0,0.0,0.0,0.0,3,369630718,-1220337811,0,65535,65535,2,0,255,0,0,0,0,0,0,10,0,192,0,3,3,"array('B', [253, 60, 0, 0, 0, 185, 1, 1, 105, 0, 0, 162, 167, 177, 1, 0, 0, 0, 0, 106, 255, 60, 189, 0, 163, 118, 187, 222, 102, 128, 63, 56, 65, 156, 61, 213, 97, 106, 63, 182, 193, 90, 190, 64, 53, 235, 62, 28, 64, 193, 190, 192, 225, 16, 191, 0, 0, 0, 0, 0, 0, 0, 0, 0, 0, 0, 0, 0, 0, 6, 197, 77])"
LOCAL_POSITION_NED,35254004,-0.04937707632780075,-0.004781587049365044,1.003157138824463,0.07629626989364624,0.5951109528541565,-0.3967406153678894,0.4592679738998413,-0.3608105182647705,-0.5418636798858643,0.0,0.0,0.0,-2112.0,0,0,35254,0.4719468653202057,-0.0504349060356617,0.0673418715596199,0.8776033520698547,0.0013316210824996233,0.010386645793914795,-0.0069244299083948135,"[0.0, 0.0, 0.0, 0.0]",0.19214655458927155,-0.1280878633260727,0.0,0.0,0.0,0.0,3,369630718,-1220337811,0,65535,65535,2,0,255,0,0,0,0,0,0,10,0,192,0,3,3,"array('B', [253, 60, 0, 0, 0, 185, 1, 1, 105, 0, 0, 162, 167, 177, 1, 0, 0, 0, 0, 106, 255, 60, 189, 0, 163, 118, 187, 222, 102, 128, 63, 56, 65, 156, 61, 213, 97, 106, 63, 182, 193, 90, 190, 64, 53, 235, 62, 28, 64, 193, 190, 192, 225, 16, 191, 0, 0, 0, 0, 0, 0, 0, 0, 0, 0, 0, 0, 0, 0, 6, 197, 77])"
GPS_RAW_INT,35262003,-0.04937707632780075,-0.004781587049365044,1.003157138824463,0.07629626989364624,0.5951109528541565,-0.3967406153678894,0.4592679738998413,-0.3608105182647705,-0.5418636798858643,0.0,0.0,0.0,-2112.0,0,0,35254,0.4719468653202057,-0.0504349060356617,0.0673418715596199,0.8776033520698547,0.0013316210824996233,0.010386645793914795,-0.0069244299083948135,"[0.0, 0.0, 0.0, 0.0]",0.19214655458927155,-0.1280878633260727,0.0,0.0,0.0,0.0,3,369630719,-1220337810,0,65535,65535,3,0,255,0,0,0,0,0,0,10,0,192,0,3,3,"array('B', [253, 60, 0, 0, 0, 185, 1, 1, 105, 0, 0, 162, 167, 177, 1, 0, 0, 0, 0, 106, 255, 60, 189, 0, 163, 118, 187, 222, 102, 128, 63, 56, 65, 156, 61, 213, 97, 106, 63, 182, 193, 90, 190, 64, 53, 235, 62, 28, 64, 193, 190, 192, 225, 16, 191, 0, 0, 0, 0, 0, 0, 0, 0, 0, 0, 0, 0, 0, 0, 6, 197, 77])"
HIGHRES_IMU,35305006,-0.04613098129630089,-0.005876131821423769,1.0048333406448364,0.12207403779029846,0.6714072227478027,-0.2594073414802551,0.4311903715133667,-0.39764928817749023,-0.5451368093490601,0.0,0.0,0.0,-2080.0,0,0,35254,0.4719468653202057,-0.0504349060356617,0.0673418715596199,0.8776033520698547,0.0013316210824996233,0.010386645793914795,-0.0069244299083948135,"[0.0, 0.0, 0.0, 0.0]",0.19214655458927155,-0.1280878633260727,0.0,0.0,0.0,0.0,3,369630719,-1220337810,0,65535,65535,3,0,255,0,0,0,0,0,0,10,0,192,0,3,3,"array('B', [253, 60, 0, 0, 0, 185, 1, 1, 105, 0, 0, 162, 167, 177, 1, 0, 0, 0, 0, 106, 255, 60, 189, 0, 163, 118, 187, 222, 102, 128, 63, 56, 65, 156, 61, 213, 97, 106, 63, 182, 193, 90, 190, 64, 53, 235, 62, 28, 64, 193, 190, 192, 225, 16, 191, 0, 0, 0, 0, 0, 0, 0, 0, 0, 0, 0, 0, 0, 0, 6, 197, 77])"
ATTITUDE_QUATERNION,35305006,-0.04613098129630089,-0.005876131821423769,1.0048333406448364,0.12207403779029846,0.6714072227478027,-0.2594073414802551,0.4311903715133667,-0.39764928817749023,-0.5451368093490601,0.0,0.0,0.0,-2080.0,0,0,35305,0.47252699732780457,-0.050860896706581116,0.06724763661623001,0.8772737383842468,0.0021305938716977835,0.011718266643583775,-0.00452751200646162,"[0.0, 0.0, 0.0, 0.0]",0.19214655458927155,-0.1280878633260727,0.0,0.0,0.0,0.0,3,369630719,-1220337810,0,65535,65535,3,0,255,0,0,0,0,0,0,10,0,192,0,3,3,"array('B', [253, 60, 0, 0, 0, 185, 1, 1, 105, 0, 0, 162, 167, 177, 1, 0, 0, 0, 0, 106, 255, 60, 189, 0, 163, 118, 187, 222, 102, 128, 63, 56, 65, 156, 61, 213, 97, 106, 63, 182, 193, 90, 190, 64, 53, 235, 62, 28, 64, 193, 190, 192, 225, 16, 191, 0, 0, 0, 0, 0, 0, 0, 0, 0, 0, 0, 0, 0, 0, 6, 197, 77])"
LOCAL_POSITION_NED,35305006,-0.04613098129630089,-0.005876131821423769,1.0048333406448364,0.12207403779029846,0.6714072227478027,-0.2594073414802551,0.4311903715133667,-0.39764928817749023,-0.5451368093490601,0.0,0.0,0.0,-2080.0,0,0,35305,0.47252699732780457,-0.050860896706581116,0.06724763661623001,0.8772737383842468,0.0021305938716977835,0.011718266643583775,-0.00452751200646162,"[0.0, 0.0, 0.0, 0.0]",0.19214655458927155,-0.1280878633260727,0.0,0.0,0.0,0.0,3,369630719,-1220337810,0,65535,65535,3,0,255,0,0,0,0,0,0,10,0,192,0,3,3,"array('B', [253, 60, 0, 0, 0, 185, 1, 1, 105, 0, 0, 162, 167, 177, 1, 0, 0, 0, 0, 106, 255, 60, 189, 0, 163, 118, 187, 222, 102, 128, 63, 56, 65, 156, 61, 213, 97, 106, 63, 182, 193, 90, 190, 64, 53, 235, 62, 28, 64, 193, 190, 192, 225, 16, 191, 0, 0, 0, 0, 0, 0, 0, 0, 0, 0, 0, 0, 0, 0, 6, 197, 77])"
HIGHRES_IMU,35356003,-0.046700380742549896,-0.0036446228623390198,1.0056208372116089,0.22888882458209991,0.7171849608421326,-0.30518507957458496,0.4454101324081421,-0.3673657178878784,-0.5829529762268066,0.0,0.0,0.0,-2096.0,0,0,35305,0.47252699732780457,-0.050860896706581116,0.06724763661623001,0.8772737383842468,0.0021305938716977835,0.011718266643583775,-0.00452751200646162,"[0.0, 0.0, 0.0, 0.0]",0.19214655458927155,-0.1280878633260727,0.0,0.0,0.0,0.0,3,369630719,-1220337810,0,65535,65535,3,0,255,0,0,0,0,0,0,10,0,192,0,3,3,"array('B', [253, 60, 0, 0, 0, 185, 1, 1, 105, 0, 0, 162, 167, 177, 1, 0, 0, 0, 0, 106, 255, 60, 189, 0, 163, 118, 187, 222, 102, 128, 63, 56, 65, 156, 61, 213, 97, 106, 63, 182, 193, 90, 190, 64, 53, 235, 62, 28, 64, 193, 190, 192, 225, 16, 191, 0, 0, 0, 0, 0, 0, 0, 0, 0, 0, 0, 0, 0, 0, 6, 197, 77])"
ATTITUDE_QUATERNION,35356003,-0.046700380742549896,-0.0036446228623390198,1.0056208372116089,0.22888882458209991,0.7171849608421326,-0.30518507957458496,0.4454101324081421,-0.3673657178878784,-0.5829529762268066,0.0,0.0,0.0,-2096.0,0,0,35356,0.4724527895450592,-0.05034201592206955,0.0672239363193512,0.8773455023765564,0.0039948634803295135,0.012517238967120647,-0.005326484329998493,"[0.0, 0.0, 0.0, 0.0]",0.19214655458927155,-0.1280878633260727,0.0,0.0,0.0,0.0,3,369630719,-1220337810,0,65535,65535,3,0,255,0,0,0,0,0,0,10,0,192,0,3,3,"array('B', [253, 60, 0, 0, 0, 185, 1, 1, 105, 0, 0, 162, 167, 177, 1, 0, 0, 0, 0, 106, 255, 60, 189, 0, 163, 118, 187, 222, 102, 128, 63, 56, 65, 156, 61, 213, 97, 106, 63, 182, 193, 90, 190, 64, 53, 235, 62, 28, 64, 193, 190, 192, 225, 16, 191, 0, 0, 0, 0, 0, 0, 0, 0, 0, 0, 0, 0, 0, 0, 6, 197, 77])"
LOCAL_POSITION_NED,35356003,-0.046700380742549896,-0.0036446228623390198,1.0056208372116089,0.22888882458209991,0.7171849608421326,-0.30518507957458496,0.4454101324081421,-0.3673657178878784,-0.5829529762268066,0.0,0.0,0.0,-2096.0,0,0,35356,0.4724527895450592,-0.05034201592206955,0.0672239363193512,0.8773455023765564,0.0039948634803295135,0.012517238967120647,-0.005326484329998493,"[0.0, 0.0, 0.0, 0.0]",0.19214655458927155,-0.1280878633260727,0.0,0.0,0.0,0.0,3,369630719,-1220337810,0,65535,65535,3,0,255,0,0,0,0,0,0,10,0,192,0,3,3,"array('B', [253, 60, 0, 0, 0, 185, 1, 1, 105, 0, 0, 162, 167, 177, 1, 0, 0, 0, 0, 106, 255, 60, 189, 0, 163, 118, 187, 222, 102, 128, 63, 56, 65, 156, 61, 213, 97, 106, 63, 182, 193, 90, 190, 64, 53, 235, 62, 28, 64, 193, 190, 192, 225, 16, 191, 0, 0, 0, 0, 0, 0, 0, 0, 0, 0, 0, 0, 0, 0, 6, 197, 77])"
GPS_RAW_INT,35363443,-0.046700380742549896,-0.0036446228623390198,1.0056208372116089,0.22888882458209991,0.7171849608421326,-0.30518507957458496,0.4454101324081421,-0.3673657178878784,-0.5829529762268066,0.0,0.0,0.0,-2096.0,0,0,35356,0.4724527895450592,-0.05034201592206955,0.0672239363193512,0.8773455023765564,0.0039948634803295135,0.012517238967120647,-0.005326484329998493,"[0.0, 0.0, 0.0, 0.0]",0.19214655458927155,-0.1280878633260727,0.0,0.0,0.0,0.0,3,369630719,-1220337810,0,65535,65535,1,0,255,0,0,0,0,0,0,10,0,192,0,3,3,"array('B', [253, 60, 0, 0, 0, 185, 1, 1, 105, 0, 0, 162, 167, 177, 1, 0, 0, 0, 0, 106, 255, 60, 189, 0, 163, 118, 187, 222, 102, 128, 63, 56, 65, 156, 61, 213, 97, 106, 63, 182, 193, 90, 190, 64, 53, 235, 62, 28, 64, 193, 190, 192, 225, 16, 191, 0, 0, 0, 0, 0, 0, 0, 0, 0, 0, 0, 0, 0, 0, 6, 197, 77])"
HIGHRES_IMU,35407004,-0.05077793449163437,-0.0031317640095949173,1.003345012664795,0.1831110566854477,0.8850367665290833,-0.3509628474712372,0.4312680959701538,-0.39089107513427734,-0.5622857809066772,0.0,0.0,0.0,-2080.0,0,0,35356,0.4724527895450592,-0.05034201592206955,0.0672239363193512,0.8773455023765564,0.0039948634803295135,0.012517238967120647,-0.005326484329998493,"[0.0, 0.0, 0.0, 0.0]",0.19214655458927155,-0.1280878633260727,0.0,0.0,0.0,0.0,3,369630719,-1220337810,0,65535,65535,1,0,255,0,0,0,0,0,0,10,0,192,0,3,3,"array('B', [253, 60, 0, 0, 0, 185, 1, 1, 105, 0, 0, 162, 167, 177, 1, 0, 0, 0, 0, 106, 255, 60, 189, 0, 163, 118, 187, 222, 102, 128, 63, 56, 65, 156, 61, 213, 97, 106, 63, 182, 193, 90, 190, 64, 53, 235, 62, 28, 64, 193, 190, 192, 225, 16, 191, 0, 0, 0, 0, 0, 0, 0, 0, 0, 0, 0, 0, 0, 0, 6, 197, 77])"
ATTITUDE_QUATERNION,35407004,-0.05077793449163437,-0.0031317640095949173,1.003345012664795,0.1831110566854477,0.8850367665290833,-0.3509628474712372,0.4312680959701538,-0.39089107513427734,-0.5622857809066772,0.0,0.0,0.0,-2080.0,0,0,35407,0.4725704491138458,-0.05023778975009918,0.0675487220287323,0.8772631883621216,0.003195890923961997,0.015446805395185947,-0.006125457119196653,"[0.0, 0.0, 0.0, 0.0]",0.19214655458927155,-0.1280878633260727,0.0,0.0,0.0,0.0,3,369630719,-1220337810,0,65535,65535,1,0,255,0,0,0,0,0,0,10,0,192,0,3,3,"array('B', [253, 60, 0, 0, 0, 185, 1, 1, 105, 0, 0, 162, 167, 177, 1, 0, 0, 0, 0, 106, 255, 60, 189, 0, 163, 118, 187, 222, 102, 128, 63, 56, 65, 156, 61, 213, 97, 106, 63, 182, 193, 90, 190, 64, 53, 235, 62, 28, 64, 193, 190, 192, 225, 16, 191, 0, 0, 0, 0, 0, 0, 0, 0, 0, 0, 0, 0, 0, 0, 6, 197, 77])"
LOCAL_POSITION_NED,35407004,-0.05077793449163437,-0.0031317640095949173,1.003345012664795,0.1831110566854477,0.8850367665290833,-0.3509628474712372,0.4312680959701538,-0.39089107513427734,-0.5622857809066772,0.0,0.0,0.0,-2080.0,0,0,35407,0.4725704491138458,-0.05023778975009918,0.0675487220287323,0.8772631883621216,0.003195890923961997,0.015446805395185947,-0.006125457119196653,"[0.0, 0.0, 0.0, 0.0]",0.19214655458927155,-0.1280878633260727,0.0,0.0,0.0,0.0,3,369630719,-1220337810,0,65535,65535,1,0,255,0,0,0,0,0,0,10,0,192,0,3,3,"array('B', [253, 60, 0, 0, 0, 185, 1, 1, 105, 0, 0, 162, 167, 177, 1, 0, 0, 0, 0, 106, 255, 60, 189, 0, 163, 118, 187, 222, 102, 128, 63, 56, 65, 156, 61, 213, 97, 106, 63, 182, 193, 90, 190, 64, 53, 235, 62, 28, 64, 193, 190, 192, 225, 16, 191, 0, 0, 0, 0, 0, 0, 0, 0, 0, 0, 0, 0, 0, 0, 6, 197, 77])"
HIGHRES_IMU,35458006,-0.04859811067581177,-0.0076611218973994255,0.9989231824874878,0.04577776417136192,0.808740496635437,-0.22888882458209991,0.4558345079421997,-0.39087092876434326,-0.5556485056877136,0.0,0.0,0.0,-2160.0,0,0,35407,0.4725704491138458,-0.05023778975009918,0.0675487220287323,0.8772631883621216,0.003195890923961997,0.015446805395185947,-0.006125457119196653,"[0.0, 0.0, 0.0, 0.0]",0.19214655458927155,-0.1280878633260727,0.0,0.0,0.0,0.0,3,369630719,-1220337810,0,65535,65535,1,0,255,0,0,0,0,0,0,10,0,192,0,3,3,"array('B', [253, 60, 0, 0, 0, 185, 1, 1, 105, 0, 0, 162, 167, 177, 1, 0, 0, 0, 0, 106, 255, 60, 189, 0, 163, 118, 187, 222, 102, 128, 63, 56, 65, 156, 61, 213, 97, 106, 63, 182, 193, 90, 190, 64, 53, 235, 62, 28, 64, 193, 190, 192, 225, 16, 191, 0, 0, 0, 0, 0, 0, 0, 0, 0, 0, 0, 0, 0, 0, 6, 197, 77])"
ATTITUDE_QUATERNION,35458006,-0.04859811067581177,-0.0076611218973994255,0.9989231824874878,0.04577776417136192,0.808740496635437,-0.22888882458209991,0.4558345079421997,-0.39087092876434326,-0.5556485056877136,0.0,0.0,0.0,-2160.0,0,0,35458,0.4723542630672455,-0.04970991238951683,0.06814178079366684,0.8773636817932129,0.0007989727309904993,0.014115184545516968,-0.0039948634803295135,"[0.0, 0.0, 0.0, 0.0]",0.19214655458927155,-0.1280878633260727,0.0,0.0,0.0,0.0,3,369630719,-1220337810,0,65535,65535,1,0,255,0,0,0,0,0,0,10,0,192,0,3,3,"array('B', [253, 60, 0, 0, 0, 185, 1, 1, 105, 0, 0, 162, 167, 177, 1, 0, 0, 0, 0, 106, 255, 60, 189, 0, 163, 118, 187, 222, 102, 128, 63, 56, 65, 156, 61, 213, 97, 106, 63, 182, 193, 90, 190, 64, 53, 235, 62, 28, 64, 193, 190, 192, 225, 16, 191, 0, 0, 0, 0, 0, 0, 0, 0, 0, 0, 0, 0, 0, 0, 6, 197, 77])"
LOCAL_POSITION_NED,35458006,-0.04859811067581177,-0.0076611218973994255,0.9989231824874878,0.04577776417136192,0.808740496635437,-0.22888882458209991,0.4558345079421997,-0.39087092876434326,-0.5556485056877136,0.0,0.0,0.0,-2160.0,0,0,35458,0.4723542630672455,-0.04970991238951683,0.06814178079366684,0.8773636817932129,0.0007989727309904993,0.014115184545516968,-0.0039948634803295135,"[0.0, 0.0, 0.0, 0.0]",0.19214655458927155,-0.1280878633260727,0.0,0.0,0.0,0.0,3,369630719,-1220337810,0,65535,65535,1,0,255,0,0,0,0,0,0,10,0,192,0,3,3,"array('B', [253, 60, 0, 0, 0, 185, 1, 1, 105, 0, 0, 162, 167, 177, 1, 0, 0, 0, 0, 106, 255, 60, 189, 0, 163, 118, 187, 222, 102, 128, 63, 56, 65, 156, 61, 213, 97, 106, 63, 182, 193, 90, 190, 64, 53, 235, 62, 28, 64, 193, 190, 192, 225, 16, 191, 0, 0, 0, 0, 0, 0, 0, 0, 0, 0, 0, 0, 0, 0, 6, 197, 77])"
GPS_RAW_INT,35464004,-0.04859811067581177,-0.0076611218973994255,0.9989231824874878,0.04577776417136192,0.808740496635437,-0.22888882458209991,0.4558345079421997,-0.39087092876434326,-0.5556485056877136,0.0,0.0,0.0,-2160.0,0,0,35458,0.4723542630672455,-0.04970991238951683,0.06814178079366684,0.8773636817932129,0.0007989727309904993,0.014115184545516968,-0.0039948634803295135,"[0.0, 0.0, 0.0, 0.0]",0.19214655458927155,-0.1280878633260727,0.0,0.0,0.0,0.0,3,369630719,-1220337808,0,65535,65535,2,0,255,0,0,0,0,0,0,10,0,192,0,3,3,"array('B', [253, 60, 0, 0, 0, 185, 1, 1, 105, 0, 0, 162, 167, 177, 1, 0, 0, 0, 0, 106, 255, 60, 189, 0, 163, 118, 187, 222, 102, 128, 63, 56, 65, 156, 61, 213, 97, 106, 63, 182, 193, 90, 190, 64, 53, 235, 62, 28, 64, 193, 190, 192, 225, 16, 191, 0, 0, 0, 0, 0, 0, 0, 0, 0, 0, 0, 0, 0, 0, 6, 197, 77])"
HIGHRES_IMU,35509004,-0.046004749834537506,-0.00720723532140255,1.0060425996780396,0.015259254723787308,0.5188146829605103,-0.5188146829605103,0.4383575916290283,-0.41425418853759766,-0.5727169513702393,0.0,0.0,0.0,-2144.0,0,0,35458,0.4723542630672455,-0.04970991238951683,0.06814178079366684,0.8773636817932129,0.0007989727309904993,0.014115184545516968,-0.0039948634803295135,"[0.0, 0.0, 0.0, 0.0]",0.19214655458927155,-0.1280878633260727,0.0,0.0,0.0,0.0,3,369630719,-1220337808,0,65535,65535,2,0,255,0,0,0,0,0,0,10,0,192,0,3,3,"array('B', [253, 60, 0, 0, 0, 185, 1, 1, 105, 0, 0, 162, 167, 177, 1, 0, 0, 0, 0, 106, 255, 60, 189, 0, 163, 118, 187, 222, 102, 128, 63, 56, 65, 156, 61, 213, 97, 106, 63, 182, 193, 90, 190, 64, 53, 235, 62, 28, 64, 193, 190, 192, 225, 16, 191, 0, 0, 0, 0, 0, 0, 0, 0, 0, 0, 0, 0, 0, 0, 6, 197, 77])"
ATTITUDE_QUATERNION,35509004,-0.046004749834537506,-0.00720723532140255,1.0060425996780396,0.015259254723787308,0.5188146829605103,-0.5188146829605103,0.4383575916290283,-0.41425418853759766,-0.5727169513702393,0.0,0.0,0.0,-2144.0,0,0,35509,0.4724377989768982,-0.049645375460386276,0.06803040206432343,0.877331018447876,0.00026632423396222293,0.00905502401292324,-0.00905502401292324,"[0.0, 0.0, 0.0, 0.0]",0.19214655458927155,-0.1280878633260727,0.0,0.0,0.0,0.0,3,369630719,-1220337808,0,65535,65535,2,0,255,0,0,0,0,0,0,10,0,192,0,3,3,"array('B', [253, 60, 0, 0, 0, 185, 1, 1, 105, 0, 0, 162, 167, 177, 1, 0, 0, 0, 0, 106, 255, 60, 189, 0, 163, 118, 187, 222, 102, 128, 63, 56, 65, 156, 61, 213, 97, 106, 63, 182, 193, 90, 190, 64, 53, 235, 62, 28, 64, 193, 190, 192, 225, 16, 191, 0, 0, 0, 0, 0, 0, 0, 0, 0, 0, 0, 0, 0, 0, 6, 197, 77])"
LOCAL_POSITION_NED,35509004,-0.046004749834537506,-0.00720723532140255,1.0060425996780396,0.015259254723787308,0.5188146829605103,-0.5188146829605103,0.4383575916290283,-0.41425418853759766,-0.5727169513702393,0.0,0.0,0.0,-2144.0,0,0,35509,0.4724377989768982,-0.049645375460386276,0.06803040206432343,0.877331018447876,0.00026632423396222293,0.00905502401292324,-0.00905502401292324,"[0.0, 0.0, 0.0, 0.0]",0.19214655458927155,-0.1280878633260727,0.0,0.0,0.0,0.0,3,369630719,-1220337808,0,65535,65535,2,0,255,0,0,0,0,0,0,10,0,192,0,3,3,"array('B', [253, 60, 0, 0, 0, 185, 1, 1, 105, 0, 0, 162, 167, 177, 1, 0, 0, 0, 0, 106, 255, 60, 189, 0, 163, 118, 187, 222, 102, 128, 63, 56, 65, 156, 61, 213, 97, 106, 63, 182, 193, 90, 190, 64, 53, 235, 62, 28, 64, 193, 190, 192, 225, 16, 191, 0, 0, 0, 0, 0, 0, 0, 0, 0, 0, 0, 0, 0, 0, 6, 197, 77])"
HIGHRES_IMU,35560004,-0.04595840349793434,-0.005097746383398771,1.0047714710235596,0.30518507957458496,0.9002960324287415,-0.3662221133708954,0.4522886276245117,-0.36078333854675293,-0.5520985722541809,0.0,0.0,0.0,-2096.0,0,0,35509,0.4724377989768982,-0.049645375460386276,0.06803040206432343,0.877331018447876,0.00026632423396222293,0.00905502401292324,-0.00905502401292324,"[0.0, 0.0, 0.0, 0.0]",0.19214655458927155,-0.1280878633260727,0.0,0.0,0.0,0.0,3,369630719,-1220337808,0,65535,65535,2,0,255,0,0,0,0,0,0,10,0,192,0,3,3,"array('B', [253, 60, 0, 0, 0, 185, 1, 1, 105, 0, 0, 162, 167, 177, 1, 0, 0, 0, 0, 106, 255, 60, 189, 0, 163, 118, 187, 222, 102, 128, 63, 56, 65, 156, 61, 213, 97, 106, 63, 182, 193, 90, 190, 64, 53, 235, 62, 28, 64, 193, 190, 192, 225, 16, 191, 0, 0, 0, 0, 0, 0, 0, 0, 0, 0, 0, 0, 0, 0, 6, 197, 77])"
ATTITUDE_QUATERNION,35560004,-0.04595840349793434,-0.005097746383398771,1.0047714710235596,0.30518507957458496,0.9002960324287415,-0.3662221133708954,0.4522886276245117,-0.36078333854675293,-0.5520985722541809,0.0,0.0,0.0,-2096.0,0,0,35560,0.4719569683074951,-0.048688407987356186,0.06851920485496521,0.8776053786277771,0.005326484329998493,0.015713129192590714,-0.006391781847923994,"[0.0, 0.0, 0.0, 0.0]",0.19214655458927155,-0.1280878633260727,0.0,0.0,0.0,0.0,3,369630719,-1220337808,0,65535,65535,2,0,255,0,0,0,0,0,0,10,0,192,0,3,3,"array('B', [253, 60, 0, 0, 0, 185, 1, 1, 105, 0, 0, 162, 167, 177, 1, 0, 0, 0, 0, 106, 255, 60, 189, 0, 163, 118, 187, 222, 102, 128, 63, 56, 65, 156, 61, 213, 97, 106, 63, 182, 193, 90, 190, 64, 53, 235, 62, 28, 64, 193, 190, 192, 225, 16, 191, 0, 0, 0, 0, 0, 0, 0, 0, 0, 0, 0, 0, 0, 0, 6, 197, 77])"
LOCAL_POSITION_NED,35560004,-0.04595840349793434,-0.005097746383398771,1.0047714710235596,0.30518507957458496,0.9002960324287415,-0.3662221133708954,0.4522886276245117,-0.36078333854675293,-0.5520985722541809,0.0,0.0,0.0,-2096.0,0,0,35560,0.4719569683074951,-0.048688407987356186,0.06851920485496521,0.8776053786277771,0.005326484329998493,0.015713129192590714,-0.006391781847923994,"[0.0, 0.0, 0.0, 0.0]",0.19214655458927155,-0.1280878633260727,0.0,0.0,0.0,0.0,3,369630719,-1220337808,0,65535,65535,2,0,255,0,0,0,0,0,0,10,0,192,0,3,3,"array('B', [253, 60, 0, 0, 0, 185, 1, 1, 105, 0, 0, 162, 167, 177, 1, 0, 0, 0, 0, 106, 255, 60, 189, 0, 163, 118, 187, 222, 102, 128, 63, 56, 65, 156, 61, 213, 97, 106, 63, 182, 193, 90, 190, 64, 53, 235, 62, 28, 64, 193, 190, 192, 225, 16, 191, 0, 0, 0, 0, 0, 0, 0, 0, 0, 0, 0, 0, 0, 0, 6, 197, 77])"
GPS_RAW_INT,35565002,-0.04595840349793434,-0.005097746383398771,1.0047714710235596,0.30518507957458496,0.9002960324287415,-0.3662221133708954,0.4522886276245117,-0.36078333854675293,-0.5520985722541809,0.0,0.0,0.0,-2096.0,0,0,35560,0.4719569683074951,-0.048688407987356186,0.06851920485496521,0.8776053786277771,0.005326484329998493,0.015713129192590714,-0.006391781847923994,"[0.0, 0.0, 0.0, 0.0]",0.19214655458927155,-0.1280878633260727,0.0,0.0,0.0,0.0,3,369630719,-1220337808,0,65535,65535,2,0,255,0,0,0,0,0,0,10,0,192,0,3,3,"array('B', [253, 60, 0, 0, 0, 185, 1, 1, 105, 0, 0, 162, 167, 177, 1, 0, 0, 0, 0, 106, 255, 60, 189, 0, 163, 118, 187, 222, 102, 128, 63, 56, 65, 156, 61, 213, 97, 106, 63, 182, 193, 90, 190, 64, 53, 235, 62, 28, 64, 193, 190, 192, 225, 16, 191, 0, 0, 0, 0, 0, 0, 0, 0, 0, 0, 0, 0, 0, 0, 6, 197, 77])"
HIGHRES_IMU,35611006,-0.0463237501680851,-0.004609315190464258,1.004712700843811,0.13733328878879547,0.5798516869544983,-0.2136295735836029,0.45224320888519287,-0.36751461029052734,-0.5418166518211365,0.0,0.0,0.0,-2192.0,0,0,35560,0.4719569683074951,-0.048688407987356186,0.06851920485496521,0.8776053786277771,0.005326484329998493,0.015713129192590714,-0.006391781847923994,"[0.0, 0.0, 0.0, 0.0]",0.19214655458927155,-0.1280878633260727,0.0,0.0,0.0,0.0,3,369630719,-1220337808,0,65535,65535,2,0,255,0,0,0,0,0,0,10,0,192,0,3,3,"array('B', [253, 60, 0, 0, 0, 185, 1, 1, 105, 0, 0, 162, 167, 177, 1, 0, 0, 0, 0, 106, 255, 60, 189, 0, 163, 118, 187, 222, 102, 128, 63, 56, 65, 156, 61, 213, 97, 106, 63, 182, 193, 90, 190, 64, 53, 235, 62, 28, 64, 193, 190, 192, 225, 16, 191, 0, 0, 0, 0, 0, 0, 0, 0, 0, 0, 0, 0, 0, 0, 6, 197, 77])"
ATTITUDE_QUATERNION,35611006,-0.0463237501680851,-0.004609315190464258,1.004712700843811,0.13733328878879547,0.5798516869544983,-0.2136295735836029,0.45224320888519287,-0.36751461029052734,-0.5418166518211365,0.0,0.0,0.0,-2192.0,0,0,35611,0.4725950062274933,-0.04966394230723381,0.06876745820045471,0.8771879076957703,0.002396918134763837,0.010120321065187454,-0.003728539450094104,"[0.0, 0.0, 0.0, 0.0]",0.19214655458927155,-0.1280878633260727,0.0,0.0,0.0,0.0,3,369630719,-1220337808,0,65535,65535,2,0,255,0,0,0,0,0,0,10,0,192,0,3,3,"array('B', [253, 60, 0, 0, 0, 185, 1, 1, 105, 0, 0, 162, 167, 177, 1, 0, 0, 0, 0, 106, 255, 60, 189, 0, 163, 118, 187, 222, 102, 128, 63, 56, 65, 156, 61, 213, 97, 106, 63, 182, 193, 90, 190, 64, 53, 235, 62, 28, 64, 193, 190, 192, 225, 16, 191, 0, 0, 0, 0, 0, 0, 0, 0, 0, 0, 0, 0, 0, 0, 6, 197, 77])"
LOCAL_POSITION_NED,35611006,-0.0463237501680851,-0.004609315190464258,1.004712700843811,0.13733328878879547,0.5798516869544983,-0.2136295735836029,0.45224320888519287,-0.36751461029052734,-0.5418166518211365,0.0,0.0,0.0,-2192.0,0,0,35611,0.4725950062274933,-0.04966394230723381,0.06876745820045471,0.8771879076957703,0.002396918134763837,0.010120321065187454,-0.003728539450094104,"[0.0, 0.0, 0.0, 0.0]",0.19214655458927155,-0.1280878633260727,0.0,0.0,0.0,0.0,3,369630719,-1220337808,0,65535,65535,2,0,255,0,0,0,0,0,0,10,0,192,0,3,3,"array('B', [253, 60, 0, 0, 0, 185, 1, 1, 105, 0, 0, 162, 167, 177, 1, 0, 0, 0, 0, 106, 255, 60, 189, 0, 163, 118, 187, 222, 102, 128, 63, 56, 65, 156, 61, 213, 97, 106, 63, 182, 193, 90, 190, 64, 53, 235, 62, 28, 64, 193, 190, 192, 225, 16, 191, 0, 0, 0, 0, 0, 0, 0, 0, 0, 0, 0, 0, 0, 0, 6, 197, 77])"
HIGHRES_IMU,35662004,-0.046786077320575714,-0.006343204528093338,1.0046558380126953,0.10681478679180145,0.503555417060852,-0.503555417060852,0.43475914001464844,-0.377516508102417,-0.5588479042053223,0.0,0.0,0.0,-2144.0,0,0,35611,0.4725950062274933,-0.04966394230723381,0.06876745820045471,0.8771879076957703,0.002396918134763837,0.010120321065187454,-0.003728539450094104,"[0.0, 0.0, 0.0, 0.0]",0.19214655458927155,-0.1280878633260727,0.0,0.0,0.0,0.0,3,369630719,-1220337808,0,65535,65535,2,0,255,0,0,0,0,0,0,10,0,192,0,3,3,"array('B', [253, 60, 0, 0, 0, 185, 1, 1, 105, 0, 0, 162, 167, 177, 1, 0, 0, 0, 0, 106, 255, 60, 189, 0, 163, 118, 187, 222, 102, 128, 63, 56, 65, 156, 61, 213, 97, 106, 63, 182, 193, 90, 190, 64, 53, 235, 62, 28, 64, 193, 190, 192, 225, 16, 191, 0, 0, 0, 0, 0, 0, 0, 0, 0, 0, 0, 0, 0, 0, 6, 197, 77])"
ATTITUDE_QUATERNION,35662004,-0.046786077320575714,-0.006343204528093338,1.0046558380126953,0.10681478679180145,0.503555417060852,-0.503555417060852,0.43475914001464844,-0.377516508102417,-0.5588479042053223,0.0,0.0,0.0,-2144.0,0,0,35662,0.47283899784088135,-0.05025685951113701,0.06998370587825775,0.8769263625144958,0.001864269725047052,0.008788700215518475,-0.008788700215518475,"[0.0, 0.0, 0.0, 0.0]",0.19214655458927155,-0.1280878633260727,0.0,0.0,0.0,0.0,3,369630719,-1220337808,0,65535,65535,2,0,255,0,0,0,0,0,0,10,0,192,0,3,3,"array('B', [253, 60, 0, 0, 0, 185, 1, 1, 105, 0, 0, 162, 167, 177, 1, 0, 0, 0, 0, 106, 255, 60, 189, 0, 163, 118, 187, 222, 102, 128, 63, 56, 65, 156, 61, 213, 97, 106, 63, 182, 193, 90, 190, 64, 53, 235, 62, 28, 64, 193, 190, 192, 225, 16, 191, 0, 0, 0, 0, 0, 0, 0, 0, 0, 0, 0, 0, 0, 0, 6, 197, 77])"
LOCAL_POSITION_NED,35662004,-0.046786077320575714,-0.006343204528093338,1.0046558380126953,0.10681478679180145,0.503555417060852,-0.503555417060852,0.43475914001464844,-0.377516508102417,-0.5588479042053223,0.0,0.0,0.0,-2144.0,0,0,35662,0.47283899784088135,-0.05025685951113701,0.06998370587825775,0.8769263625144958,0.001864269725047052,0.008788700215518475,-0.008788700215518475,"[0.0, 0.0, 0.0, 0.0]",0.19214655458927155,-0.1280878633260727,0.0,0.0,0.0,0.0,3,369630719,-1220337808,0,65535,65535,2,0,255,0,0,0,0,0,0,10,0,192,0,3,3,"array('B', [253, 60, 0, 0, 0, 185, 1, 1, 105, 0, 0, 162, 167, 177, 1, 0, 0, 0, 0, 106, 255, 60, 189, 0, 163, 118, 187, 222, 102, 128, 63, 56, 65, 156, 61, 213, 97, 106, 63, 182, 193, 90, 190, 64, 53, 235, 62, 28, 64, 193, 190, 192, 225, 16, 191, 0, 0, 0, 0, 0, 0, 0, 0, 0, 0, 0, 0, 0, 0, 6, 197, 77])"
GPS_RAW_INT,35666003,-0.046786077320575714,-0.006343204528093338,1.0046558380126953,0.10681478679180145,0.503555417060852,-0.503555417060852,0.43475914001464844,-0.377516508102417,-0.5588479042053223,0.0,0.0,0.0,-2144.0,0,0,35662,0.47283899784088135,-0.05025685951113701,0.06998370587825775,0.8769263625144958,0.001864269725047052,0.008788700215518475,-0.008788700215518475,"[0.0, 0.0, 0.0, 0.0]",0.19214655458927155,-0.1280878633260727,0.0,0.0,0.0,0.0,3,369630719,-1220337806,0,65535,65535,2,0,255,0,0,0,0,0,0,10,0,192,0,3,3,"array('B', [253, 60, 0, 0, 0, 185, 1, 1, 105, 0, 0, 162, 167, 177, 1, 0, 0, 0, 0, 106, 255, 60, 189, 0, 163, 118, 187, 222, 102, 128, 63, 56, 65, 156, 61, 213, 97, 106, 63, 182, 193, 90, 190, 64, 53, 235, 62, 28, 64, 193, 190, 192, 225, 16, 191, 0, 0, 0, 0, 0, 0, 0, 0, 0, 0, 0, 0, 0, 0, 6, 197, 77])"
HIGHRES_IMU,35713425,-0.048067592084407806,-0.005969109479337931,1.007020115852356,0.07629626989364624,0.7171849608421326,-0.22888882458209991,0.4310641288757324,-0.3743269443511963,-0.5210372805595398,0.0,0.0,0.0,-2160.0,0,0,35662,0.47283899784088135,-0.05025685951113701,0.06998370587825775,0.8769263625144958,0.001864269725047052,0.008788700215518475,-0.008788700215518475,"[0.0, 0.0, 0.0, 0.0]",0.19214655458927155,-0.1280878633260727,0.0,0.0,0.0,0.0,3,369630719,-1220337806,0,65535,65535,2,0,255,0,0,0,0,0,0,10,0,192,0,3,3,"array('B', [253, 60, 0, 0, 0, 185, 1, 1, 105, 0, 0, 162, 167, 177, 1, 0, 0, 0, 0, 106, 255, 60, 189, 0, 163, 118, 187, 222, 102, 128, 63, 56, 65, 156, 61, 213, 97, 106, 63, 182, 193, 90, 190, 64, 53, 235, 62, 28, 64, 193, 190, 192, 225, 16, 191, 0, 0, 0, 0, 0, 0, 0, 0, 0, 0, 0, 0, 0, 0, 6, 197, 77])"
ATTITUDE_QUATERNION,35713425,-0.048067592084407806,-0.005969109479337931,1.007020115852356,0.07629626989364624,0.7171849608421326,-0.22888882458209991,0.4310641288757324,-0.3743269443511963,-0.5210372805595398,0.0,0.0,0.0,-2160.0,0,0,35713,0.472805917263031,-0.049745477735996246,0.06992198526859283,0.8769782781600952,0.0013316210824996233,0.012517238967120647,-0.0039948634803295135,"[0.0, 0.0, 0.0, 0.0]",0.19214655458927155,-0.1280878633260727,0.0,0.0,0.0,0.0,3,369630719,-1220337806,0,65535,65535,2,0,255,0,0,0,0,0,0,10,0,192,0,3,3,"array('B', [253, 60, 0, 0, 0, 185, 1, 1, 105, 0, 0, 162, 167, 177, 1, 0, 0, 0, 0, 106, 255, 60, 189, 0, 163, 118, 187, 222, 102, 128, 63, 56, 65, 156, 61, 213, 97, 106, 63, 182, 193, 90, 190, 64, 53, 235, 62, 28, 64, 193, 190, 192, 225, 16, 191, 0, 0, 0, 0, 0, 0, 0, 0, 0, 0, 0, 0, 0, 0, 6, 197, 77])"
LOCAL_POSITION_NED,35713425,-0.048067592084407806,-0.005969109479337931,1.007020115852356,0.07629626989364624,0.7171849608421326,-0.22888882458209991,0.4310641288757324,-0.3743269443511963,-0.5210372805595398,0.0,0.0,0.0,-2160.0,0,0,35714,0.472805917263031,-0.049745477735996246,0.06992198526859283,0.8769782781600952,0.0013316210824996233,0.012517238967120647,-0.0039948634803295135,"[0.0, 0.0, 0.0, 0.0]",0.19214655458927155,-0.1280878633260727,0.0,0.0,0.0,0.0,3,369630719,-1220337806,0,65535,65535,2,0,255,0,0,0,0,0,0,10,0,192,0,3,3,"array('B', [253, 60, 0, 0, 0, 185, 1, 1, 105, 0, 0, 162, 167, 177, 1, 0, 0, 0, 0, 106, 255, 60, 189, 0, 163, 118, 187, 222, 102, 128, 63, 56, 65, 156, 61, 213, 97, 106, 63, 182, 193, 90, 190, 64, 53, 235, 62, 28, 64, 193, 190, 192, 225, 16, 191, 0, 0, 0, 0, 0, 0, 0, 0, 0, 0, 0, 0, 0, 0, 6, 197, 77])"
HIGHRES_IMU,35764002,-0.04937497898936272,-0.00441637123003602,1.002250075340271,0.3509628474712372,0.6714072227478027,-0.3509628474712372,0.40667271614074707,-0.3976287841796875,-0.562074601650238,0.0,0.0,0.0,-2192.0,0,0,35714,0.472805917263031,-0.049745477735996246,0.06992198526859283,0.8769782781600952,0.0013316210824996233,0.012517238967120647,-0.0039948634803295135,"[0.0, 0.0, 0.0, 0.0]",0.19214655458927155,-0.1280878633260727,0.0,0.0,0.0,0.0,3,369630719,-1220337806,0,65535,65535,2,0,255,0,0,0,0,0,0,10,0,192,0,3,3,"array('B', [253, 60, 0, 0, 0, 185, 1, 1, 105, 0, 0, 162, 167, 177, 1, 0, 0, 0, 0, 106, 255, 60, 189, 0, 163, 118, 187, 222, 102, 128, 63, 56, 65, 156, 61, 213, 97, 106, 63, 182, 193, 90, 190, 64, 53, 235, 62, 28, 64, 193, 190, 192, 225, 16, 191, 0, 0, 0, 0, 0, 0, 0, 0, 0, 0, 0, 0, 0, 0, 6, 197, 77])"
ATTITUDE_QUATERNION,35764002,-0.04937497898936272,-0.00441637123003602,1.002250075340271,0.3509628474712372,0.6714072227478027,-0.3509628474712372,0.40667271614074707,-0.3976287841796875,-0.562074601650238,0.0,0.0,0.0,-2192.0,0,0,35764,0.4726012051105499,-0.048964597284793854,0.0695086345076561,0.8771653175354004,0.006125457119196653,0.011718266643583775,-0.006125457119196653,"[0.0, 0.0, 0.0, 0.0]",0.19214655458927155,-0.1280878633260727,0.0,0.0,0.0,0.0,3,369630719,-1220337806,0,65535,65535,2,0,255,0,0,0,0,0,0,10,0,192,0,3,3,"array('B', [253, 60, 0, 0, 0, 185, 1, 1, 105, 0, 0, 162, 167, 177, 1, 0, 0, 0, 0, 106, 255, 60, 189, 0, 163, 118, 187, 222, 102, 128, 63, 56, 65, 156, 61, 213, 97, 106, 63, 182, 193, 90, 190, 64, 53, 235, 62, 28, 64, 193, 190, 192, 225, 16, 191, 0, 0, 0, 0, 0, 0, 0, 0, 0, 0, 0, 0, 0, 0, 6, 197, 77])"
LOCAL_POSITION_NED,35764002,-0.04937497898936272,-0.00441637123003602,1.002250075340271,0.3509628474712372,0.6714072227478027,-0.3509628474712372,0.40667271614074707,-0.3976287841796875,-0.562074601650238,0.0,0.0,0.0,-2192.0,0,0,35764,0.4726012051105499,-0.048964597284793854,0.0695086345076561,0.8771653175354004,0.006125457119196653,0.011718266643583775,-0.006125457119196653,"[0.0, 0.0, 0.0, 0.0]",0.19214655458927155,-0.1280878633260727,0.0,0.0,0.0,0.0,3,369630719,-1220337806,0,65535,65535,2,0,255,0,0,0,0,0,0,10,0,192,0,3,3,"array('B', [253, 60, 0, 0, 0, 185, 1, 1, 105, 0, 0, 162, 167, 177, 1, 0, 0, 0, 0, 106, 255, 60, 189, 0, 163, 118, 187, 222, 102, 128, 63, 56, 65, 156, 61, 213, 97, 106, 63, 182, 193, 90, 190, 64, 53, 235, 62, 28, 64, 193, 190, 192, 225, 16, 191, 0, 0, 0, 0, 0, 0, 0, 0, 0, 0, 0, 0, 0, 0, 6, 197, 77])"
GPS_RAW_INT,35767002,-0.04937497898936272,-0.00441637123003602,1.002250075340271,0.3509628474712372,0.6714072227478027,-0.3509628474712372,0.40667271614074707,-0.3976287841796875,-0.562074601650238,0.0,0.0,0.0,-2192.0,0,0,35764,0.4726012051105499,-0.048964597284793854,0.0695086345076561,0.8771653175354004,0.006125457119196653,0.011718266643583775,-0.006125457119196653,"[0.0, 0.0, 0.0, 0.0]",0.19214655458927155,-0.1280878633260727,0.0,0.0,0.0,0.0,3,369630719,-1220337805,0,65535,65535,3,0,255,0,0,0,0,0,0,10,0,192,0,3,3,"array('B', [253, 60, 0, 0, 0, 185, 1, 1, 105, 0, 0, 162, 167, 177, 1, 0, 0, 0, 0, 106, 255, 60, 189, 0, 163, 118, 187, 222, 102, 128, 63, 56, 65, 156, 61, 213, 97, 106, 63, 182, 193, 90, 190, 64, 53, 235, 62, 28, 64, 193, 190, 192, 225, 16, 191, 0, 0, 0, 0, 0, 0, 0, 0, 0, 0, 0, 0, 0, 0, 6, 197, 77])"
HIGHRES_IMU,35815003,-0.04950102046132088,-0.006236514076590538,1.0060606002807617,0.28992584347724915,0.5951109528541565,-0.33570361137390137,0.44538283348083496,-0.37742865085601807,-0.5761138796806335,0.0,0.0,0.0,-2080.0,0,0,35764,0.4726012051105499,-0.048964597284793854,0.0695086345076561,0.8771653175354004,0.006125457119196653,0.011718266643583775,-0.006125457119196653,"[0.0, 0.0, 0.0, 0.0]",0.19214655458927155,-0.1280878633260727,0.0,0.0,0.0,0.0,3,369630719,-1220337805,0,65535,65535,3,0,255,0,0,0,0,0,0,10,0,192,0,3,3,"array('B', [253, 60, 0, 0, 0, 185, 1, 1, 105, 0, 0, 162, 167, 177, 1, 0, 0, 0, 0, 106, 255, 60, 189, 0, 163, 118, 187, 222, 102, 128, 63, 56, 65, 156, 61, 213, 97, 106, 63, 182, 193, 90, 190, 64, 53, 235, 62, 28, 64, 193, 190, 192, 225, 16, 191, 0, 0, 0, 0, 0, 0, 0, 0, 0, 0, 0, 0, 0, 0, 6, 197, 77])"
ATTITUDE_QUATERNION,35815003,-0.04950102046132088,-0.006236514076590538,1.0060606002807617,0.28992584347724915,0.5951109528541565,-0.33570361137390137,0.44538283348083496,-0.37742865085601807,-0.5761138796806335,0.0,0.0,0.0,-2080.0,0,0,35815,0.47233113646507263,-0.04866486042737961,0.07009408622980118,0.8772809505462646,0.005060160532593727,0.010386645793914795,-0.005859133321791887,"[0.0, 0.0, 0.0, 0.0]",0.19214655458927155,-0.1280878633260727,0.0,0.0,0.0,0.0,3,369630719,-1220337805,0,65535,65535,3,0,255,0,0,0,0,0,0,10,0,192,0,3,3,"array('B', [253, 60, 0, 0, 0, 185, 1, 1, 105, 0, 0, 162, 167, 177, 1, 0, 0, 0, 0, 106, 255, 60, 189, 0, 163, 118, 187, 222, 102, 128, 63, 56, 65, 156, 61, 213, 97, 106, 63, 182, 193, 90, 190, 64, 53, 235, 62, 28, 64, 193, 190, 192, 225, 16, 191, 0, 0, 0, 0, 0, 0, 0, 0, 0, 0, 0, 0, 0, 0, 6, 197, 77])"
LOCAL_POSITION_NED,35815003,-0.04950102046132088,-0.006236514076590538,1.0060606002807617,0.28992584347724915,0.5951109528541565,-0.33570361137390137,0.44538283348083496,-0.37742865085601807,-0.5761138796806335,0.0,0.0,0.0,-2080.0,0,0,35815,0.47233113646507263,-0.04866486042737961,0.07009408622980118,0.8772809505462646,0.005060160532593727,0.010386645793914795,-0.005859133321791887,"[0.0, 0.0, 0.0, 0.0]",0.19214655458927155,-0.1280878633260727,0.0,0.0,0.0,0.0,3,369630719,-1220337805,0,65535,65535,3,0,255,0,0,0,0,0,0,10,0,192,0,3,3,"array('B', [253, 60, 0, 0, 0, 185, 1, 1, 105, 0, 0, 162, 167, 177, 1, 0, 0, 0, 0, 106, 255, 60, 189, 0, 163, 118, 187, 222, 102, 128, 63, 56, 65, 156, 61, 213, 97, 106, 63, 182, 193, 90, 190, 64, 53, 235, 62, 28, 64, 193, 190, 192, 225, 16, 191, 0, 0, 0, 0, 0, 0, 0, 0, 0, 0, 0, 0, 0, 0, 6, 197, 77])"
HIGHRES_IMU,35866005,-0.0490516759455204,-0.007011023815721273,1.0029151439666748,0.07629626989364624,0.5340738892555237,-0.30518507957458496,0.4347265958786011,-0.377543568611145,-0.5519809126853943,0.0,0.0,0.0,-2160.0,0,0,35815,0.47233113646507263,-0.04866486042737961,0.07009408622980118,0.8772809505462646,0.005060160532593727,0.010386645793914795,-0.005859133321791887,"[0.0, 0.0, 0.0, 0.0]",0.19214655458927155,-0.1280878633260727,0.0,0.0,0.0,0.0,3,369630719,-1220337805,0,65535,65535,3,0,255,0,0,0,0,0,0,10,0,192,0,3,3,"array('B', [253, 60, 0, 0, 0, 185, 1, 1, 105, 0, 0, 162, 167, 177, 1, 0, 0, 0, 0, 106, 255, 60, 189, 0, 163, 118, 187, 222, 102, 128, 63, 56, 65, 156, 61, 213, 97, 106, 63, 182, 193, 90, 190, 64, 53, 235, 62, 28, 64, 193, 190, 192, 225, 16, 191, 0, 0, 0, 0, 0, 0, 0, 0, 0, 0, 0, 0, 0, 0, 6, 197, 77])"
ATTITUDE_QUATERNION,35866005,-0.0490516759455204,-0.007011023815721273,1.0029151439666748,0.07629626989364624,0.5340738892555237,-0.30518507957458496,0.4347265958786011,-0.377543568611145,-0.5519809126853943,0.0,0.0,0.0,-2160.0,0,0,35866,0.47245532274246216,-0.04869760945439339,0.06982685625553131,0.877233624458313,0.0013316210824996233,0.009321347810328007,-0.005326484329998493,"[0.0, 0.0, 0.0, 0.0]",0.19214655458927155,-0.1280878633260727,0.0,0.0,0.0,0.0,3,369630719,-1220337805,0,65535,65535,3,0,255,0,0,0,0,0,0,10,0,192,0,3,3,"array('B', [253, 60, 0, 0, 0, 185, 1, 1, 105, 0, 0, 162, 167, 177, 1, 0, 0, 0, 0, 106, 255, 60, 189, 0, 163, 118, 187, 222, 102, 128, 63, 56, 65, 156, 61, 213, 97, 106, 63, 182, 193, 90, 190, 64, 53, 235, 62, 28, 64, 193, 190, 192, 225, 16, 191, 0, 0, 0, 0, 0, 0, 0, 0, 0, 0, 0, 0, 0, 0, 6, 197, 77])"
LOCAL_POSITION_NED,35866005,-0.0490516759455204,-0.007011023815721273,1.0029151439666748,0.07629626989364624,0.5340738892555237,-0.30518507957458496,0.4347265958786011,-0.377543568611145,-0.5519809126853943,0.0,0.0,0.0,-2160.0,0,0,35866,0.47245532274246216,-0.04869760945439339,0.06982685625553131,0.877233624458313,0.0013316210824996233,0.009321347810328007,-0.005326484329998493,"[0.0, 0.0, 0.0, 0.0]",0.19214655458927155,-0.1280878633260727,0.0,0.0,0.0,0.0,3,369630719,-1220337805,0,65535,65535,3,0,255,0,0,0,0,0,0,10,0,192,0,3,3,"array('B', [253, 60, 0, 0, 0, 185, 1, 1, 105, 0, 0, 162, 167, 177, 1, 0, 0, 0, 0, 106, 255, 60, 189, 0, 163, 118, 187, 222, 102, 128, 63, 56, 65, 156, 61, 213, 97, 106, 63, 182, 193, 90, 190, 64, 53, 235, 62, 28, 64, 193, 190, 192, 225, 16, 191, 0, 0, 0, 0, 0, 0, 0, 0, 0, 0, 0, 0, 0, 0, 6, 197, 77])"
GPS_RAW_INT,35868006,-0.0490516759455204,-0.007011023815721273,1.0029151439666748,0.07629626989364624,0.5340738892555237,-0.30518507957458496,0.4347265958786011,-0.377543568611145,-0.5519809126853943,0.0,0.0,0.0,-2160.0,0,0,35866,0.47245532274246216,-0.04869760945439339,0.06982685625553131,0.877233624458313,0.0013316210824996233,0.009321347810328007,-0.005326484329998493,"[0.0, 0.0, 0.0, 0.0]",0.19214655458927155,-0.1280878633260727,0.0,0.0,0.0,0.0,3,369630721,-1220337805,0,65535,65535,2,0,255,0,0,0,0,0,0,10,0,192,0,3,3,"array('B', [253, 60, 0, 0, 0, 185, 1, 1, 105, 0, 0, 162, 167, 177, 1, 0, 0, 0, 0, 106, 255, 60, 189, 0, 163, 118, 187, 222, 102, 128, 63, 56, 65, 156, 61, 213, 97, 106, 63, 182, 193, 90, 190, 64, 53, 235, 62, 28, 64, 193, 190, 192, 225, 16, 191, 0, 0, 0, 0, 0, 0, 0, 0, 0, 0, 0, 0, 0, 0, 6, 197, 77])"
HIGHRES_IMU,35917005,-0.04817875474691391,-0.005778039805591106,1.0053279399871826,0.04577776417136192,0.6714072227478027,-0.04577776417136192,0.4311455488204956,-0.37425923347473145,-0.5382047891616821,0.0,0.0,0.0,-2112.0,0,0,35866,0.47245532274246216,-0.04869760945439339,0.06982685625553131,0.877233624458313,0.0013316210824996233,0.009321347810328007,-0.005326484329998493,"[0.0, 0.0, 0.0, 0.0]",0.19214655458927155,-0.1280878633260727,0.0,0.0,0.0,0.0,3,369630721,-1220337805,0,65535,65535,2,0,255,0,0,0,0,0,0,10,0,192,0,3,3,"array('B', [253, 60, 0, 0, 0, 185, 1, 1, 105, 0, 0, 162, 167, 177, 1, 0, 0, 0, 0, 106, 255, 60, 189, 0, 163, 118, 187, 222, 102, 128, 63, 56, 65, 156, 61, 213, 97, 106, 63, 182, 193, 90, 190, 64, 53, 235, 62, 28, 64, 193, 190, 192, 225, 16, 191, 0, 0, 0, 0, 0, 0, 0, 0, 0, 0, 0, 0, 0, 0, 6, 197, 77])"
ATTITUDE_QUATERNION,35917005,-0.04817875474691391,-0.005778039805591106,1.0053279399871826,0.04577776417136192,0.6714072227478027,-0.04577776417136192,0.4311455488204956,-0.37425923347473145,-0.5382047891616821,0.0,0.0,0.0,-2112.0,0,0,35917,0.4725872278213501,-0.04873069003224373,0.06953845173120499,0.8771836161613464,0.0007989727309904993,0.011718266643583775,-0.0007989727309904993,"[0.0, 0.0, 0.0, 0.0]",0.19214655458927155,-0.1280878633260727,0.0,0.0,0.0,0.0,3,369630721,-1220337805,0,65535,65535,2,0,255,0,0,0,0,0,0,10,0,192,0,3,3,"array('B', [253, 60, 0, 0, 0, 185, 1, 1, 105, 0, 0, 162, 167, 177, 1, 0, 0, 0, 0, 106, 255, 60, 189, 0, 163, 118, 187, 222, 102, 128, 63, 56, 65, 156, 61, 213, 97, 106, 63, 182, 193, 90, 190, 64, 53, 235, 62, 28, 64, 193, 190, 192, 225, 16, 191, 0, 0, 0, 0, 0, 0, 0, 0, 0, 0, 0, 0, 0, 0, 6, 197, 77])"
LOCAL_POSITION_NED,35917005,-0.04817875474691391,-0.005778039805591106,1.0053279399871826,0.04577776417136192,0.6714072227478027,-0.04577776417136192,0.4311455488204956,-0.37425923347473145,-0.5382047891616821,0.0,0.0,0.0,-2112.0,0,0,35917,0.4725872278213501,-0.04873069003224373,0.06953845173120499,0.8771836161613464,0.0007989727309904993,0.011718266643583775,-0.0007989727309904993,"[0.0, 0.0, 0.0, 0.0]",0.19214655458927155,-0.1280878633260727,0.0,0.0,0.0,0.0,3,369630721,-1220337805,0,65535,65535,2,0,255,0,0,0,0,0,0,10,0,192,0,3,3,"array('B', [253, 60, 0, 0, 0, 185, 1, 1, 105, 0, 0, 162, 167, 177, 1, 0, 0, 0, 0, 106, 255, 60, 189, 0, 163, 118, 187, 222, 102, 128, 63, 56, 65, 156, 61, 213, 97, 106, 63, 182, 193, 90, 190, 64, 53, 235, 62, 28, 64, 193, 190, 192, 225, 16, 191, 0, 0, 0, 0, 0, 0, 0, 0, 0, 0, 0, 0, 0, 0, 6, 197, 77])"
HIGHRES_IMU,35968003,-0.047694429755210876,-0.006148589309304953,1.0053859949111938,0.27466657757759094,0.6103701591491699,-0.4272591471672058,0.4242887496948242,-0.39086389541625977,-0.5725206136703491,0.0,0.0,0.0,-2192.0,0,0,35917,0.4725872278213501,-0.04873069003224373,0.06953845173120499,0.8771836161613464,0.0007989727309904993,0.011718266643583775,-0.0007989727309904993,"[0.0, 0.0, 0.0, 0.0]",0.19214655458927155,-0.1280878633260727,0.0,0.0,0.0,0.0,3,369630721,-1220337805,0,65535,65535,2,0,255,0,0,0,0,0,0,10,0,192,0,3,3,"array('B', [253, 60, 0, 0, 0, 185, 1, 1, 105, 0, 0, 162, 167, 177, 1, 0, 0, 0, 0, 106, 255, 60, 189, 0, 163, 118, 187, 222, 102, 128, 63, 56, 65, 156, 61, 213, 97, 106, 63, 182, 193, 90, 190, 64, 53, 235, 62, 28, 64, 193, 190, 192, 225, 16, 191, 0, 0, 0, 0, 0, 0, 0, 0, 0, 0, 0, 0, 0, 0, 6, 197, 77])"
ATTITUDE_QUATERNION,35968003,-0.047694429755210876,-0.006148589309304953,1.0053859949111938,0.27466657757759094,0.6103701591491699,-0.4272591471672058,0.4242887496948242,-0.39086389541625977,-0.5725206136703491,0.0,0.0,0.0,-2192.0,0,0,35968,0.47186675667762756,-0.04749920591711998,0.06976135820150375,0.8776211738586426,0.004793836269527674,0.010652968659996986,-0.007457078900188208,"[0.0, 0.0, 0.0, 0.0]",0.19214655458927155,-0.1280878633260727,0.0,0.0,0.0,0.0,3,369630721,-1220337805,0,65535,65535,2,0,255,0,0,0,0,0,0,10,0,192,0,3,3,"array('B', [253, 60, 0, 0, 0, 185, 1, 1, 105, 0, 0, 162, 167, 177, 1, 0, 0, 0, 0, 106, 255, 60, 189, 0, 163, 118, 187, 222, 102, 128, 63, 56, 65, 156, 61, 213, 97, 106, 63, 182, 193, 90, 190, 64, 53, 235, 62, 28, 64, 193, 190, 192, 225, 16, 191, 0, 0, 0, 0, 0, 0, 0, 0, 0, 0, 0, 0, 0, 0, 6, 197, 77])"
LOCAL_POSITION_NED,35968003,-0.047694429755210876,-0.006148589309304953,1.0053859949111938,0.27466657757759094,0.6103701591491699,-0.4272591471672058,0.4242887496948242,-0.39086389541625977,-0.5725206136703491,0.0,0.0,0.0,-2192.0,0,0,35968,0.47186675667762756,-0.04749920591711998,0.06976135820150375,0.8776211738586426,0.004793836269527674,0.010652968659996986,-0.007457078900188208,"[0.0, 0.0, 0.0, 0.0]",0.19214655458927155,-0.1280878633260727,0.0,0.0,0.0,0.0,3,369630721,-1220337805,0,65535,65535,2,0,255,0,0,0,0,0,0,10,0,192,0,3,3,"array('B', [253, 60, 0, 0, 0, 185, 1, 1, 105, 0, 0, 162, 167, 177, 1, 0, 0, 0, 0, 106, 255, 60, 189, 0, 163, 118, 187, 222, 102, 128, 63, 56, 65, 156, 61, 213, 97, 106, 63, 182, 193, 90, 190, 64, 53, 235, 62, 28, 64, 193, 190, 192, 225, 16, 191, 0, 0, 0, 0, 0, 0, 0, 0, 0, 0, 0, 0, 0, 0, 6, 197, 77])"
GPS_RAW_INT,35969006,-0.047694429755210876,-0.006148589309304953,1.0053859949111938,0.27466657757759094,0.6103701591491699,-0.4272591471672058,0.4242887496948242,-0.39086389541625977,-0.5725206136703491,0.0,0.0,0.0,-2192.0,0,0,35968,0.47186675667762756,-0.04749920591711998,0.06976135820150375,0.8776211738586426,0.004793836269527674,0.010652968659996986,-0.007457078900188208,"[0.0, 0.0, 0.0, 0.0]",0.19214655458927155,-0.1280878633260727,0.0,0.0,0.0,0.0,3,369630721,-1220337803,0,65535,65535,3,0,255,0,0,0,0,0,0,10,0,192,0,3,3,"array('B', [253, 60, 0, 0, 0, 185, 1, 1, 105, 0, 0, 162, 167, 177, 1, 0, 0, 0, 0, 106, 255, 60, 189, 0, 163, 118, 187, 222, 102, 128, 63, 56, 65, 156, 61, 213, 97, 106, 63, 182, 193, 90, 190, 64, 53, 235, 62, 28, 64, 193, 190, 192, 225, 16, 191, 0, 0, 0, 0, 0, 0, 0, 0, 0, 0, 0, 0, 0, 0, 6, 197, 77])"
HEARTBEAT,35969006,-0.047694429755210876,-0.006148589309304953,1.0053859949111938,0.27466657757759094,0.6103701591491699,-0.4272591471672058,0.4242887496948242,-0.39086389541625977,-0.5725206136703491,0.0,0.0,0.0,-2192.0,0,0,35968,0.47186675667762756,-0.04749920591711998,0.06976135820150375,0.8776211738586426,0.004793836269527674,0.010652968659996986,-0.007457078900188208,"[0.0, 0.0, 0.0, 0.0]",0.19214655458927155,-0.1280878633260727,0.0,0.0,0.0,0.0,3,369630721,-1220337803,0,65535,65535,3,0,255,0,0,0,0,0,0,10,0,192,0,3,3,"array('B', [253, 60, 0, 0, 0, 185, 1, 1, 105, 0, 0, 162, 167, 177, 1, 0, 0, 0, 0, 106, 255, 60, 189, 0, 163, 118, 187, 222, 102, 128, 63, 56, 65, 156, 61, 213, 97, 106, 63, 182, 193, 90, 190, 64, 53, 235, 62, 28, 64, 193, 190, 192, 225, 16, 191, 0, 0, 0, 0, 0, 0, 0, 0, 0, 0, 0, 0, 0, 0, 6, 197, 77])"
HIGHRES_IMU,36019005,-0.04826265946030617,-0.008232845924794674,1.0036976337432861,0.07629626989364624,0.6256294250488281,-0.1983703076839447,0.47340524196624756,-0.3908371925354004,-0.555812656879425,0.0,0.0,0.0,-2160.0,0,0,35968,0.47186675667762756,-0.04749920591711998,0.06976135820150375,0.8776211738586426,0.004793836269527674,0.010652968659996986,-0.007457078900188208,"[0.0, 0.0, 0.0, 0.0]",0.19214655458927155,-0.1280878633260727,0.0,0.0,0.0,0.0,3,369630721,-1220337803,0,65535,65535,3,0,255,0,0,0,0,0,0,10,0,192,0,3,3,"array('B', [253, 60, 0, 0, 0, 185, 1, 1, 105, 0, 0, 162, 167, 177, 1, 0, 0, 0, 0, 106, 255, 60, 189, 0, 163, 118, 187, 222, 102, 128, 63, 56, 65, 156, 61, 213, 97, 106, 63, 182, 193, 90, 190, 64, 53, 235, 62, 28, 64, 193, 190, 192, 225, 16, 191, 0, 0, 0, 0, 0, 0, 0, 0, 0, 0, 0, 0, 0, 0, 6, 197, 77])"
ATTITUDE_QUATERNION,36019005,-0.04826265946030617,-0.008232845924794674,1.0036976337432861,0.07629626989364624,0.6256294250488281,-0.1983703076839447,0.47340524196624756,-0.3908371925354004,-0.555812656879425,0.0,0.0,0.0,-2160.0,0,0,36019,0.4722658097743988,-0.04794549569487572,0.0691242590546608,0.877432644367218,0.0013316210824996233,0.010919293388724327,-0.0034622149541974068,"[0.0, 0.0, 0.0, 0.0]",0.19214655458927155,-0.1280878633260727,0.0,0.0,0.0,0.0,3,369630721,-1220337803,0,65535,65535,3,0,255,0,0,0,0,0,0,10,0,192,0,3,3,"array('B', [253, 60, 0, 0, 0, 185, 1, 1, 105, 0, 0, 162, 167, 177, 1, 0, 0, 0, 0, 106, 255, 60, 189, 0, 163, 118, 187, 222, 102, 128, 63, 56, 65, 156, 61, 213, 97, 106, 63, 182, 193, 90, 190, 64, 53, 235, 62, 28, 64, 193, 190, 192, 225, 16, 191, 0, 0, 0, 0, 0, 0, 0, 0, 0, 0, 0, 0, 0, 0, 6, 197, 77])"
LOCAL_POSITION_NED,36019005,-0.04826265946030617,-0.008232845924794674,1.0036976337432861,0.07629626989364624,0.6256294250488281,-0.1983703076839447,0.47340524196624756,-0.3908371925354004,-0.555812656879425,0.0,0.0,0.0,-2160.0,0,0,36019,0.4722658097743988,-0.04794549569487572,0.0691242590546608,0.877432644367218,0.0013316210824996233,0.010919293388724327,-0.0034622149541974068,"[0.0, 0.0, 0.0, 0.0]",0.19214655458927155,-0.1280878633260727,0.0,0.0,0.0,0.0,3,369630721,-1220337803,0,65535,65535,3,0,255,0,0,0,0,0,0,10,0,192,0,3,3,"array('B', [253, 60, 0, 0, 0, 185, 1, 1, 105, 0, 0, 162, 167, 177, 1, 0, 0, 0, 0, 106, 255, 60, 189, 0, 163, 118, 187, 222, 102, 128, 63, 56, 65, 156, 61, 213, 97, 106, 63, 182, 193, 90, 190, 64, 53, 235, 62, 28, 64, 193, 190, 192, 225, 16, 191, 0, 0, 0, 0, 0, 0, 0, 0, 0, 0, 0, 0, 0, 0, 6, 197, 77])"
HIGHRES_IMU,36070005,-0.0470559187233448,-0.010374380275607109,1.0064129829406738,0.30518507957458496,0.808740496635437,-0.27466657757759094,0.4558706283569336,-0.39753448963165283,-0.5625340938568115,0.0,0.0,0.0,-2096.0,0,0,36019,0.4722658097743988,-0.04794549569487572,0.0691242590546608,0.877432644367218,0.0013316210824996233,0.010919293388724327,-0.0034622149541974068,"[0.0, 0.0, 0.0, 0.0]",0.19214655458927155,-0.1280878633260727,0.0,0.0,0.0,0.0,3,369630721,-1220337803,0,65535,65535,3,0,255,0,0,0,0,0,0,10,0,192,0,3,3,"array('B', [253, 60, 0, 0, 0, 185, 1, 1, 105, 0, 0, 162, 167, 177, 1, 0, 0, 0, 0, 106, 255, 60, 189, 0, 163, 118, 187, 222, 102, 128, 63, 56, 65, 156, 61, 213, 97, 106, 63, 182, 193, 90, 190, 64, 53, 235, 62, 28, 64, 193, 190, 192, 225, 16, 191, 0, 0, 0, 0, 0, 0, 0, 0, 0, 0, 0, 0, 0, 0, 6, 197, 77])"
ATTITUDE_QUATERNION,36070005,-0.0470559187233448,-0.010374380275607109,1.0064129829406738,0.30518507957458496,0.808740496635437,-0.27466657757759094,0.4558706283569336,-0.39753448963165283,-0.5625340938568115,0.0,0.0,0.0,-2096.0,0,0,36070,0.47282522916793823,-0.04905500262975693,0.06964987516403198,0.8770284652709961,0.005326484329998493,0.014115184545516968,-0.004793836269527674,"[0.0, 0.0, 0.0, 0.0]",0.19214655458927155,-0.1280878633260727,0.0,0.0,0.0,0.0,3,369630721,-1220337803,0,65535,65535,3,0,255,0,0,0,0,0,0,10,0,192,0,3,3,"array('B', [253, 60, 0, 0, 0, 185, 1, 1, 105, 0, 0, 162, 167, 177, 1, 0, 0, 0, 0, 106, 255, 60, 189, 0, 163, 118, 187, 222, 102, 128, 63, 56, 65, 156, 61, 213, 97, 106, 63, 182, 193, 90, 190, 64, 53, 235, 62, 28, 64, 193, 190, 192, 225, 16, 191, 0, 0, 0, 0, 0, 0, 0, 0, 0, 0, 0, 0, 0, 0, 6, 197, 77])"
LOCAL_POSITION_NED,36070005,-0.0470559187233448,-0.010374380275607109,1.0064129829406738,0.30518507957458496,0.808740496635437,-0.27466657757759094,0.4558706283569336,-0.39753448963165283,-0.5625340938568115,0.0,0.0,0.0,-2096.0,0,0,36070,0.47282522916793823,-0.04905500262975693,0.06964987516403198,0.8770284652709961,0.005326484329998493,0.014115184545516968,-0.004793836269527674,"[0.0, 0.0, 0.0, 0.0]",0.19214655458927155,-0.1280878633260727,0.0,0.0,0.0,0.0,3,369630721,-1220337803,0,65535,65535,3,0,255,0,0,0,0,0,0,10,0,192,0,3,3,"array('B', [253, 60, 0, 0, 0, 185, 1, 1, 105, 0, 0, 162, 167, 177, 1, 0, 0, 0, 0, 106, 255, 60, 189, 0, 163, 118, 187, 222, 102, 128, 63, 56, 65, 156, 61, 213, 97, 106, 63, 182, 193, 90, 190, 64, 53, 235, 62, 28, 64, 193, 190, 192, 225, 16, 191, 0, 0, 0, 0, 0, 0, 0, 0, 0, 0, 0, 0, 0, 0, 6, 197, 77])"
GPS_RAW_INT,36070810,-0.0470559187233448,-0.010374380275607109,1.0064129829406738,0.30518507957458496,0.808740496635437,-0.27466657757759094,0.4558706283569336,-0.39753448963165283,-0.5625340938568115,0.0,0.0,0.0,-2096.0,0,0,36070,0.47282522916793823,-0.04905500262975693,0.06964987516403198,0.8770284652709961,0.005326484329998493,0.014115184545516968,-0.004793836269527674,"[0.0, 0.0, 0.0, 0.0]",0.19214655458927155,-0.1280878633260727,0.0,0.0,0.0,0.0,3,369630723,-1220337801,0,65535,65535,2,0,255,0,0,0,0,0,0,10,0,192,0,3,3,"array('B', [253, 60, 0, 0, 0, 185, 1, 1, 105, 0, 0, 162, 167, 177, 1, 0, 0, 0, 0, 106, 255, 60, 189, 0, 163, 118, 187, 222, 102, 128, 63, 56, 65, 156, 61, 213, 97, 106, 63, 182, 193, 90, 190, 64, 53, 235, 62, 28, 64, 193, 190, 192, 225, 16, 191, 0, 0, 0, 0, 0, 0, 0, 0, 0, 0, 0, 0, 0, 0, 6, 197, 77])"
HIGHRES_IMU,36121005,-0.04619522765278816,-0.006423512008041143,1.0063453912734985,0.24414807558059692,0.8850367665290833,-0.24414807558059692,0.431349515914917,-0.3908233642578125,-0.5794532299041748,0.0,0.0,0.0,-2192.0,0,0,36070,0.47282522916793823,-0.04905500262975693,0.06964987516403198,0.8770284652709961,0.005326484329998493,0.014115184545516968,-0.004793836269527674,"[0.0, 0.0, 0.0, 0.0]",0.19214655458927155,-0.1280878633260727,0.0,0.0,0.0,0.0,3,369630723,-1220337801,0,65535,65535,2,0,255,0,0,0,0,0,0,10,0,192,0,3,3,"array('B', [253, 60, 0, 0, 0, 185, 1, 1, 105, 0, 0, 162, 167, 177, 1, 0, 0, 0, 0, 106, 255, 60, 189, 0, 163, 118, 187, 222, 102, 128, 63, 56, 65, 156, 61, 213, 97, 106, 63, 182, 193, 90, 190, 64, 53, 235, 62, 28, 64, 193, 190, 192, 225, 16, 191, 0, 0, 0, 0, 0, 0, 0, 0, 0, 0, 0, 0, 0, 0, 6, 197, 77])"
