mavpackettype,index,frequency,time_boot_ms,q1,q2,q3,q4,rollspeed,pitchspeed,yawspeed,repr_offset_q,x,y,z,vx,vy,vz,time_usec,fix_type,lat,lon,alt,eph,epv,vel,cog,satellites_visible,alt_ellipsoid,h_acc,v_acc,vel_acc,hdg_acc,yaw,type,autopilot,base_mode,custom_mode,system_status,mavlink_version
LOCAL_POSITION_NED,2,0.4783719480037689,243180,-0.4458354115486145,0.05281746760010719,-0.22113169729709625,-0.865760862827301,0.0026632421649992466,0.011185618117451668,-0.007190754171460867,"[0.0, 0.0, 0.0, 0.0]",-10.601813316345215,3.2134430408477783,0.0,0.00026960388640873134,-0.00033827670267783105,0.0,243119005,3,369992735,-1220636548,0,65535,65535,4,0,255,0,0,0,0,0,0,10,0,192,0,3,3
GPS_RAW_INT,2,0.4783719480037689,243180,-0.4458354115486145,0.05281746760010719,-0.22113169729709625,-0.865760862827301,0.0026632421649992466,0.011185618117451668,-0.007190754171460867,"[0.0, 0.0, 0.0, 0.0]",-10.601813316345215,3.2134430408477783,0.0,0.00026960388640873134,-0.00033827670267783105,0.0,243220005,3,369992735,-1220636548,0,65535,65535,2,0,255,0,0,0,0,0,0,10,0,192,0,3,3
RAW_RPM,0,0.0,243180,-0.4458354115486145,0.05281746760010719,-0.22113169729709625,-0.865760862827301,0.0026632421649992466,0.011185618117451668,-0.007190754171460867,"[0.0, 0.0, 0.0, 0.0]",-10.601813316345215,3.2134430408477783,0.0,0.00026960388640873134,-0.00033827670267783105,0.0,243220005,3,369992735,-1220636548,0,65535,65535,2,0,255,0,0,0,0,0,0,10,0,192,0,3,3
RAW_RPM,1,-0.0003834952076431364,243180,-0.4458354115486145,0.05281746760010719,-0.22113169729709625,-0.865760862827301,0.0026632421649992466,0.011185618117451668,-0.007190754171460867,"[0.0, 0.0, 0.0, 0.0]",-10.601813316345215,3.2134430408477783,0.0,0.00026960388640873134,-0.00033827670267783105,0.0,243220005,3,369992735,-1220636548,0,65535,65535,2,0,255,0,0,0,0,0,0,10,0,192,0,3,3
RAW_RPM,2,0.47863081097602844,243180,-0.4458354115486145,0.05281746760010719,-0.22113169729709625,-0.865760862827301,0.0026632421649992466,0.011185618117451668,-0.007190754171460867,"[0.0, 0.0, 0.0, 0.0]",-10.601813316345215,3.2134430408477783,0.0,0.00026960388640873134,-0.00033827670267783105,0.0,243220005,3,369992735,-1220636548,0,65535,65535,2,0,255,0,0,0,0,0,0,10,0,192,0,3,3
ATTITUDE_QUATERNION,2,0.47863081097602844,243231,-0.4459041953086853,0.05310273915529251,-0.221368670463562,-0.8656474351882935,0.006391781847923994,0.011718266643583775,-0.007190754171460867,"[0.0, 0.0, 0.0, 0.0]",-10.601813316345215,3.2134430408477783,0.0,0.00026960388640873134,-0.00033827670267783105,0.0,243220005,3,369992735,-1220636548,0,65535,65535,2,0,255,0,0,0,0,0,0,10,0,192,0,3,3
LOCAL_POSITION_NED,2,0.47863081097602844,243231,-0.4459041953086853,0.05310273915529251,-0.221368670463562,-0.8656474351882935,0.006391781847923994,0.011718266643583775,-0.007190754171460867,"[0.0, 0.0, 0.0, 0.0]",-10.601798057556152,3.21342396736145,0.0,0.0002919525431934744,-0.00036626175278797746,0.0,243220005,3,369992735,-1220636548,0,65535,65535,2,0,255,0,0,0,0,0,0,10,0,192,0,3,3
RAW_RPM,0,-0.0003834952076431364,243231,-0.4459041953086853,0.05310273915529251,-0.221368670463562,-0.8656474351882935,0.006391781847923994,0.011718266643583775,-0.007190754171460867,"[0.0, 0.0, 0.0, 0.0]",-10.601798057556152,3.21342396736145,0.0,0.0002919525431934744,-0.00036626175278797746,0.0,243220005,3,369992735,-1220636548,0,65535,65535,2,0,255,0,0,0,0,0,0,10,0,192,0,3,3
RAW_RPM,1,-0.0011504855938255787,243231,-0.4459041953086853,0.05310273915529251,-0.221368670463562,-0.8656474351882935,0.006391781847923994,0.011718266643583775,-0.007190754171460867,"[0.0, 0.0, 0.0, 0.0]",-10.601798057556152,3.21342396736145,0.0,0.0002919525431934744,-0.00036626175278797746,0.0,243220005,3,369992735,-1220636548,0,65535,65535,2,0,255,0,0,0,0,0,0,10,0,192,0,3,3
RAW_RPM,2,0.47888967394828796,243231,-0.4459041953086853,0.05310273915529251,-0.221368670463562,-0.8656474351882935,0.006391781847923994,0.011718266643583775,-0.007190754171460867,"[0.0, 0.0, 0.0, 0.0]",-10.601798057556152,3.21342396736145,0.0,0.0002919525431934744,-0.00036626175278797746,0.0,243220005,3,369992735,-1220636548,0,65535,65535,2,0,255,0,0,0,0,0,0,10,0,192,0,3,3
ATTITUDE_QUATERNION,2,0.47888967394828796,243282,-0.445759654045105,0.05307053029537201,-0.22175657749176025,-0.8656244874000549,0.0034622149541974068,0.010120321065187454,-0.006125457119196653,"[0.0, 0.0, 0.0, 0.0]",-10.601798057556152,3.21342396736145,0.0,0.0002919525431934744,-0.00036626175278797746,0.0,243220005,3,369992735,-1220636548,0,65535,65535,2,0,255,0,0,0,0,0,0,10,0,192,0,3,3
LOCAL_POSITION_NED,2,0.47888967394828796,243282,-0.445759654045105,0.05307053029537201,-0.22175657749176025,-0.8656244874000549,0.0034622149541974068,0.010120321065187454,-0.006125457119196653,"[0.0, 0.0, 0.0, 0.0]",-10.601784706115723,3.2134056091308594,0.0,0.0002806427073664963,-0.00035195203963667154,0.0,243220005,3,369992735,-1220636548,0,65535,65535,2,0,255,0,0,0,0,0,0,10,0,192,0,3,3
GPS_RAW_INT,2,0.47888967394828796,243282,-0.445759654045105,0.05307053029537201,-0.22175657749176025,-0.8656244874000549,0.0034622149541974068,0.010120321065187454,-0.006125457119196653,"[0.0, 0.0, 0.0, 0.0]",-10.601784706115723,3.2134056091308594,0.0,0.0002806427073664963,-0.00035195203963667154,0.0,243321003,3,369992733,-1220636548,0,65535,65535,3,0,255,0,0,0,0,0,0,10,0,192,0,3,3
RAW_RPM,0,-0.0003834952076431364,243282,-0.445759654045105,0.05307053029537201,-0.22175657749176025,-0.8656244874000549,0.0034622149541974068,0.010120321065187454,-0.006125457119196653,"[0.0, 0.0, 0.0, 0.0]",-10.601784706115723,3.2134056091308594,0.0,0.0002806427073664963,-0.00035195203963667154,0.0,243321003,3,369992733,-1220636548,0,65535,65535,3,0,255,0,0,0,0,0,0,10,0,192,0,3,3
RAW_RPM,1,0.0007669904152862728,243282,-0.445759654045105,0.05307053029537201,-0.22175657749176025,-0.8656244874000549,0.0034622149541974068,0.010120321065187454,-0.006125457119196653,"[0.0, 0.0, 0.0, 0.0]",-10.601784706115723,3.2134056091308594,0.0,0.0002806427073664963,-0.00035195203963667154,0.0,243321003,3,369992733,-1220636548,0,65535,65535,3,0,255,0,0,0,0,0,0,10,0,192,0,3,3
RAW_RPM,2,0.47888967394828796,243282,-0.445759654045105,0.05307053029537201,-0.22175657749176025,-0.8656244874000549,0.0034622149541974068,0.010120321065187454,-0.006125457119196653,"[0.0, 0.0, 0.0, 0.0]",-10.601784706115723,3.2134056091308594,0.0,0.0002806427073664963,-0.00035195203963667154,0.0,243321003,3,369992733,-1220636548,0,65535,65535,3,0,255,0,0,0,0,0,0,10,0,192,0,3,3
ATTITUDE_QUATERNION,2,0.47888967394828796,243333,-0.445933997631073,0.053189586848020554,-0.221344456076622,-0.8656328916549683,0.003728539450094104,0.010120321065187454,-0.006125457119196653,"[0.0, 0.0, 0.0, 0.0]",-10.601784706115723,3.2134056091308594,0.0,0.0002806427073664963,-0.00035195203963667154,0.0,243321003,3,369992733,-1220636548,0,65535,65535,3,0,255,0,0,0,0,0,0,10,0,192,0,3,3
LOCAL_POSITION_NED,2,0.47888967394828796,243333,-0.445933997631073,0.053189586848020554,-0.221344456076622,-0.8656328916549683,0.003728539450094104,0.010120321065187454,-0.006125457119196653,"[0.0, 0.0, 0.0, 0.0]",-10.60176944732666,3.2133877277374268,0.0,0.0002694058057386428,-0.000337882898747921,0.0,243321003,3,369992733,-1220636548,0,65535,65535,3,0,255,0,0,0,0,0,0,10,0,192,0,3,3
RAW_RPM,0,0.0003834952076431364,243333,-0.445933997631073,0.053189586848020554,-0.221344456076622,-0.8656328916549683,0.003728539450094104,0.010120321065187454,-0.006125457119196653,"[0.0, 0.0, 0.0, 0.0]",-10.60176944732666,3.2133877277374268,0.0,0.0002694058057386428,-0.000337882898747921,0.0,243321003,3,369992733,-1220636548,0,65535,65535,3,0,255,0,0,0,0,0,0,10,0,192,0,3,3
RAW_RPM,1,-0.0003834952076431364,243333,-0.445933997631073,0.053189586848020554,-0.221344456076622,-0.8656328916549683,0.003728539450094104,0.010120321065187454,-0.006125457119196653,"[0.0, 0.0, 0.0, 0.0]",-10.60176944732666,3.2133877277374268,0.0,0.0002694058057386428,-0.000337882898747921,0.0,243321003,3,369992733,-1220636548,0,65535,65535,3,0,255,0,0,0,0,0,0,10,0,192,0,3,3
RAW_RPM,2,0.4781130850315094,243333,-0.445933997631073,0.053189586848020554,-0.221344456076622,-0.8656328916549683,0.003728539450094104,0.010120321065187454,-0.006125457119196653,"[0.0, 0.0, 0.0, 0.0]",-10.60176944732666,3.2133877277374268,0.0,0.0002694058057386428,-0.000337882898747921,0.0,243321003,3,369992733,-1220636548,0,65535,65535,3,0,255,0,0,0,0,0,0,10,0,192,0,3,3
ATTITUDE_QUATERNION,2,0.4781130850315094,243384,-0.4463981091976166,0.05369885265827179,-0.22079789638519287,-0.865501880645752,0.004261187743395567,0.013049887493252754,-0.006125457119196653,"[0.0, 0.0, 0.0, 0.0]",-10.60176944732666,3.2133877277374268,0.0,0.0002694058057386428,-0.000337882898747921,0.0,243321003,3,369992733,-1220636548,0,65535,65535,3,0,255,0,0,0,0,0,0,10,0,192,0,3,3
LOCAL_POSITION_NED,2,0.4781130850315094,243385,-0.4463981091976166,0.05369885265827179,-0.22079789638519287,-0.865501880645752,0.004261187743395567,0.013049887493252754,-0.006125457119196653,"[0.0, 0.0, 0.0, 0.0]",-10.601752281188965,3.213367462158203,0.0,0.0002525803865864873,-0.0003175312594976276,0.0,243321003,3,369992733,-1220636548,0,65535,65535,3,0,255,0,0,0,0,0,0,10,0,192,0,3,3
GPS_RAW_INT,2,0.4781130850315094,243385,-0.4463981091976166,0.05369885265827179,-0.22079789638519287,-0.865501880645752,0.004261187743395567,0.013049887493252754,-0.006125457119196653,"[0.0, 0.0, 0.0, 0.0]",-10.601752281188965,3.213367462158203,0.0,0.0002525803865864873,-0.0003175312594976276,0.0,243422005,3,369992733,-1220636550,0,65535,65535,3,0,255,0,0,0,0,0,0,10,0,192,0,3,3
RAW_RPM,0,0.0003834952076431364,243385,-0.4463981091976166,0.05369885265827179,-0.22079789638519287,-0.865501880645752,0.004261187743395567,0.013049887493252754,-0.006125457119196653,"[0.0, 0.0, 0.0, 0.0]",-10.601752281188965,3.213367462158203,0.0,0.0002525803865864873,-0.0003175312594976276,0.0,243422005,3,369992733,-1220636550,0,65535,65535,3,0,255,0,0,0,0,0,0,10,0,192,0,3,3
RAW_RPM,1,0.0011504855938255787,243385,-0.4463981091976166,0.05369885265827179,-0.22079789638519287,-0.865501880645752,0.004261187743395567,0.013049887493252754,-0.006125457119196653,"[0.0, 0.0, 0.0, 0.0]",-10.601752281188965,3.213367462158203,0.0,0.0002525803865864873,-0.0003175312594976276,0.0,243422005,3,369992733,-1220636550,0,65535,65535,3,0,255,0,0,0,0,0,0,10,0,192,0,3,3
RAW_RPM,2,0.4783719480037689,243385,-0.4463981091976166,0.05369885265827179,-0.22079789638519287,-0.865501880645752,0.004261187743395567,0.013049887493252754,-0.006125457119196653,"[0.0, 0.0, 0.0, 0.0]",-10.601752281188965,3.213367462158203,0.0,0.0002525803865864873,-0.0003175312594976276,0.0,243422005,3,369992733,-1220636550,0,65535,65535,3,0,255,0,0,0,0,0,0,10,0,192,0,3,3
ATTITUDE_QUATERNION,2,0.4783719480037689,243435,-0.4461123049259186,0.05335010588169098,-0.2207038402557373,-0.8656947612762451,0.0039948634803295135,0.010386645793914795,-0.005859133321791887,"[0.0, 0.0, 0.0, 0.0]",-10.601752281188965,3.213367462158203,0.0,0.0002525803865864873,-0.0003175312594976276,0.0,243422005,3,369992733,-1220636550,0,65535,65535,3,0,255,0,0,0,0,0,0,10,0,192,0,3,3
LOCAL_POSITION_NED,2,0.4783719480037689,243435,-0.4461123049259186,0.05335010588169098,-0.2207038402557373,-0.8656947612762451,0.0039948634803295135,0.010386645793914795,-0.005859133321791887,"[0.0, 0.0, 0.0, 0.0]",-10.601738929748535,3.213351011276245,0.0,0.00028059433680027723,-0.00035256511182524264,0.0,243422005,3,369992733,-1220636550,0,65535,65535,3,0,255,0,0,0,0,0,0,10,0,192,0,3,3
RAW_RPM,0,0.0007669904152862728,243435,-0.4461123049259186,0.05335010588169098,-0.2207038402557373,-0.8656947612762451,0.0039948634803295135,0.010386645793914795,-0.005859133321791887,"[0.0, 0.0, 0.0, 0.0]",-10.601738929748535,3.213351011276245,0.0,0.00028059433680027723,-0.00035256511182524264,0.0,243422005,3,369992733,-1220636550,0,65535,65535,3,0,255,0,0,0,0,0,0,10,0,192,0,3,3
RAW_RPM,1,0.0007669904152862728,243435,-0.4461123049259186,0.05335010588169098,-0.2207038402557373,-0.8656947612762451,0.0039948634803295135,0.010386645793914795,-0.005859133321791887,"[0.0, 0.0, 0.0, 0.0]",-10.601738929748535,3.213351011276245,0.0,0.00028059433680027723,-0.00035256511182524264,0.0,243422005,3,369992733,-1220636550,0,65535,65535,3,0,255,0,0,0,0,0,0,10,0,192,0,3,3
RAW_RPM,2,0.4783719480037689,243435,-0.4461123049259186,0.05335010588169098,-0.2207038402557373,-0.8656947612762451,0.0039948634803295135,0.010386645793914795,-0.005859133321791887,"[0.0, 0.0, 0.0, 0.0]",-10.601738929748535,3.213351011276245,0.0,0.00028059433680027723,-0.00035256511182524264,0.0,243422005,3,369992733,-1220636550,0,65535,65535,3,0,255,0,0,0,0,0,0,10,0,192,0,3,3
ATTITUDE_QUATERNION,2,0.4783719480037689,243486,-0.4461471438407898,0.053402964025735855,-0.22074002027511597,-0.8656642436981201,0.001864269725047052,0.009853996336460114,-0.0010652969358488917,"[0.0, 0.0, 0.0, 0.0]",-10.601738929748535,3.213351011276245,0.0,0.00028059433680027723,-0.00035256511182524264,0.0,243422005,3,369992733,-1220636550,0,65535,65535,3,0,255,0,0,0,0,0,0,10,0,192,0,3,3
LOCAL_POSITION_NED,2,0.4783719480037689,243486,-0.4461471438407898,0.053402964025735855,-0.22074002027511597,-0.8656642436981201,0.001864269725047052,0.009853996336460114,-0.0010652969358488917,"[0.0, 0.0, 0.0, 0.0]",-10.601725578308105,3.2133336067199707,0.0,0.00030311167938634753,-0.00038071477320045233,0.0,243422005,3,369992733,-1220636550,0,65535,65535,3,0,255,0,0,0,0,0,0,10,0,192,0,3,3
GPS_RAW_INT,2,0.4783719480037689,243486,-0.4461471438407898,0.053402964025735855,-0.22074002027511597,-0.8656642436981201,0.001864269725047052,0.009853996336460114,-0.0010652969358488917,"[0.0, 0.0, 0.0, 0.0]",-10.601725578308105,3.2133336067199707,0.0,0.00030311167938634753,-0.00038071477320045233,0.0,243523004,3,369992735,-1220636550,0,65535,65535,4,0,255,0,0,0,0,0,0,10,0,192,0,3,3
RAW_RPM,0,0.0,243486,-0.4461471438407898,0.053402964025735855,-0.22074002027511597,-0.8656642436981201,0.001864269725047052,0.009853996336460114,-0.0010652969358488917,"[0.0, 0.0, 0.0, 0.0]",-10.601725578308105,3.2133336067199707,0.0,0.00030311167938634753,-0.00038071477320045233,0.0,243523004,3,369992735,-1220636550,0,65535,65535,4,0,255,0,0,0,0,0,0,10,0,192,0,3,3
RAW_RPM,1,0.0,243486,-0.4461471438407898,0.053402964025735855,-0.22074002027511597,-0.8656642436981201,0.001864269725047052,0.009853996336460114,-0.0010652969358488917,"[0.0, 0.0, 0.0, 0.0]",-10.601725578308105,3.2133336067199707,0.0,0.00030311167938634753,-0.00038071477320045233,0.0,243523004,3,369992735,-1220636550,0,65535,65535,4,0,255,0,0,0,0,0,0,10,0,192,0,3,3
RAW_RPM,2,0.47863081097602844,243486,-0.4461471438407898,0.053402964025735855,-0.22074002027511597,-0.8656642436981201,0.001864269725047052,0.009853996336460114,-0.0010652969358488917,"[0.0, 0.0, 0.0, 0.0]",-10.601725578308105,3.2133336067199707,0.0,0.00030311167938634753,-0.00038071477320045233,0.0,243523004,3,369992735,-1220636550,0,65535,65535,4,0,255,0,0,0,0,0,0,10,0,192,0,3,3
ATTITUDE_QUATERNION,2,0.47863081097602844,243537,-0.4460260570049286,0.053210899233818054,-0.2205677479505539,-0.8657824993133545,0.004793836269527674,0.013049887493252754,-0.005592809058725834,"[0.0, 0.0, 0.0, 0.0]",-10.601725578308105,3.2133336067199707,0.0,0.00030311167938634753,-0.00038071477320045233,0.0,243523004,3,369992735,-1220636550,0,65535,65535,4,0,255,0,0,0,0,0,0,10,0,192,0,3,3
LOCAL_POSITION_NED,2,0.47863081097602844,243537,-0.4460260570049286,0.053210899233818054,-0.2205677479505539,-0.8657824993133545,0.004793836269527674,0.013049887493252754,-0.005592809058725834,"[0.0, 0.0, 0.0, 0.0]",-10.601712226867676,3.2133171558380127,0.0,0.00026379869086667895,-0.0003311092150397599,0.0,243523004,3,369992735,-1220636550,0,65535,65535,4,0,255,0,0,0,0,0,0,10,0,192,0,3,3
RAW_RPM,0,0.0003834952076431364,243537,-0.4460260570049286,0.053210899233818054,-0.2205677479505539,-0.8657824993133545,0.004793836269527674,0.013049887493252754,-0.005592809058725834,"[0.0, 0.0, 0.0, 0.0]",-10.601712226867676,3.2133171558380127,0.0,0.00026379869086667895,-0.0003311092150397599,0.0,243523004,3,369992735,-1220636550,0,65535,65535,4,0,255,0,0,0,0,0,0,10,0,192,0,3,3
RAW_RPM,1,0.0,243537,-0.4460260570049286,0.053210899233818054,-0.2205677479505539,-0.8657824993133545,0.004793836269527674,0.013049887493252754,-0.005592809058725834,"[0.0, 0.0, 0.0, 0.0]",-10.601712226867676,3.2133171558380127,0.0,0.00026379869086667895,-0.0003311092150397599,0.0,243523004,3,369992735,-1220636550,0,65535,65535,4,0,255,0,0,0,0,0,0,10,0,192,0,3,3
RAW_RPM,2,0.47863081097602844,243537,-0.4460260570049286,0.053210899233818054,-0.2205677479505539,-0.8657824993133545,0.004793836269527674,0.013049887493252754,-0.005592809058725834,"[0.0, 0.0, 0.0, 0.0]",-10.601712226867676,3.2133171558380127,0.0,0.00026379869086667895,-0.0003311092150397599,0.0,243523004,3,369992735,-1220636550,0,65535,65535,4,0,255,0,0,0,0,0,0,10,0,192,0,3,3
ATTITUDE_QUATERNION,2,0.47863081097602844,243588,-0.44646498560905457,0.0542537085711956,-0.22145795822143555,-0.8652639985084534,0.006125457119196653,0.013582535088062286,-0.005859133321791887,"[0.0, 0.0, 0.0, 0.0]",-10.601712226867676,3.2133171558380127,0.0,0.00026379869086667895,-0.0003311092150397599,0.0,243523004,3,369992735,-1220636550,0,65535,65535,4,0,255,0,0,0,0,0,0,10,0,192,0,3,3
LOCAL_POSITION_NED,2,0.47863081097602844,243588,-0.44646498560905457,0.0542537085711956,-0.22145795822143555,-0.8652639985084534,0.006125457119196653,0.013582535088062286,-0.005859133321791887,"[0.0, 0.0, 0.0, 0.0]",-10.601698875427246,3.2133004665374756,0.0,0.00032523833215236664,-0.0004088420537300408,0.0,243523004,3,369992735,-1220636550,0,65535,65535,4,0,255,0,0,0,0,0,0,10,0,192,0,3,3
GPS_RAW_INT,2,0.47863081097602844,243588,-0.44646498560905457,0.0542537085711956,-0.22145795822143555,-0.8652639985084534,0.006125457119196653,0.013582535088062286,-0.005859133321791887,"[0.0, 0.0, 0.0, 0.0]",-10.601698875427246,3.2133004665374756,0.0,0.00032523833215236664,-0.0004088420537300408,0.0,243624414,3,369992735,-1220636550,0,65535,65535,3,0,255,0,0,0,0,0,0,10,0,192,0,3,3
RAW_RPM,0,0.0,243588,-0.44646498560905457,0.0542537085711956,-0.22145795822143555,-0.8652639985084534,0.006125457119196653,0.013582535088062286,-0.005859133321791887,"[0.0, 0.0, 0.0, 0.0]",-10.601698875427246,3.2133004665374756,0.0,0.00032523833215236664,-0.0004088420537300408,0.0,243624414,3,369992735,-1220636550,0,65535,65535,3,0,255,0,0,0,0,0,0,10,0,192,0,3,3
RAW_RPM,1,0.0,243588,-0.44646498560905457,0.0542537085711956,-0.22145795822143555,-0.8652639985084534,0.006125457119196653,0.013582535088062286,-0.005859133321791887,"[0.0, 0.0, 0.0, 0.0]",-10.601698875427246,3.2133004665374756,0.0,0.00032523833215236664,-0.0004088420537300408,0.0,243624414,3,369992735,-1220636550,0,65535,65535,3,0,255,0,0,0,0,0,0,10,0,192,0,3,3
RAW_RPM,2,0.47888967394828796,243588,-0.44646498560905457,0.0542537085711956,-0.22145795822143555,-0.8652639985084534,0.006125457119196653,0.013582535088062286,-0.005859133321791887,"[0.0, 0.0, 0.0, 0.0]",-10.601698875427246,3.2133004665374756,0.0,0.00032523833215236664,-0.0004088420537300408,0.0,243624414,3,369992735,-1220636550,0,65535,65535,3,0,255,0,0,0,0,0,0,10,0,192,0,3,3
ATTITUDE_QUATERNION,2,0.47888967394828796,243639,-0.44636696577072144,0.054030533879995346,-0.22125191986560822,-0.8653814196586609,0.001864269725047052,0.015446805395185947,-0.0066581061109900475,"[0.0, 0.0, 0.0, 0.0]",-10.601698875427246,3.2133004665374756,0.0,0.00032523833215236664,-0.0004088420537300408,0.0,243624414,3,369992735,-1220636550,0,65535,65535,3,0,255,0,0,0,0,0,0,10,0,192,0,3,3
LOCAL_POSITION_NED,2,0.47888967394828796,243639,-0.44636696577072144,0.054030533879995346,-0.22125191986560822,-0.8653814196586609,0.001864269725047052,0.015446805395185947,-0.0066581061109900475,"[0.0, 0.0, 0.0, 0.0]",-10.6016845703125,3.2132835388183594,0.0,0.00025217735674232244,-0.00031707625021226704,0.0,243624414,3,369992735,-1220636550,0,65535,65535,3,0,255,0,0,0,0,0,0,10,0,192,0,3,3
RAW_RPM,0,0.0003834952076431364,243639,-0.44636696577072144,0.054030533879995346,-0.22125191986560822,-0.8653814196586609,0.001864269725047052,0.015446805395185947,-0.0066581061109900475,"[0.0, 0.0, 0.0, 0.0]",-10.6016845703125,3.2132835388183594,0.0,0.00025217735674232244,-0.00031707625021226704,0.0,243624414,3,369992735,-1220636550,0,65535,65535,3,0,255,0,0,0,0,0,0,10,0,192,0,3,3
RAW_RPM,1,-0.0011504855938255787,243639,-0.44636696577072144,0.054030533879995346,-0.22125191986560822,-0.8653814196586609,0.001864269725047052,0.015446805395185947,-0.0066581061109900475,"[0.0, 0.0, 0.0, 0.0]",-10.6016845703125,3.2132835388183594,0.0,0.00025217735674232244,-0.00031707625021226704,0.0,243624414,3,369992735,-1220636550,0,65535,65535,3,0,255,0,0,0,0,0,0,10,0,192,0,3,3
RAW_RPM,2,0.47863081097602844,243639,-0.44636696577072144,0.054030533879995346,-0.22125191986560822,-0.8653814196586609,0.001864269725047052,0.015446805395185947,-0.0066581061109900475,"[0.0, 0.0, 0.0, 0.0]",-10.6016845703125,3.2132835388183594,0.0,0.00025217735674232244,-0.00031707625021226704,0.0,243624414,3,369992735,-1220636550,0,65535,65535,3,0,255,0,0,0,0,0,0,10,0,192,0,3,3
ATTITUDE_QUATERNION,2,0.47863081097602844,243690,-0.4463808238506317,0.05419239029288292,-0.22149395942687988,-0.8653022050857544,0.007190754171460867,0.009321347810328007,-0.008522375486791134,"[0.0, 0.0, 0.0, 0.0]",-10.6016845703125,3.2132835388183594,0.0,0.00025217735674232244,-0.00031707625021226704,0.0,243624414,3,369992735,-1220636550,0,65535,65535,3,0,255,0,0,0,0,0,0,10,0,192,0,3,3
LOCAL_POSITION_NED,2,0.47863081097602844,243690,-0.4463808238506317,0.05419239029288292,-0.22149395942687988,-0.8653022050857544,0.007190754171460867,0.009321347810328007,-0.008522375486791134,"[0.0, 0.0, 0.0, 0.0]",-10.60167121887207,3.2132678031921387,0.0,0.00024683072115294635,-0.0003100779140368104,0.0,243624414,3,369992735,-1220636550,0,65535,65535,3,0,255,0,0,0,0,0,0,10,0,192,0,3,3
GPS_RAW_INT,2,0.47863081097602844,243690,-0.4463808238506317,0.05419239029288292,-0.22149395942687988,-0.8653022050857544,0.007190754171460867,0.009321347810328007,-0.008522375486791134,"[0.0, 0.0, 0.0, 0.0]",-10.60167121887207,3.2132678031921387,0.0,0.00024683072115294635,-0.0003100779140368104,0.0,243725005,3,369992735,-1220636548,0,65535,65535,4,0,255,0,0,0,0,0,0,10,0,192,0,3,3
RAW_RPM,0,-0.0007669904152862728,243690,-0.4463808238506317,0.05419239029288292,-0.22149395942687988,-0.8653022050857544,0.007190754171460867,0.009321347810328007,-0.008522375486791134,"[0.0, 0.0, 0.0, 0.0]",-10.60167121887207,3.2132678031921387,0.0,0.00024683072115294635,-0.0003100779140368104,0.0,243725005,3,369992735,-1220636548,0,65535,65535,4,0,255,0,0,0,0,0,0,10,0,192,0,3,3
RAW_RPM,1,-0.0007669904152862728,243690,-0.4463808238506317,0.05419239029288292,-0.22149395942687988,-0.8653022050857544,0.007190754171460867,0.009321347810328007,-0.008522375486791134,"[0.0, 0.0, 0.0, 0.0]",-10.60167121887207,3.2132678031921387,0.0,0.00024683072115294635,-0.0003100779140368104,0.0,243725005,3,369992735,-1220636548,0,65535,65535,4,0,255,0,0,0,0,0,0,10,0,192,0,3,3
RAW_RPM,2,0.4778542220592499,243690,-0.4463808238506317,0.05419239029288292,-0.22149395942687988,-0.8653022050857544,0.007190754171460867,0.009321347810328007,-0.008522375486791134,"[0.0, 0.0, 0.0, 0.0]",-10.60167121887207,3.2132678031921387,0.0,0.00024683072115294635,-0.0003100779140368104,0.0,243725005,3,369992735,-1220636548,0,65535,65535,4,0,255,0,0,0,0,0,0,10,0,192,0,3,3
ATTITUDE_QUATERNION,2,0.4778542220592499,243741,-0.44592347741127014,0.053629953414201736,-0.22163918614387512,-0.8655357360839844,0.0026632421649992466,0.010652968659996986,-0.005326484329998493,"[0.0, 0.0, 0.0, 0.0]",-10.60167121887207,3.2132678031921387,0.0,0.00024683072115294635,-0.0003100779140368104,0.0,243725005,3,369992735,-1220636548,0,65535,65535,4,0,255,0,0,0,0,0,0,10,0,192,0,3,3
LOCAL_POSITION_NED,2,0.4778542220592499,243741,-0.44592347741127014,0.053629953414201736,-0.22163918614387512,-0.8655357360839844,0.0026632421649992466,0.010652968659996986,-0.005326484329998493,"[0.0, 0.0, 0.0, 0.0]",-10.601658821105957,3.2132532596588135,0.0,0.00020805993699468672,-0.00026098961825482547,0.0,243725005,3,369992735,-1220636548,0,65535,65535,4,0,255,0,0,0,0,0,0,10,0,192,0,3,3
RAW_RPM,0,0.0003834952076431364,243741,-0.44592347741127014,0.053629953414201736,-0.22163918614387512,-0.8655357360839844,0.0026632421649992466,0.010652968659996986,-0.005326484329998493,"[0.0, 0.0, 0.0, 0.0]",-10.601658821105957,3.2132532596588135,0.0,0.00020805993699468672,-0.00026098961825482547,0.0,243725005,3,369992735,-1220636548,0,65535,65535,4,0,255,0,0,0,0,0,0,10,0,192,0,3,3
RAW_RPM,1,0.0003834952076431364,243741,-0.44592347741127014,0.053629953414201736,-0.22163918614387512,-0.8655357360839844,0.0026632421649992466,0.010652968659996986,-0.005326484329998493,"[0.0, 0.0, 0.0, 0.0]",-10.601658821105957,3.2132532596588135,0.0,0.00020805993699468672,-0.00026098961825482547,0.0,243725005,3,369992735,-1220636548,0,65535,65535,4,0,255,0,0,0,0,0,0,10,0,192,0,3,3
RAW_RPM,2,0.4783719480037689,243741,-0.44592347741127014,0.053629953414201736,-0.22163918614387512,-0.8655357360839844,0.0026632421649992466,0.010652968659996986,-0.005326484329998493,"[0.0, 0.0, 0.0, 0.0]",-10.601658821105957,3.2132532596588135,0.0,0.00020805993699468672,-0.00026098961825482547,0.0,243725005,3,369992735,-1220636548,0,65535,65535,4,0,255,0,0,0,0,0,0,10,0,192,0,3,3
ATTITUDE_QUATERNION,2,0.4783719480037689,243792,-0.4460541903972626,0.05365458503365517,-0.22137190401554108,-0.8655352592468262,0.003728539450094104,0.008256050758063793,-0.007190754171460867,"[0.0, 0.0, 0.0, 0.0]",-10.601658821105957,3.2132532596588135,0.0,0.00020805993699468672,-0.00026098961825482547,0.0,243725005,3,369992735,-1220636548,0,65535,65535,4,0,255,0,0,0,0,0,0,10,0,192,0,3,3
LOCAL_POSITION_NED,2,0.4783719480037689,243792,-0.4460541903972626,0.05365458503365517,-0.22137190401554108,-0.8655352592468262,0.003728539450094104,0.008256050758063793,-0.007190754171460867,"[0.0, 0.0, 0.0, 0.0]",-10.601646423339844,3.21323823928833,0.0,0.0002751212741713971,-0.0003454032994341105,0.0,243725005,3,369992735,-1220636548,0,65535,65535,4,0,255,0,0,0,0,0,0,10,0,192,0,3,3
GPS_RAW_INT,2,0.4783719480037689,243792,-0.4460541903972626,0.05365458503365517,-0.22137190401554108,-0.8655352592468262,0.003728539450094104,0.008256050758063793,-0.007190754171460867,"[0.0, 0.0, 0.0, 0.0]",-10.601646423339844,3.21323823928833,0.0,0.0002751212741713971,-0.0003454032994341105,0.0,243826002,3,369992733,-1220636550,0,65535,65535,4,0,255,0,0,0,0,0,0,10,0,192,0,3,3
RAW_RPM,0,-0.0003834952076431364,243792,-0.4460541903972626,0.05365458503365517,-0.22137190401554108,-0.8655352592468262,0.003728539450094104,0.008256050758063793,-0.007190754171460867,"[0.0, 0.0, 0.0, 0.0]",-10.601646423339844,3.21323823928833,0.0,0.0002751212741713971,-0.0003454032994341105,0.0,243826002,3,369992733,-1220636550,0,65535,65535,4,0,255,0,0,0,0,0,0,10,0,192,0,3,3
RAW_RPM,1,0.0,243792,-0.4460541903972626,0.05365458503365517,-0.22137190401554108,-0.8655352592468262,0.003728539450094104,0.008256050758063793,-0.007190754171460867,"[0.0, 0.0, 0.0, 0.0]",-10.601646423339844,3.21323823928833,0.0,0.0002751212741713971,-0.0003454032994341105,0.0,243826002,3,369992733,-1220636550,0,65535,65535,4,0,255,0,0,0,0,0,0,10,0,192,0,3,3
RAW_RPM,2,0.4781130850315094,243792,-0.4460541903972626,0.05365458503365517,-0.22137190401554108,-0.8655352592468262,0.003728539450094104,0.008256050758063793,-0.007190754171460867,"[0.0, 0.0, 0.0, 0.0]",-10.601646423339844,3.21323823928833,0.0,0.0002751212741713971,-0.0003454032994341105,0.0,243826002,3,369992733,-1220636550,0,65535,65535,4,0,255,0,0,0,0,0,0,10,0,192,0,3,3
ATTITUDE_QUATERNION,2,0.4781130850315094,243843,-0.4463810622692108,0.05408596992492676,-0.22119635343551636,-0.8653848767280579,0.002396918134763837,0.009853996336460114,-0.004793836269527674,"[0.0, 0.0, 0.0, 0.0]",-10.601646423339844,3.21323823928833,0.0,0.0002751212741713971,-0.0003454032994341105,0.0,243826002,3,369992733,-1220636550,0,65535,65535,4,0,255,0,0,0,0,0,0,10,0,192,0,3,3
LOCAL_POSITION_NED,2,0.4781130850315094,243843,-0.4463810622692108,0.05408596992492676,-0.22119635343551636,-0.8653848767280579,0.002396918134763837,0.009853996336460114,-0.004793836269527674,"[0.0, 0.0, 0.0, 0.0]",-10.601635932922363,3.213224411010742,0.0,0.00023577612591907382,-0.00029633514350280166,0.0,243826002,3,369992733,-1220636550,0,65535,65535,4,0,255,0,0,0,0,0,0,10,0,192,0,3,3
RAW_RPM,0,0.0011504855938255787,243843,-0.4463810622692108,0.05408596992492676,-0.22119635343551636,-0.8653848767280579,0.002396918134763837,0.009853996336460114,-0.004793836269527674,"[0.0, 0.0, 0.0, 0.0]",-10.601635932922363,3.213224411010742,0.0,0.00023577612591907382,-0.00029633514350280166,0.0,243826002,3,369992733,-1220636550,0,65535,65535,4,0,255,0,0,0,0,0,0,10,0,192,0,3,3
RAW_RPM,1,0.0007669904152862728,243843,-0.4463810622692108,0.05408596992492676,-0.22119635343551636,-0.8653848767280579,0.002396918134763837,0.009853996336460114,-0.004793836269527674,"[0.0, 0.0, 0.0, 0.0]",-10.601635932922363,3.213224411010742,0.0,0.00023577612591907382,-0.00029633514350280166,0.0,243826002,3,369992733,-1220636550,0,65535,65535,4,0,255,0,0,0,0,0,0,10,0,192,0,3,3
RAW_RPM,2,0.4781130850315094,243843,-0.4463810622692108,0.05408596992492676,-0.22119635343551636,-0.8653848767280579,0.002396918134763837,0.009853996336460114,-0.004793836269527674,"[0.0, 0.0, 0.0, 0.0]",-10.601635932922363,3.213224411010742,0.0,0.00023577612591907382,-0.00029633514350280166,0.0,243826002,3,369992733,-1220636550,0,65535,65535,4,0,255,0,0,0,0,0,0,10,0,192,0,3,3
ATTITUDE_QUATERNION,2,0.4781130850315094,243894,-0.4463541507720947,0.05418509244918823,-0.22140561044216156,-0.8653390407562256,0.0029295666608959436,0.012783563695847988,-0.004793836269527674,"[0.0, 0.0, 0.0, 0.0]",-10.601635932922363,3.213224411010742,0.0,0.00023577612591907382,-0.00029633514350280166,0.0,243826002,3,369992733,-1220636550,0,65535,65535,4,0,255,0,0,0,0,0,0,10,0,192,0,3,3
LOCAL_POSITION_NED,2,0.4781130850315094,243895,-0.4463541507720947,0.05418509244918823,-0.22140561044216156,-0.8653390407562256,0.0029295666608959436,0.012783563695847988,-0.004793836269527674,"[0.0, 0.0, 0.0, 0.0]",-10.601619720458984,3.213205099105835,0.0,0.00015718427312094718,-0.00019755659741349518,0.0,243826002,3,369992733,-1220636550,0,65535,65535,4,0,255,0,0,0,0,0,0,10,0,192,0,3,3
GPS_RAW_INT,2,0.4781130850315094,243895,-0.4463541507720947,0.05418509244918823,-0.22140561044216156,-0.8653390407562256,0.0029295666608959436,0.012783563695847988,-0.004793836269527674,"[0.0, 0.0, 0.0, 0.0]",-10.601619720458984,3.213205099105835,0.0,0.00015718427312094718,-0.00019755659741349518,0.0,243927003,3,369992733,-1220636550,0,65535,65535,2,0,255,0,0,0,0,0,0,10,0,192,0,3,3
RAW_RPM,0,-0.0003834952076431364,243895,-0.4463541507720947,0.05418509244918823,-0.22140561044216156,-0.8653390407562256,0.0029295666608959436,0.012783563695847988,-0.004793836269527674,"[0.0, 0.0, 0.0, 0.0]",-10.601619720458984,3.213205099105835,0.0,0.00015718427312094718,-0.00019755659741349518,0.0,243927003,3,369992733,-1220636550,0,65535,65535,2,0,255,0,0,0,0,0,0,10,0,192,0,3,3
RAW_RPM,1,0.0007669904152862728,243895,-0.4463541507720947,0.05418509244918823,-0.22140561044216156,-0.8653390407562256,0.0029295666608959436,0.012783563695847988,-0.004793836269527674,"[0.0, 0.0, 0.0, 0.0]",-10.601619720458984,3.213205099105835,0.0,0.00015718427312094718,-0.00019755659741349518,0.0,243927003,3,369992733,-1220636550,0,65535,65535,2,0,255,0,0,0,0,0,0,10,0,192,0,3,3
RAW_RPM,2,0.4783719480037689,243895,-0.4463541507720947,0.05418509244918823,-0.22140561044216156,-0.8653390407562256,0.0029295666608959436,0.012783563695847988,-0.004793836269527674,"[0.0, 0.0, 0.0, 0.0]",-10.601619720458984,3.213205099105835,0.0,0.00015718427312094718,-0.00019755659741349518,0.0,243927003,3,369992733,-1220636550,0,65535,65535,2,0,255,0,0,0,0,0,0,10,0,192,0,3,3
ATTITUDE_QUATERNION,2,0.4783719480037689,243945,-0.4465491771697998,0.054527562111616135,-0.2214382290840149,-0.8652085065841675,0.002396918134763837,0.012250914238393307,-0.003195890923961997,"[0.0, 0.0, 0.0, 0.0]",-10.601619720458984,3.213205099105835,0.0,0.00015718427312094718,-0.00019755659741349518,0.0,243927003,3,369992733,-1220636550,0,65535,65535,2,0,255,0,0,0,0,0,0,10,0,192,0,3,3
LOCAL_POSITION_NED,2,0.4783719480037689,243945,-0.4465491771697998,0.054527562111616135,-0.2214382290840149,-0.8652085065841675,0.002396918134763837,0.012250914238393307,-0.003195890923961997,"[0.0, 0.0, 0.0, 0.0]",-10.601605415344238,3.2131881713867188,0.0,0.0002861174289137125,-0.0003596870810724795,0.0,243927003,3,369992733,-1220636550,0,65535,65535,2,0,255,0,0,0,0,0,0,10,0,192,0,3,3
RAW_RPM,0,0.0,243945,-0.4465491771697998,0.054527562111616135,-0.2214382290840149,-0.8652085065841675,0.002396918134763837,0.012250914238393307,-0.003195890923961997,"[0.0, 0.0, 0.0, 0.0]",-10.601605415344238,3.2131881713867188,0.0,0.0002861174289137125,-0.0003596870810724795,0.0,243927003,3,369992733,-1220636550,0,65535,65535,2,0,255,0,0,0,0,0,0,10,0,192,0,3,3
RAW_RPM,1,0.0,243945,-0.4465491771697998,0.054527562111616135,-0.2214382290840149,-0.8652085065841675,0.002396918134763837,0.012250914238393307,-0.003195890923961997,"[0.0, 0.0, 0.0, 0.0]",-10.601605415344238,3.2131881713867188,0.0,0.0002861174289137125,-0.0003596870810724795,0.0,243927003,3,369992733,-1220636550,0,65535,65535,2,0,255,0,0,0,0,0,0,10,0,192,0,3,3
RAW_RPM,2,0.4781130850315094,243945,-0.4465491771697998,0.054527562111616135,-0.2214382290840149,-0.8652085065841675,0.002396918134763837,0.012250914238393307,-0.003195890923961997,"[0.0, 0.0, 0.0, 0.0]",-10.601605415344238,3.2131881713867188,0.0,0.0002861174289137125,-0.0003596870810724795,0.0,243927003,3,369992733,-1220636550,0,65535,65535,2,0,255,0,0,0,0,0,0,10,0,192,0,3,3
ATTITUDE_QUATERNION,2,0.4781130850315094,243996,-0.44671109318733215,0.05475958064198494,-0.22154109179973602,-0.8650838732719421,-0.0005326484679244459,0.013316212221980095,-0.00452751200646162,"[0.0, 0.0, 0.0, 0.0]",-10.601605415344238,3.2131881713867188,0.0,0.0002861174289137125,-0.0003596870810724795,0.0,243927003,3,369992733,-1220636550,0,65535,65535,2,0,255,0,0,0,0,0,0,10,0,192,0,3,3
LOCAL_POSITION_NED,2,0.4781130850315094,243996,-0.44671109318733215,0.05475958064198494,-0.22154109179973602,-0.8650838732719421,-0.0005326484679244459,0.013316212221980095,-0.00452751200646162,"[0.0, 0.0, 0.0, 0.0]",-10.601590156555176,3.2131690979003906,0.0,0.0003702118410728872,-0.00046590284910053015,0.0,243927003,3,369992733,-1220636550,0,65535,65535,2,0,255,0,0,0,0,0,0,10,0,192,0,3,3
HEARTBEAT,2,0.4781130850315094,243996,-0.44671109318733215,0.05475958064198494,-0.22154109179973602,-0.8650838732719421,-0.0005326484679244459,0.013316212221980095,-0.00452751200646162,"[0.0, 0.0, 0.0, 0.0]",-10.601590156555176,3.2131690979003906,0.0,0.0003702118410728872,-0.00046590284910053015,0.0,243927003,3,369992733,-1220636550,0,65535,65535,2,0,255,0,0,0,0,0,0,10,0,192,0,3,3
GPS_RAW_INT,2,0.4781130850315094,243996,-0.44671109318733215,0.05475958064198494,-0.22154109179973602,-0.8650838732719421,-0.0005326484679244459,0.013316212221980095,-0.00452751200646162,"[0.0, 0.0, 0.0, 0.0]",-10.601590156555176,3.2131690979003906,0.0,0.0003702118410728872,-0.00046590284910053015,0.0,244028006,3,369992735,-1220636550,0,65535,65535,3,0,255,0,0,0,0,0,0,10,0,192,0,3,3
RAW_RPM,0,-0.0003834952076431364,243996,-0.44671109318733215,0.05475958064198494,-0.22154109179973602,-0.8650838732719421,-0.0005326484679244459,0.013316212221980095,-0.00452751200646162,"[0.0, 0.0, 0.0, 0.0]",-10.601590156555176,3.2131690979003906,0.0,0.0003702118410728872,-0.00046590284910053015,0.0,244028006,3,369992735,-1220636550,0,65535,65535,3,0,255,0,0,0,0,0,0,10,0,192,0,3,3
RAW_RPM,1,0.0,243996,-0.44671109318733215,0.05475958064198494,-0.22154109179973602,-0.8650838732719421,-0.0005326484679244459,0.013316212221980095,-0.00452751200646162,"[0.0, 0.0, 0.0, 0.0]",-10.601590156555176,3.2131690979003906,0.0,0.0003702118410728872,-0.00046590284910053015,0.0,244028006,3,369992735,-1220636550,0,65535,65535,3,0,255,0,0,0,0,0,0,10,0,192,0,3,3
RAW_RPM,2,0.4783719480037689,243996,-0.44671109318733215,0.05475958064198494,-0.22154109179973602,-0.8650838732719421,-0.0005326484679244459,0.013316212221980095,-0.00452751200646162,"[0.0, 0.0, 0.0, 0.0]",-10.601590156555176,3.2131690979003906,0.0,0.0003702118410728872,-0.00046590284910053015,0.0,244028006,3,369992735,-1220636550,0,65535,65535,3,0,255,0,0,0,0,0,0,10,0,192,0,3,3
ATTITUDE_QUATERNION,2,0.4783719480037689,244047,-0.44685396552085876,0.05443425476551056,-0.22036267817020416,-0.8653315901756287,0.004793836269527674,0.009853996336460114,-0.004261187743395567,"[0.0, 0.0, 0.0, 0.0]",-10.601590156555176,3.2131690979003906,0.0,0.0003702118410728872,-0.00046590284910053015,0.0,244028006,3,369992735,-1220636550,0,65535,65535,3,0,255,0,0,0,0,0,0,10,0,192,0,3,3
LOCAL_POSITION_NED,2,0.4783719480037689,244047,-0.44685396552085876,0.05443425476551056,-0.22036267817020416,-0.8653315901756287,0.004793836269527674,0.009853996336460114,-0.004261187743395567,"[0.0, 0.0, 0.0, 0.0]",-10.601574897766113,3.213148832321167,0.0,0.0003250615845900029,-0.0004093156894668937,0.0,244028006,3,369992735,-1220636550,0,65535,65535,3,0,255,0,0,0,0,0,0,10,0,192,0,3,3
RAW_RPM,0,0.0003834952076431364,244047,-0.44685396552085876,0.05443425476551056,-0.22036267817020416,-0.8653315901756287,0.004793836269527674,0.009853996336460114,-0.004261187743395567,"[0.0, 0.0, 0.0, 0.0]",-10.601574897766113,3.213148832321167,0.0,0.0003250615845900029,-0.0004093156894668937,0.0,244028006,3,369992735,-1220636550,0,65535,65535,3,0,255,0,0,0,0,0,0,10,0,192,0,3,3
RAW_RPM,1,-0.0003834952076431364,244047,-0.44685396552085876,0.05443425476551056,-0.22036267817020416,-0.8653315901756287,0.004793836269527674,0.009853996336460114,-0.004261187743395567,"[0.0, 0.0, 0.0, 0.0]",-10.601574897766113,3.213148832321167,0.0,0.0003250615845900029,-0.0004093156894668937,0.0,244028006,3,369992735,-1220636550,0,65535,65535,3,0,255,0,0,0,0,0,0,10,0,192,0,3,3
RAW_RPM,2,0.4783719480037689,244047,-0.44685396552085876,0.05443425476551056,-0.22036267817020416,-0.8653315901756287,0.004793836269527674,0.009853996336460114,-0.004261187743395567,"[0.0, 0.0, 0.0, 0.0]",-10.601574897766113,3.213148832321167,0.0,0.0003250615845900029,-0.0004093156894668937,0.0,244028006,3,369992735,-1220636550,0,65535,65535,3,0,255,0,0,0,0,0,0,10,0,192,0,3,3
ATTITUDE_QUATERNION,2,0.4783719480037689,244098,-0.4467826187610626,0.05457627773284912,-0.22096523642539978,-0.8652058243751526,0.002396918134763837,0.013316212221980095,-0.007989726960659027,"[0.0, 0.0, 0.0, 0.0]",-10.601574897766113,3.213148832321167,0.0,0.0003250615845900029,-0.0004093156894668937,0.0,244028006,3,369992735,-1220636550,0,65535,65535,3,0,255,0,0,0,0,0,0,10,0,192,0,3,3
LOCAL_POSITION_NED,2,0.4783719480037689,244098,-0.4467826187610626,0.05457627773284912,-0.22096523642539978,-0.8652058243751526,0.002396918134763837,0.013316212221980095,-0.007989726960659027,"[0.0, 0.0, 0.0, 0.0]",-10.601555824279785,3.2131261825561523,0.0,0.0003362855641171336,-0.00042341818334534764,0.0,244028006,3,369992735,-1220636550,0,65535,65535,3,0,255,0,0,0,0,0,0,10,0,192,0,3,3
GPS_RAW_INT,2,0.4783719480037689,244098,-0.4467826187610626,0.05457627773284912,-0.22096523642539978,-0.8652058243751526,0.002396918134763837,0.013316212221980095,-0.007989726960659027,"[0.0, 0.0, 0.0, 0.0]",-10.601555824279785,3.2131261825561523,0.0,0.0003362855641171336,-0.00042341818334534764,0.0,244129003,3,369992735,-1220636550,0,65535,65535,1,0,255,0,0,0,0,0,0,10,0,192,0,3,3
RAW_RPM,0,-0.0011504855938255787,244098,-0.4467826187610626,0.05457627773284912,-0.22096523642539978,-0.8652058243751526,0.002396918134763837,0.013316212221980095,-0.007989726960659027,"[0.0, 0.0, 0.0, 0.0]",-10.601555824279785,3.2131261825561523,0.0,0.0003362855641171336,-0.00042341818334534764,0.0,244129003,3,369992735,-1220636550,0,65535,65535,1,0,255,0,0,0,0,0,0,10,0,192,0,3,3
RAW_RPM,1,0.0007669904152862728,244098,-0.4467826187610626,0.05457627773284912,-0.22096523642539978,-0.8652058243751526,0.002396918134763837,0.013316212221980095,-0.007989726960659027,"[0.0, 0.0, 0.0, 0.0]",-10.601555824279785,3.2131261825561523,0.0,0.0003362855641171336,-0.00042341818334534764,0.0,244129003,3,369992735,-1220636550,0,65535,65535,1,0,255,0,0,0,0,0,0,10,0,192,0,3,3
RAW_RPM,2,0.4781130850315094,244098,-0.4467826187610626,0.05457627773284912,-0.22096523642539978,-0.8652058243751526,0.002396918134763837,0.013316212221980095,-0.007989726960659027,"[0.0, 0.0, 0.0, 0.0]",-10.601555824279785,3.2131261825561523,0.0,0.0003362855641171336,-0.00042341818334534764,0.0,244129003,3,369992735,-1220636550,0,65535,65535,1,0,255,0,0,0,0,0,0,10,0,192,0,3,3
ATTITUDE_QUATERNION,2,0.4781130850315094,244149,-0.4470042288303375,0.05474523454904556,-0.22083213925361633,-0.865114688873291,0.0039948634803295135,0.015979453921318054,-0.0005326484679244459,"[0.0, 0.0, 0.0, 0.0]",-10.601555824279785,3.2131261825561523,0.0,0.0003362855641171336,-0.00042341818334534764,0.0,244129003,3,369992735,-1220636550,0,65535,65535,1,0,255,0,0,0,0,0,0,10,0,192,0,3,3
LOCAL_POSITION_NED,2,0.4781130850315094,244149,-0.4470042288303375,0.05474523454904556,-0.22083213925361633,-0.865114688873291,0.0039948634803295135,0.015979453921318054,-0.0005326484679244459,"[0.0, 0.0, 0.0, 0.0]",-10.601539611816406,3.213104724884033,0.0,0.0003138276224490255,-0.00039554297109134495,0.0,244129003,3,369992735,-1220636550,0,65535,65535,1,0,255,0,0,0,0,0,0,10,0,192,0,3,3
RAW_RPM,0,0.0,244149,-0.4470042288303375,0.05474523454904556,-0.22083213925361633,-0.865114688873291,0.0039948634803295135,0.015979453921318054,-0.0005326484679244459,"[0.0, 0.0, 0.0, 0.0]",-10.601539611816406,3.213104724884033,0.0,0.0003138276224490255,-0.00039554297109134495,0.0,244129003,3,369992735,-1220636550,0,65535,65535,1,0,255,0,0,0,0,0,0,10,0,192,0,3,3
RAW_RPM,1,0.0003834952076431364,244149,-0.4470042288303375,0.05474523454904556,-0.22083213925361633,-0.865114688873291,0.0039948634803295135,0.015979453921318054,-0.0005326484679244459,"[0.0, 0.0, 0.0, 0.0]",-10.601539611816406,3.213104724884033,0.0,0.0003138276224490255,-0.00039554297109134495,0.0,244129003,3,369992735,-1220636550,0,65535,65535,1,0,255,0,0,0,0,0,0,10,0,192,0,3,3
RAW_RPM,2,0.47888967394828796,244149,-0.4470042288303375,0.05474523454904556,-0.22083213925361633,-0.865114688873291,0.0039948634803295135,0.015979453921318054,-0.0005326484679244459,"[0.0, 0.0, 0.0, 0.0]",-10.601539611816406,3.213104724884033,0.0,0.0003138276224490255,-0.00039554297109134495,0.0,244129003,3,369992735,-1220636550,0,65535,65535,1,0,255,0,0,0,0,0,0,10,0,192,0,3,3
ATTITUDE_QUATERNION,2,0.47888967394828796,244200,-0.44653820991516113,0.05437377840280533,-0.22143451869487762,-0.8652248382568359,0.003195890923961997,0.012783563695847988,-0.006391781847923994,"[0.0, 0.0, 0.0, 0.0]",-10.601539611816406,3.213104724884033,0.0,0.0003138276224490255,-0.00039554297109134495,0.0,244129003,3,369992735,-1220636550,0,65535,65535,1,0,255,0,0,0,0,0,0,10,0,192,0,3,3
LOCAL_POSITION_NED,2,0.47888967394828796,244200,-0.44653820991516113,0.05437377840280533,-0.22143451869487762,-0.8652248382568359,0.003195890923961997,0.012783563695847988,-0.006391781847923994,"[0.0, 0.0, 0.0, 0.0]",-10.601521492004395,3.2130825519561768,0.0,0.0003306129074189812,-0.00041573779890313745,0.0,244129003,3,369992735,-1220636550,0,65535,65535,1,0,255,0,0,0,0,0,0,10,0,192,0,3,3
GPS_RAW_INT,2,0.47888967394828796,244200,-0.44653820991516113,0.05437377840280533,-0.22143451869487762,-0.8652248382568359,0.003195890923961997,0.012783563695847988,-0.006391781847923994,"[0.0, 0.0, 0.0, 0.0]",-10.601521492004395,3.2130825519561768,0.0,0.0003306129074189812,-0.00041573779890313745,0.0,244230005,3,369992733,-1220636550,0,65535,65535,1,0,255,0,0,0,0,0,0,10,0,192,0,3,3
RAW_RPM,0,-0.0007669904152862728,244200,-0.44653820991516113,0.05437377840280533,-0.22143451869487762,-0.8652248382568359,0.003195890923961997,0.012783563695847988,-0.006391781847923994,"[0.0, 0.0, 0.0, 0.0]",-10.601521492004395,3.2130825519561768,0.0,0.0003306129074189812,-0.00041573779890313745,0.0,244230005,3,369992733,-1220636550,0,65535,65535,1,0,255,0,0,0,0,0,0,10,0,192,0,3,3
RAW_RPM,1,-0.0003834952076431364,244200,-0.44653820991516113,0.05437377840280533,-0.22143451869487762,-0.8652248382568359,0.003195890923961997,0.012783563695847988,-0.006391781847923994,"[0.0, 0.0, 0.0, 0.0]",-10.601521492004395,3.2130825519561768,0.0,0.0003306129074189812,-0.00041573779890313745,0.0,244230005,3,369992733,-1220636550,0,65535,65535,1,0,255,0,0,0,0,0,0,10,0,192,0,3,3
RAW_RPM,2,0.47863081097602844,244200,-0.44653820991516113,0.05437377840280533,-0.22143451869487762,-0.8652248382568359,0.003195890923961997,0.012783563695847988,-0.006391781847923994,"[0.0, 0.0, 0.0, 0.0]",-10.601521492004395,3.2130825519561768,0.0,0.0003306129074189812,-0.00041573779890313745,0.0,244230005,3,369992733,-1220636550,0,65535,65535,1,0,255,0,0,0,0,0,0,10,0,192,0,3,3
ATTITUDE_QUATERNION,2,0.47863081097602844,244251,-0.4465682804584503,0.05445604771375656,-0.22129754722118378,-0.8652392029762268,0.0,0.010919293388724327,-0.005859133321791887,"[0.0, 0.0, 0.0, 0.0]",-10.601521492004395,3.2130825519561768,0.0,0.0003306129074189812,-0.00041573779890313745,0.0,244230005,3,369992733,-1220636550,0,65535,65535,1,0,255,0,0,0,0,0,0,10,0,192,0,3,3
LOCAL_POSITION_NED,2,0.47863081097602844,244251,-0.4465682804584503,0.05445604771375656,-0.22129754722118378,-0.8652392029762268,0.0,0.010919293388724327,-0.005859133321791887,"[0.0, 0.0, 0.0, 0.0]",-10.601506233215332,3.213061571121216,0.0,0.0003139651380479336,-0.0003947902878280729,0.0,244230005,3,369992733,-1220636550,0,65535,65535,1,0,255,0,0,0,0,0,0,10,0,192,0,3,3
RAW_RPM,0,0.0007669904152862728,244251,-0.4465682804584503,0.05445604771375656,-0.22129754722118378,-0.8652392029762268,0.0,0.010919293388724327,-0.005859133321791887,"[0.0, 0.0, 0.0, 0.0]",-10.601506233215332,3.213061571121216,0.0,0.0003139651380479336,-0.0003947902878280729,0.0,244230005,3,369992733,-1220636550,0,65535,65535,1,0,255,0,0,0,0,0,0,10,0,192,0,3,3
RAW_RPM,1,0.0003834952076431364,244251,-0.4465682804584503,0.05445604771375656,-0.22129754722118378,-0.8652392029762268,0.0,0.010919293388724327,-0.005859133321791887,"[0.0, 0.0, 0.0, 0.0]",-10.601506233215332,3.213061571121216,0.0,0.0003139651380479336,-0.0003947902878280729,0.0,244230005,3,369992733,-1220636550,0,65535,65535,1,0,255,0,0,0,0,0,0,10,0,192,0,3,3
RAW_RPM,2,0.47863081097602844,244251,-0.4465682804584503,0.05445604771375656,-0.22129754722118378,-0.8652392029762268,0.0,0.010919293388724327,-0.005859133321791887,"[0.0, 0.0, 0.0, 0.0]",-10.601506233215332,3.213061571121216,0.0,0.0003139651380479336,-0.0003947902878280729,0.0,244230005,3,369992733,-1220636550,0,65535,65535,1,0,255,0,0,0,0,0,0,10,0,192,0,3,3
ATTITUDE_QUATERNION,2,0.47863081097602844,244302,-0.44637933373451233,0.05432189255952835,-0.22134199738502502,-0.865333616733551,0.005326484329998493,0.010652968659996986,-0.004793836269527674,"[0.0, 0.0, 0.0, 0.0]",-10.601506233215332,3.213061571121216,0.0,0.0003139651380479336,-0.0003947902878280729,0.0,244230005,3,369992733,-1220636550,0,65535,65535,1,0,255,0,0,0,0,0,0,10,0,192,0,3,3
LOCAL_POSITION_NED,2,0.47863081097602844,244302,-0.44637933373451233,0.05432189255952835,-0.22134199738502502,-0.865333616733551,0.005326484329998493,0.010652968659996986,-0.004793836269527674,"[0.0, 0.0, 0.0, 0.0]",-10.601489067077637,3.2130398750305176,0.0,0.0003251497109886259,-0.000408912543207407,0.0,244230005,3,369992733,-1220636550,0,65535,65535,1,0,255,0,0,0,0,0,0,10,0,192,0,3,3
GPS_RAW_INT,2,0.47863081097602844,244302,-0.44637933373451233,0.05432189255952835,-0.22134199738502502,-0.865333616733551,0.005326484329998493,0.010652968659996986,-0.004793836269527674,"[0.0, 0.0, 0.0, 0.0]",-10.601489067077637,3.2130398750305176,0.0,0.0003251497109886259,-0.000408912543207407,0.0,244331004,3,369992735,-1220636550,0,65535,65535,1,0,255,0,0,0,0,0,0,10,0,192,0,3,3
RAW_RPM,0,0.0007669904152862728,244302,-0.44637933373451233,0.05432189255952835,-0.22134199738502502,-0.865333616733551,0.005326484329998493,0.010652968659996986,-0.004793836269527674,"[0.0, 0.0, 0.0, 0.0]",-10.601489067077637,3.2130398750305176,0.0,0.0003251497109886259,-0.000408912543207407,0.0,244331004,3,369992735,-1220636550,0,65535,65535,1,0,255,0,0,0,0,0,0,10,0,192,0,3,3
RAW_RPM,1,0.0003834952076431364,244302,-0.44637933373451233,0.05432189255952835,-0.22134199738502502,-0.865333616733551,0.005326484329998493,0.010652968659996986,-0.004793836269527674,"[0.0, 0.0, 0.0, 0.0]",-10.601489067077637,3.2130398750305176,0.0,0.0003251497109886259,-0.000408912543207407,0.0,244331004,3,369992735,-1220636550,0,65535,65535,1,0,255,0,0,0,0,0,0,10,0,192,0,3,3
RAW_RPM,2,0.4791485369205475,244302,-0.44637933373451233,0.05432189255952835,-0.22134199738502502,-0.865333616733551,0.005326484329998493,0.010652968659996986,-0.004793836269527674,"[0.0, 0.0, 0.0, 0.0]",-10.601489067077637,3.2130398750305176,0.0,0.0003251497109886259,-0.000408912543207407,0.0,244331004,3,369992735,-1220636550,0,65535,65535,1,0,255,0,0,0,0,0,0,10,0,192,0,3,3
ATTITUDE_QUATERNION,2,0.4791485369205475,244353,-0.446261465549469,0.054176297038793564,-0.22156134247779846,-0.8653474450111389,0.0010652969358488917,0.008788700215518475,-0.003728539450094104,"[0.0, 0.0, 0.0, 0.0]",-10.601489067077637,3.2130398750305176,0.0,0.0003251497109886259,-0.000408912543207407,0.0,244331004,3,369992735,-1220636550,0,65535,65535,1,0,255,0,0,0,0,0,0,10,0,192,0,3,3
LOCAL_POSITION_NED,2,0.4791485369205475,244353,-0.446261465549469,0.054176297038793564,-0.22156134247779846,-0.8653474450111389,0.0010652969358488917,0.008788700215518475,-0.003728539450094104,"[0.0, 0.0, 0.0, 0.0]",-10.601469993591309,3.213017225265503,0.0,0.0003698167856782675,-0.00046470126835629344,0.0,244331004,3,369992735,-1220636550,0,65535,65535,1,0,255,0,0,0,0,0,0,10,0,192,0,3,3
RAW_RPM,0,-0.0007669904152862728,244353,-0.446261465549469,0.054176297038793564,-0.22156134247779846,-0.8653474450111389,0.0010652969358488917,0.008788700215518475,-0.003728539450094104,"[0.0, 0.0, 0.0, 0.0]",-10.601469993591309,3.213017225265503,0.0,0.0003698167856782675,-0.00046470126835629344,0.0,244331004,3,369992735,-1220636550,0,65535,65535,1,0,255,0,0,0,0,0,0,10,0,192,0,3,3
RAW_RPM,1,0.0007669904152862728,244353,-0.446261465549469,0.054176297038793564,-0.22156134247779846,-0.8653474450111389,0.0010652969358488917,0.008788700215518475,-0.003728539450094104,"[0.0, 0.0, 0.0, 0.0]",-10.601469993591309,3.213017225265503,0.0,0.0003698167856782675,-0.00046470126835629344,0.0,244331004,3,369992735,-1220636550,0,65535,65535,1,0,255,0,0,0,0,0,0,10,0,192,0,3,3
RAW_RPM,2,0.4781130850315094,244353,-0.446261465549469,0.054176297038793564,-0.22156134247779846,-0.8653474450111389,0.0010652969358488917,0.008788700215518475,-0.003728539450094104,"[0.0, 0.0, 0.0, 0.0]",-10.601469993591309,3.213017225265503,0.0,0.0003698167856782675,-0.00046470126835629344,0.0,244331004,3,369992735,-1220636550,0,65535,65535,1,0,255,0,0,0,0,0,0,10,0,192,0,3,3
ATTITUDE_QUATERNION,2,0.4781130850315094,244404,-0.4458899199962616,0.05386469140648842,-0.22176401317119598,-0.8655065894126892,0.003195890923961997,0.008788700215518475,-0.005060160532593727,"[0.0, 0.0, 0.0, 0.0]",-10.601469993591309,3.213017225265503,0.0,0.0003698167856782675,-0.00046470126835629344,0.0,244331004,3,369992735,-1220636550,0,65535,65535,1,0,255,0,0,0,0,0,0,10,0,192,0,3,3
LOCAL_POSITION_NED,2,0.4781130850315094,244405,-0.4458899199962616,0.05386469140648842,-0.22176401317119598,-0.8655065894126892,0.003195890923961997,0.008788700215518475,-0.005060160532593727,"[0.0, 0.0, 0.0, 0.0]",-10.601449966430664,3.212991952896118,0.0,0.0003430331707932055,-0.00042991628288291395,0.0,244331004,3,369992735,-1220636550,0,65535,65535,1,0,255,0,0,0,0,0,0,10,0,192,0,3,3
GPS_RAW_INT,2,0.4781130850315094,244405,-0.4458899199962616,0.05386469140648842,-0.22176401317119598,-0.8655065894126892,0.003195890923961997,0.008788700215518475,-0.005060160532593727,"[0.0, 0.0, 0.0, 0.0]",-10.601449966430664,3.212991952896118,0.0,0.0003430331707932055,-0.00042991628288291395,0.0,244432004,3,369992735,-1220636550,0,65535,65535,4,0,255,0,0,0,0,0,0,10,0,192,0,3,3
RAW_RPM,0,-0.0003834952076431364,244405,-0.4458899199962616,0.05386469140648842,-0.22176401317119598,-0.8655065894126892,0.003195890923961997,0.008788700215518475,-0.005060160532593727,"[0.0, 0.0, 0.0, 0.0]",-10.601449966430664,3.212991952896118,0.0,0.0003430331707932055,-0.00042991628288291395,0.0,244432004,3,369992735,-1220636550,0,65535,65535,4,0,255,0,0,0,0,0,0,10,0,192,0,3,3
RAW_RPM,1,0.0,244405,-0.4458899199962616,0.05386469140648842,-0.22176401317119598,-0.8655065894126892,0.003195890923961997,0.008788700215518475,-0.005060160532593727,"[0.0, 0.0, 0.0, 0.0]",-10.601449966430664,3.212991952896118,0.0,0.0003430331707932055,-0.00042991628288291395,0.0,244432004,3,369992735,-1220636550,0,65535,65535,4,0,255,0,0,0,0,0,0,10,0,192,0,3,3
RAW_RPM,2,0.47863081097602844,244405,-0.4458899199962616,0.05386469140648842,-0.22176401317119598,-0.8655065894126892,0.003195890923961997,0.008788700215518475,-0.005060160532593727,"[0.0, 0.0, 0.0, 0.0]",-10.601449966430664,3.212991952896118,0.0,0.0003430331707932055,-0.00042991628288291395,0.0,244432004,3,369992735,-1220636550,0,65535,65535,4,0,255,0,0,0,0,0,0,10,0,192,0,3,3
ATTITUDE_QUATERNION,2,0.47863081097602844,244455,-0.4456625282764435,0.05359293892979622,-0.22157219052314758,-0.8656896352767944,-0.0007989727309904993,0.009853996336460114,-0.007190754171460867,"[0.0, 0.0, 0.0, 0.0]",-10.601449966430664,3.212991952896118,0.0,0.0003430331707932055,-0.00042991628288291395,0.0,244432004,3,369992735,-1220636550,0,65535,65535,4,0,255,0,0,0,0,0,0,10,0,192,0,3,3
LOCAL_POSITION_NED,2,0.47863081097602844,244455,-0.4456625282764435,0.05359293892979622,-0.22157219052314758,-0.8656896352767944,-0.0007989727309904993,0.009853996336460114,-0.007190754171460867,"[0.0, 0.0, 0.0, 0.0]",-10.601431846618652,3.2129695415496826,0.0,0.000286675087409094,-0.00035894932807423174,0.0,244432004,3,369992735,-1220636550,0,65535,65535,4,0,255,0,0,0,0,0,0,10,0,192,0,3,3
RAW_RPM,0,-0.0003834952076431364,244455,-0.4456625282764435,0.05359293892979622,-0.22157219052314758,-0.8656896352767944,-0.0007989727309904993,0.009853996336460114,-0.007190754171460867,"[0.0, 0.0, 0.0, 0.0]",-10.601431846618652,3.2129695415496826,0.0,0.000286675087409094,-0.00035894932807423174,0.0,244432004,3,369992735,-1220636550,0,65535,65535,4,0,255,0,0,0,0,0,0,10,0,192,0,3,3
RAW_RPM,1,0.0003834952076431364,244455,-0.4456625282764435,0.05359293892979622,-0.22157219052314758,-0.8656896352767944,-0.0007989727309904993,0.009853996336460114,-0.007190754171460867,"[0.0, 0.0, 0.0, 0.0]",-10.601431846618652,3.2129695415496826,0.0,0.000286675087409094,-0.00035894932807423174,0.0,244432004,3,369992735,-1220636550,0,65535,65535,4,0,255,0,0,0,0,0,0,10,0,192,0,3,3
RAW_RPM,2,0.47863081097602844,244455,-0.4456625282764435,0.05359293892979622,-0.22157219052314758,-0.8656896352767944,-0.0007989727309904993,0.009853996336460114,-0.007190754171460867,"[0.0, 0.0, 0.0, 0.0]",-10.601431846618652,3.2129695415496826,0.0,0.000286675087409094,-0.00035894932807423174,0.0,244432004,3,369992735,-1220636550,0,65535,65535,4,0,255,0,0,0,0,0,0,10,0,192,0,3,3
ATTITUDE_QUATERNION,2,0.47863081097602844,244506,-0.4456327557563782,0.05365266650915146,-0.22147466242313385,-0.865726113319397,0.0026632421649992466,0.008256050758063793,-0.00452751200646162,"[0.0, 0.0, 0.0, 0.0]",-10.601431846618652,3.2129695415496826,0.0,0.000286675087409094,-0.00035894932807423174,0.0,244432004,3,369992735,-1220636550,0,65535,65535,4,0,255,0,0,0,0,0,0,10,0,192,0,3,3
LOCAL_POSITION_NED,2,0.47863081097602844,244506,-0.4456327557563782,0.05365266650915146,-0.22147466242313385,-0.865726113319397,0.0026632421649992466,0.008256050758063793,-0.00452751200646162,"[0.0, 0.0, 0.0, 0.0]",-10.601414680480957,3.2129480838775635,0.0,0.0003371347556822002,-0.0004223971627652645,0.0,244432004,3,369992735,-1220636550,0,65535,65535,4,0,255,0,0,0,0,0,0,10,0,192,0,3,3
GPS_RAW_INT,2,0.47863081097602844,244506,-0.4456327557563782,0.05365266650915146,-0.22147466242313385,-0.865726113319397,0.0026632421649992466,0.008256050758063793,-0.00452751200646162,"[0.0, 0.0, 0.0, 0.0]",-10.601414680480957,3.2129480838775635,0.0,0.0003371347556822002,-0.0004223971627652645,0.0,244533006,3,369992735,-1220636551,0,65535,65535,3,0,255,0,0,0,0,0,0,10,0,192,0,3,3
RAW_RPM,0,-0.0007669904152862728,244506,-0.4456327557563782,0.05365266650915146,-0.22147466242313385,-0.865726113319397,0.0026632421649992466,0.008256050758063793,-0.00452751200646162,"[0.0, 0.0, 0.0, 0.0]",-10.601414680480957,3.2129480838775635,0.0,0.0003371347556822002,-0.0004223971627652645,0.0,244533006,3,369992735,-1220636551,0,65535,65535,3,0,255,0,0,0,0,0,0,10,0,192,0,3,3
RAW_RPM,1,0.0003834952076431364,244506,-0.4456327557563782,0.05365266650915146,-0.22147466242313385,-0.865726113319397,0.0026632421649992466,0.008256050758063793,-0.00452751200646162,"[0.0, 0.0, 0.0, 0.0]",-10.601414680480957,3.2129480838775635,0.0,0.0003371347556822002,-0.0004223971627652645,0.0,244533006,3,369992735,-1220636551,0,65535,65535,3,0,255,0,0,0,0,0,0,10,0,192,0,3,3
RAW_RPM,2,0.4781130850315094,244506,-0.4456327557563782,0.05365266650915146,-0.22147466242313385,-0.865726113319397,0.0026632421649992466,0.008256050758063793,-0.00452751200646162,"[0.0, 0.0, 0.0, 0.0]",-10.601414680480957,3.2129480838775635,0.0,0.0003371347556822002,-0.0004223971627652645,0.0,244533006,3,369992735,-1220636551,0,65535,65535,3,0,255,0,0,0,0,0,0,10,0,192,0,3,3
ATTITUDE_QUATERNION,2,0.4781130850315094,244557,-0.4458156228065491,0.05398644879460335,-0.22177299857139587,-0.8655349612236023,0.004793836269527674,0.011718266643583775,-0.005859133321791887,"[0.0, 0.0, 0.0, 0.0]",-10.601414680480957,3.2129480838775635,0.0,0.0003371347556822002,-0.0004223971627652645,0.0,244533006,3,369992735,-1220636551,0,65535,65535,3,0,255,0,0,0,0,0,0,10,0,192,0,3,3
LOCAL_POSITION_NED,2,0.4781130850315094,244557,-0.4458156228065491,0.05398644879460335,-0.22177299857139587,-0.8655349612236023,0.004793836269527674,0.011718266643583775,-0.005859133321791887,"[0.0, 0.0, 0.0, 0.0]",-10.601397514343262,3.2129263877868652,0.0,0.00035438581835478544,-0.00044392759446054697,0.0,244533006,3,369992735,-1220636551,0,65535,65535,3,0,255,0,0,0,0,0,0,10,0,192,0,3,3
RAW_RPM,0,-0.0007669904152862728,244557,-0.4458156228065491,0.05398644879460335,-0.22177299857139587,-0.8655349612236023,0.004793836269527674,0.011718266643583775,-0.005859133321791887,"[0.0, 0.0, 0.0, 0.0]",-10.601397514343262,3.2129263877868652,0.0,0.00035438581835478544,-0.00044392759446054697,0.0,244533006,3,369992735,-1220636551,0,65535,65535,3,0,255,0,0,0,0,0,0,10,0,192,0,3,3
RAW_RPM,1,-0.0007669904152862728,244557,-0.4458156228065491,0.05398644879460335,-0.22177299857139587,-0.8655349612236023,0.004793836269527674,0.011718266643583775,-0.005859133321791887,"[0.0, 0.0, 0.0, 0.0]",-10.601397514343262,3.2129263877868652,0.0,0.00035438581835478544,-0.00044392759446054697,0.0,244533006,3,369992735,-1220636551,0,65535,65535,3,0,255,0,0,0,0,0,0,10,0,192,0,3,3
RAW_RPM,2,0.4783719480037689,244557,-0.4458156228065491,0.05398644879460335,-0.22177299857139587,-0.8655349612236023,0.004793836269527674,0.011718266643583775,-0.005859133321791887,"[0.0, 0.0, 0.0, 0.0]",-10.601397514343262,3.2129263877868652,0.0,0.00035438581835478544,-0.00044392759446054697,0.0,244533006,3,369992735,-1220636551,0,65535,65535,3,0,255,0,0,0,0,0,0,10,0,192,0,3,3
ATTITUDE_QUATERNION,2,0.4783719480037689,244608,-0.44573158025741577,0.05360030382871628,-0.22121092677116394,-0.8657459616661072,0.001864269725047052,0.013316212221980095,-0.004793836269527674,"[0.0, 0.0, 0.0, 0.0]",-10.601397514343262,3.2129263877868652,0.0,0.00035438581835478544,-0.00044392759446054697,0.0,244533006,3,369992735,-1220636551,0,65535,65535,3,0,255,0,0,0,0,0,0,10,0,192,0,3,3
