mavpackettype,index,frequency,time_boot_ms,q1,q2,q3,q4,rollspeed,pitchspeed,yawspeed,repr_offset_q,x,y,z,vx,vy,vz,time_usec,fix_type,lat,lon,alt,eph,epv,vel,cog,satellites_visible,alt_ellipsoid,h_acc,v_acc,vel_acc,hdg_acc,yaw,type,autopilot,base_mode,custom_mode,system_status,mavlink_version
RAW_RPM,1,0.1817767322063446,38111,0.9194715023040771,-0.027972286567091942,0.08598308265209198,0.3826181888580322,-0.1379559487104416,0.30121269822120667,-0.16165880858898163,"[0.0, 0.0, 0.0, 0.0]",1.2150700092315674,1.313292145729065,0.0,0.5425941348075867,0.5612943768501282,0.0,38091004,3,369992560,-1220636336,0,65535,65535,62,7051,255,0,0,0,0,0,0,10,0,192,0,3,3
RAW_RPM,2,0.530402660369873,38111,0.9194715023040771,-0.027972286567091942,0.08598308265209198,0.3826181888580322,-0.1379559487104416,0.30121269822120667,-0.16165880858898163,"[0.0, 0.0, 0.0, 0.0]",1.2150700092315674,1.313292145729065,0.0,0.5425941348075867,0.5612943768501282,0.0,38091004,3,369992560,-1220636336,0,65535,65535,62,7051,255,0,0,0,0,0,0,10,0,192,0,3,3
ATTITUDE_QUATERNION,2,0.530402660369873,38162,0.9202331900596619,-0.032622240483760834,0.08643295615911484,0.380310595035553,-0.2804394066333771,0.11052455753087997,-0.1009368821978569,"[0.0, 0.0, 0.0, 0.0]",1.2150700092315674,1.313292145729065,0.0,0.5425941348075867,0.5612943768501282,0.0,38091004,3,369992560,-1220636336,0,65535,65535,62,7051,255,0,0,0,0,0,0,10,0,192,0,3,3
LOCAL_POSITION_NED,2,0.530402660369873,38162,0.9202331900596619,-0.032622240483760834,0.08643295615911484,0.380310595035553,-0.2804394066333771,0.11052455753087997,-0.1009368821978569,"[0.0, 0.0, 0.0, 0.0]",1.2419461011886597,1.3407988548278809,0.0,0.530469536781311,0.5383577942848206,0.0,38091004,3,369992560,-1220636336,0,65535,65535,62,7051,255,0,0,0,0,0,0,10,0,192,0,3,3
GPS_RAW_INT,2,0.530402660369873,38162,0.9202331900596619,-0.032622240483760834,0.08643295615911484,0.380310595035553,-0.2804394066333771,0.11052455753087997,-0.1009368821978569,"[0.0, 0.0, 0.0, 0.0]",1.2419461011886597,1.3407988548278809,0.0,0.530469536781311,0.5383577942848206,0.0,38192005,3,369992561,-1220636328,0,65535,65535,72,7238,255,0,0,0,0,0,0,10,0,192,0,3,3
RAW_RPM,0,0.08820389956235886,38162,0.9202331900596619,-0.032622240483760834,0.08643295615911484,0.380310595035553,-0.2804394066333771,0.11052455753087997,-0.1009368821978569,"[0.0, 0.0, 0.0, 0.0]",1.2419461011886597,1.3407988548278809,0.0,0.530469536781311,0.5383577942848206,0.0,38192005,3,369992561,-1220636328,0,65535,65535,72,7238,255,0,0,0,0,0,0,10,0,192,0,3,3
RAW_RPM,1,0.15454857051372528,38162,0.9202331900596619,-0.032622240483760834,0.08643295615911484,0.380310595035553,-0.2804394066333771,0.11052455753087997,-0.1009368821978569,"[0.0, 0.0, 0.0, 0.0]",1.2419461011886597,1.3407988548278809,0.0,0.530469536781311,0.5383577942848206,0.0,38192005,3,369992561,-1220636328,0,65535,65535,72,7238,255,0,0,0,0,0,0,10,0,192,0,3,3
RAW_RPM,2,0.5322146415710449,38162,0.9202331900596619,-0.032622240483760834,0.08643295615911484,0.380310595035553,-0.2804394066333771,0.11052455753087997,-0.1009368821978569,"[0.0, 0.0, 0.0, 0.0]",1.2419461011886597,1.3407988548278809,0.0,0.530469536781311,0.5383577942848206,0.0,38192005,3,369992561,-1220636328,0,65535,65535,72,7238,255,0,0,0,0,0,0,10,0,192,0,3,3
ATTITUDE_QUATERNION,2,0.5322146415710449,38213,0.9209884405136108,-0.03058432973921299,0.08060626685619354,0.3799310028553009,-0.21012981235980988,0.11372044682502747,-0.21518999338150024,"[0.0, 0.0, 0.0, 0.0]",1.2419461011886597,1.3407988548278809,0.0,0.530469536781311,0.5383577942848206,0.0,38192005,3,369992561,-1220636328,0,65535,65535,72,7238,255,0,0,0,0,0,0,10,0,192,0,3,3
LOCAL_POSITION_NED,2,0.5322146415710449,38213,0.9209884405136108,-0.03058432973921299,0.08060626685619354,0.3799310028553009,-0.21012981235980988,0.11372044682502747,-0.21518999338150024,"[0.0, 0.0, 0.0, 0.0]",1.268416166305542,1.367789387702942,0.0,0.5302815437316895,0.5400434732437134,0.0,38192005,3,369992561,-1220636328,0,65535,65535,72,7238,255,0,0,0,0,0,0,10,0,192,0,3,3
RAW_RPM,0,0.03834952041506767,38213,0.9209884405136108,-0.03058432973921299,0.08060626685619354,0.3799310028553009,-0.21012981235980988,0.11372044682502747,-0.21518999338150024,"[0.0, 0.0, 0.0, 0.0]",1.268416166305542,1.367789387702942,0.0,0.5302815437316895,0.5400434732437134,0.0,38192005,3,369992561,-1220636328,0,65535,65535,72,7238,255,0,0,0,0,0,0,10,0,192,0,3,3
RAW_RPM,1,0.23201459646224976,38213,0.9209884405136108,-0.03058432973921299,0.08060626685619354,0.3799310028553009,-0.21012981235980988,0.11372044682502747,-0.21518999338150024,"[0.0, 0.0, 0.0, 0.0]",1.268416166305542,1.367789387702942,0.0,0.5302815437316895,0.5400434732437134,0.0,38192005,3,369992561,-1220636328,0,65535,65535,72,7238,255,0,0,0,0,0,0,10,0,192,0,3,3
RAW_RPM,2,0.5373918414115906,38213,0.9209884405136108,-0.03058432973921299,0.08060626685619354,0.3799310028553009,-0.21012981235980988,0.11372044682502747,-0.21518999338150024,"[0.0, 0.0, 0.0, 0.0]",1.268416166305542,1.367789387702942,0.0,0.5302815437316895,0.5400434732437134,0.0,38192005,3,369992561,-1220636328,0,65535,65535,72,7238,255,0,0,0,0,0,0,10,0,192,0,3,3
ATTITUDE_QUATERNION,2,0.5373918414115906,38264,0.9222742915153503,-0.024270275607705116,0.07523393630981445,0.37836599349975586,-0.0029295666608959436,0.22477765381336212,-0.28683120012283325,"[0.0, 0.0, 0.0, 0.0]",1.268416166305542,1.367789387702942,0.0,0.5302815437316895,0.5400434732437134,0.0,38192005,3,369992561,-1220636328,0,65535,65535,72,7238,255,0,0,0,0,0,0,10,0,192,0,3,3
LOCAL_POSITION_NED,2,0.5373918414115906,38264,0.9222742915153503,-0.024270275607705116,0.07523393630981445,0.37836599349975586,-0.0029295666608959436,0.22477765381336212,-0.28683120012283325,"[0.0, 0.0, 0.0, 0.0]",1.2942798137664795,1.3940168619155884,0.0,0.509027361869812,0.5156490206718445,0.0,38192005,3,369992561,-1220636328,0,65535,65535,72,7238,255,0,0,0,0,0,0,10,0,192,0,3,3
GPS_RAW_INT,2,0.5373918414115906,38264,0.9222742915153503,-0.024270275607705116,0.07523393630981445,0.37836599349975586,-0.0029295666608959436,0.22477765381336212,-0.28683120012283325,"[0.0, 0.0, 0.0, 0.0]",1.2942798137664795,1.3940168619155884,0.0,0.509027361869812,0.5156490206718445,0.0,38293006,3,369992563,-1220636321,0,65535,65535,67,7376,255,0,0,0,0,0,0,10,0,192,0,3,3
RAW_RPM,0,0.23278158903121948,38264,0.9222742915153503,-0.024270275607705116,0.07523393630981445,0.37836599349975586,-0.0029295666608959436,0.22477765381336212,-0.28683120012283325,"[0.0, 0.0, 0.0, 0.0]",1.2942798137664795,1.3940168619155884,0.0,0.509027361869812,0.5156490206718445,0.0,38293006,3,369992563,-1220636321,0,65535,65535,67,7376,255,0,0,0,0,0,0,10,0,192,0,3,3
RAW_RPM,1,0.26499518752098083,38264,0.9222742915153503,-0.024270275607705116,0.07523393630981445,0.37836599349975586,-0.0029295666608959436,0.22477765381336212,-0.28683120012283325,"[0.0, 0.0, 0.0, 0.0]",1.2942798137664795,1.3940168619155884,0.0,0.509027361869812,0.5156490206718445,0.0,38293006,3,369992563,-1220636321,0,65535,65535,67,7376,255,0,0,0,0,0,0,10,0,192,0,3,3
RAW_RPM,2,0.5404981374740601,38264,0.9222742915153503,-0.024270275607705116,0.07523393630981445,0.37836599349975586,-0.0029295666608959436,0.22477765381336212,-0.28683120012283325,"[0.0, 0.0, 0.0, 0.0]",1.2942798137664795,1.3940168619155884,0.0,0.509027361869812,0.5156490206718445,0.0,38293006,3,369992563,-1220636321,0,65535,65535,67,7376,255,0,0,0,0,0,0,10,0,192,0,3,3
ATTITUDE_QUATERNION,2,0.5404981374740601,38315,0.9236257672309875,-0.015387247316539288,0.07355549931526184,0.37585681676864624,-0.20853187143802643,-0.06551575660705566,-0.14115184545516968,"[0.0, 0.0, 0.0, 0.0]",1.2942798137664795,1.3940168619155884,0.0,0.509027361869812,0.5156490206718445,0.0,38293006,3,369992563,-1220636321,0,65535,65535,67,7376,255,0,0,0,0,0,0,10,0,192,0,3,3
LOCAL_POSITION_NED,2,0.5404981374740601,38315,0.9236257672309875,-0.015387247316539288,0.07355549931526184,0.37585681676864624,-0.20853187143802643,-0.06551575660705566,-0.14115184545516968,"[0.0, 0.0, 0.0, 0.0]",1.319602131843567,1.4194732904434204,0.0,0.5102580189704895,0.5111284255981445,0.0,38293006,3,369992563,-1220636321,0,65535,65535,67,7376,255,0,0,0,0,0,0,10,0,192,0,3,3
RAW_RPM,0,0.17794176936149597,38315,0.9236257672309875,-0.015387247316539288,0.07355549931526184,0.37585681676864624,-0.20853187143802643,-0.06551575660705566,-0.14115184545516968,"[0.0, 0.0, 0.0, 0.0]",1.319602131843567,1.4194732904434204,0.0,0.5102580189704895,0.5111284255981445,0.0,38293006,3,369992563,-1220636321,0,65535,65535,67,7376,255,0,0,0,0,0,0,10,0,192,0,3,3
RAW_RPM,1,0.1721893548965454,38315,0.9236257672309875,-0.015387247316539288,0.07355549931526184,0.37585681676864624,-0.20853187143802643,-0.06551575660705566,-0.14115184545516968,"[0.0, 0.0, 0.0, 0.0]",1.319602131843567,1.4194732904434204,0.0,0.5102580189704895,0.5111284255981445,0.0,38293006,3,369992563,-1220636321,0,65535,65535,67,7376,255,0,0,0,0,0,0,10,0,192,0,3,3
RAW_RPM,2,0.5436044931411743,38315,0.9236257672309875,-0.015387247316539288,0.07355549931526184,0.37585681676864624,-0.20853187143802643,-0.06551575660705566,-0.14115184545516968,"[0.0, 0.0, 0.0, 0.0]",1.319602131843567,1.4194732904434204,0.0,0.5102580189704895,0.5111284255981445,0.0,38293006,3,369992563,-1220636321,0,65535,65535,67,7376,255,0,0,0,0,0,0,10,0,192,0,3,3
ATTITUDE_QUATERNION,2,0.5436044931411743,38366,0.9254137873649597,-0.009481498971581459,0.058647893369197845,0.3742724359035492,0.18988917768001556,0.033556852489709854,-0.16964854300022125,"[0.0, 0.0, 0.0, 0.0]",1.319602131843567,1.4194732904434204,0.0,0.5102580189704895,0.5111284255981445,0.0,38293006,3,369992563,-1220636321,0,65535,65535,67,7376,255,0,0,0,0,0,0,10,0,192,0,3,3
LOCAL_POSITION_NED,2,0.5436044931411743,38367,0.9254137873649597,-0.009481498971581459,0.058647893369197845,0.3742724359035492,0.18988917768001556,0.033556852489709854,-0.16964854300022125,"[0.0, 0.0, 0.0, 0.0]",1.3514931201934814,1.4512114524841309,0.0,0.5386665463447571,0.53421550989151,0.0,38293006,3,369992563,-1220636321,0,65535,65535,67,7376,255,0,0,0,0,0,0,10,0,192,0,3,3
GPS_RAW_INT,2,0.5436044931411743,38367,0.9254137873649597,-0.009481498971581459,0.058647893369197845,0.3742724359035492,0.18988917768001556,0.033556852489709854,-0.16964854300022125,"[0.0, 0.0, 0.0, 0.0]",1.3514931201934814,1.4512114524841309,0.0,0.5386665463447571,0.53421550989151,0.0,38394002,3,369992565,-1220636315,0,65535,65535,66,7423,255,0,0,0,0,0,0,10,0,192,0,3,3
RAW_RPM,0,0.2105388641357422,38367,0.9254137873649597,-0.009481498971581459,0.058647893369197845,0.3742724359035492,0.18988917768001556,0.033556852489709854,-0.16964854300022125,"[0.0, 0.0, 0.0, 0.0]",1.3514931201934814,1.4512114524841309,0.0,0.5386665463447571,0.53421550989151,0.0,38394002,3,369992565,-1220636315,0,65535,65535,66,7423,255,0,0,0,0,0,0,10,0,192,0,3,3
RAW_RPM,1,0.2316311001777649,38367,0.9254137873649597,-0.009481498971581459,0.058647893369197845,0.3742724359035492,0.18988917768001556,0.033556852489709854,-0.16964854300022125,"[0.0, 0.0, 0.0, 0.0]",1.3514931201934814,1.4512114524841309,0.0,0.5386665463447571,0.53421550989151,0.0,38394002,3,369992565,-1220636315,0,65535,65535,66,7423,255,0,0,0,0,0,0,10,0,192,0,3,3
RAW_RPM,2,0.5454164743423462,38367,0.9254137873649597,-0.009481498971581459,0.058647893369197845,0.3742724359035492,0.18988917768001556,0.033556852489709854,-0.16964854300022125,"[0.0, 0.0, 0.0, 0.0]",1.3514931201934814,1.4512114524841309,0.0,0.5386665463447571,0.53421550989151,0.0,38394002,3,369992565,-1220636315,0,65535,65535,66,7423,255,0,0,0,0,0,0,10,0,192,0,3,3
ATTITUDE_QUATERNION,2,0.5454164743423462,38417,0.9259836077690125,-0.00396605022251606,0.06278884410858154,0.3722851574420929,0.005326484329998493,0.07430445402860641,-0.14567935466766357,"[0.0, 0.0, 0.0, 0.0]",1.3514931201934814,1.4512114524841309,0.0,0.5386665463447571,0.53421550989151,0.0,38394002,3,369992565,-1220636315,0,65535,65535,66,7423,255,0,0,0,0,0,0,10,0,192,0,3,3
LOCAL_POSITION_NED,2,0.5454164743423462,38417,0.9259836077690125,-0.00396605022251606,0.06278884410858154,0.3722851574420929,0.005326484329998493,0.07430445402860641,-0.14567935466766357,"[0.0, 0.0, 0.0, 0.0]",1.3787360191345215,1.478119969367981,0.0,0.5529900789260864,0.5439596772193909,0.0,38394002,3,369992565,-1220636315,0,65535,65535,66,7423,255,0,0,0,0,0,0,10,0,192,0,3,3
RAW_RPM,0,0.1257864236831665,38417,0.9259836077690125,-0.00396605022251606,0.06278884410858154,0.3722851574420929,0.005326484329998493,0.07430445402860641,-0.14567935466766357,"[0.0, 0.0, 0.0, 0.0]",1.3787360191345215,1.478119969367981,0.0,0.5529900789260864,0.5439596772193909,0.0,38394002,3,369992565,-1220636315,0,65535,65535,66,7423,255,0,0,0,0,0,0,10,0,192,0,3,3
RAW_RPM,1,0.17794176936149597,38417,0.9259836077690125,-0.00396605022251606,0.06278884410858154,0.3722851574420929,0.005326484329998493,0.07430445402860641,-0.14567935466766357,"[0.0, 0.0, 0.0, 0.0]",1.3787360191345215,1.478119969367981,0.0,0.5529900789260864,0.5439596772193909,0.0,38394002,3,369992565,-1220636315,0,65535,65535,66,7423,255,0,0,0,0,0,0,10,0,192,0,3,3
RAW_RPM,2,0.5438632965087891,38417,0.9259836077690125,-0.00396605022251606,0.06278884410858154,0.3722851574420929,0.005326484329998493,0.07430445402860641,-0.14567935466766357,"[0.0, 0.0, 0.0, 0.0]",1.3787360191345215,1.478119969367981,0.0,0.5529900789260864,0.5439596772193909,0.0,38394002,3,369992565,-1220636315,0,65535,65535,66,7423,255,0,0,0,0,0,0,10,0,192,0,3,3
ATTITUDE_QUATERNION,2,0.5438632965087891,38468,0.9278711080551147,-0.007119601592421532,0.05861516296863556,0.36819666624069214,-0.02956199087202549,0.2825700044631958,-0.22424499690532684,"[0.0, 0.0, 0.0, 0.0]",1.3787360191345215,1.478119969367981,0.0,0.5529900789260864,0.5439596772193909,0.0,38394002,3,369992565,-1220636315,0,65535,65535,66,7423,255,0,0,0,0,0,0,10,0,192,0,3,3
LOCAL_POSITION_NED,2,0.5438632965087891,38468,0.9278711080551147,-0.007119601592421532,0.05861516296863556,0.36819666624069214,-0.02956199087202549,0.2825700044631958,-0.22424499690532684,"[0.0, 0.0, 0.0, 0.0]",1.406570553779602,1.5053772926330566,0.0,0.5594673752784729,0.5419827699661255,0.0,38394002,3,369992565,-1220636315,0,65535,65535,66,7423,255,0,0,0,0,0,0,10,0,192,0,3,3
GPS_RAW_INT,2,0.5438632965087891,38468,0.9278711080551147,-0.007119601592421532,0.05861516296863556,0.36819666624069214,-0.02956199087202549,0.2825700044631958,-0.22424499690532684,"[0.0, 0.0, 0.0, 0.0]",1.406570553779602,1.5053772926330566,0.0,0.5594673752784729,0.5419827699661255,0.0,38495003,3,369992566,-1220636306,0,65535,65535,66,7769,255,0,0,0,0,0,0,10,0,192,0,3,3
RAW_RPM,0,0.11658254265785217,38468,0.9278711080551147,-0.007119601592421532,0.05861516296863556,0.36819666624069214,-0.02956199087202549,0.2825700044631958,-0.22424499690532684,"[0.0, 0.0, 0.0, 0.0]",1.406570553779602,1.5053772926330566,0.0,0.5594673752784729,0.5419827699661255,0.0,38495003,3,369992566,-1220636306,0,65535,65535,66,7769,255,0,0,0,0,0,0,10,0,192,0,3,3
RAW_RPM,1,0.1564660519361496,38468,0.9278711080551147,-0.007119601592421532,0.05861516296863556,0.36819666624069214,-0.02956199087202549,0.2825700044631958,-0.22424499690532684,"[0.0, 0.0, 0.0, 0.0]",1.406570553779602,1.5053772926330566,0.0,0.5594673752784729,0.5419827699661255,0.0,38495003,3,369992566,-1220636306,0,65535,65535,66,7769,255,0,0,0,0,0,0,10,0,192,0,3,3
RAW_RPM,2,0.5402392745018005,38468,0.9278711080551147,-0.007119601592421532,0.05861516296863556,0.36819666624069214,-0.02956199087202549,0.2825700044631958,-0.22424499690532684,"[0.0, 0.0, 0.0, 0.0]",1.406570553779602,1.5053772926330566,0.0,0.5594673752784729,0.5419827699661255,0.0,38495003,3,369992566,-1220636306,0,65535,65535,66,7769,255,0,0,0,0,0,0,10,0,192,0,3,3
ATTITUDE_QUATERNION,2,0.5402392745018005,38519,0.9281153082847595,-0.012963402085006237,0.06103791669011116,0.36702629923820496,0.03622009605169296,-0.0527321994304657,-0.07430445402860641,"[0.0, 0.0, 0.0, 0.0]",1.406570553779602,1.5053772926330566,0.0,0.5594673752784729,0.5419827699661255,0.0,38495003,3,369992566,-1220636306,0,65535,65535,66,7769,255,0,0,0,0,0,0,10,0,192,0,3,3
LOCAL_POSITION_NED,2,0.5402392745018005,38519,0.9281153082847595,-0.012963402085006237,0.06103791669011116,0.36702629923820496,0.03622009605169296,-0.0527321994304657,-0.07430445402860641,"[0.0, 0.0, 0.0, 0.0]",1.4345828294754028,1.532378077507019,0.0,0.5596632361412048,0.5401322245597839,0.0,38495003,3,369992566,-1220636306,0,65535,65535,66,7769,255,0,0,0,0,0,0,10,0,192,0,3,3
RAW_RPM,0,0.015339808538556099,38519,0.9281153082847595,-0.012963402085006237,0.06103791669011116,0.36702629923820496,0.03622009605169296,-0.0527321994304657,-0.07430445402860641,"[0.0, 0.0, 0.0, 0.0]",1.4345828294754028,1.532378077507019,0.0,0.5596632361412048,0.5401322245597839,0.0,38495003,3,369992566,-1220636306,0,65535,65535,66,7769,255,0,0,0,0,0,0,10,0,192,0,3,3
RAW_RPM,1,0.2316311001777649,38519,0.9281153082847595,-0.012963402085006237,0.06103791669011116,0.36702629923820496,0.03622009605169296,-0.0527321994304657,-0.07430445402860641,"[0.0, 0.0, 0.0, 0.0]",1.4345828294754028,1.532378077507019,0.0,0.5596632361412048,0.5401322245597839,0.0,38495003,3,369992566,-1220636306,0,65535,65535,66,7769,255,0,0,0,0,0,0,10,0,192,0,3,3
RAW_RPM,2,0.5480051040649414,38519,0.9281153082847595,-0.012963402085006237,0.06103791669011116,0.36702629923820496,0.03622009605169296,-0.0527321994304657,-0.07430445402860641,"[0.0, 0.0, 0.0, 0.0]",1.4345828294754028,1.532378077507019,0.0,0.5596632361412048,0.5401322245597839,0.0,38495003,3,369992566,-1220636306,0,65535,65535,66,7769,255,0,0,0,0,0,0,10,0,192,0,3,3
ATTITUDE_QUATERNION,2,0.5480051040649414,38570,0.9282315969467163,-0.0026751405093818903,0.06425344198942184,0.3664020895957947,0.17417603731155396,0.03542112559080124,-0.17044749855995178,"[0.0, 0.0, 0.0, 0.0]",1.4345828294754028,1.532378077507019,0.0,0.5596632361412048,0.5401322245597839,0.0,38495003,3,369992566,-1220636306,0,65535,65535,66,7769,255,0,0,0,0,0,0,10,0,192,0,3,3
LOCAL_POSITION_NED,2,0.5480051040649414,38570,0.9282315969467163,-0.0026751405093818903,0.06425344198942184,0.3664020895957947,0.17417603731155396,0.03542112559080124,-0.17044749855995178,"[0.0, 0.0, 0.0, 0.0]",1.4620928764343262,1.558834195137024,0.0,0.545711874961853,0.5254407525062561,0.0,38495003,3,369992566,-1220636306,0,65535,65535,66,7769,255,0,0,0,0,0,0,10,0,192,0,3,3
GPS_RAW_INT,2,0.5480051040649414,38570,0.9282315969467163,-0.0026751405093818903,0.06425344198942184,0.3664020895957947,0.17417603731155396,0.03542112559080124,-0.17044749855995178,"[0.0, 0.0, 0.0, 0.0]",1.4620928764343262,1.558834195137024,0.0,0.545711874961853,0.5254407525062561,0.0,38596495,3,369992568,-1220636298,0,65535,65535,72,7673,255,0,0,0,0,0,0,10,0,192,0,3,3
RAW_RPM,0,0.17679129540920258,38570,0.9282315969467163,-0.0026751405093818903,0.06425344198942184,0.3664020895957947,0.17417603731155396,0.03542112559080124,-0.17044749855995178,"[0.0, 0.0, 0.0, 0.0]",1.4620928764343262,1.558834195137024,0.0,0.545711874961853,0.5254407525062561,0.0,38596495,3,369992568,-1220636298,0,65535,65535,72,7673,255,0,0,0,0,0,0,10,0,192,0,3,3
RAW_RPM,1,0.25617480278015137,38570,0.9282315969467163,-0.0026751405093818903,0.06425344198942184,0.3664020895957947,0.17417603731155396,0.03542112559080124,-0.17044749855995178,"[0.0, 0.0, 0.0, 0.0]",1.4620928764343262,1.558834195137024,0.0,0.545711874961853,0.5254407525062561,0.0,38596495,3,369992568,-1220636298,0,65535,65535,72,7673,255,0,0,0,0,0,0,10,0,192,0,3,3
RAW_RPM,2,0.5534411072731018,38570,0.9282315969467163,-0.0026751405093818903,0.06425344198942184,0.3664020895957947,0.17417603731155396,0.03542112559080124,-0.17044749855995178,"[0.0, 0.0, 0.0, 0.0]",1.4620928764343262,1.558834195137024,0.0,0.545711874961853,0.5254407525062561,0.0,38596495,3,369992568,-1220636298,0,65535,65535,72,7673,255,0,0,0,0,0,0,10,0,192,0,3,3
ATTITUDE_QUATERNION,2,0.5534411072731018,38621,0.9288069009780884,0.0038464840035885572,0.059916697442531586,0.3656678795814514,0.21332570910453796,0.016778426244854927,0.042611874639987946,"[0.0, 0.0, 0.0, 0.0]",1.4620928764343262,1.558834195137024,0.0,0.545711874961853,0.5254407525062561,0.0,38596495,3,369992568,-1220636298,0,65535,65535,72,7673,255,0,0,0,0,0,0,10,0,192,0,3,3
LOCAL_POSITION_NED,2,0.5534411072731018,38621,0.9288069009780884,0.0038464840035885572,0.059916697442531586,0.3656678795814514,0.21332570910453796,0.016778426244854927,0.042611874639987946,"[0.0, 0.0, 0.0, 0.0]",1.4891589879989624,1.5847560167312622,0.0,0.5464134216308594,0.522150456905365,0.0,38596495,3,369992568,-1220636298,0,65535,65535,72,7673,255,0,0,0,0,0,0,10,0,192,0,3,3
RAW_RPM,0,0.2546408176422119,38621,0.9288069009780884,0.0038464840035885572,0.059916697442531586,0.3656678795814514,0.21332570910453796,0.016778426244854927,0.042611874639987946,"[0.0, 0.0, 0.0, 0.0]",1.4891589879989624,1.5847560167312622,0.0,0.5464134216308594,0.522150456905365,0.0,38596495,3,369992568,-1220636298,0,65535,65535,72,7673,255,0,0,0,0,0,0,10,0,192,0,3,3
RAW_RPM,1,0.16528643667697906,38621,0.9288069009780884,0.0038464840035885572,0.059916697442531586,0.3656678795814514,0.21332570910453796,0.016778426244854927,0.042611874639987946,"[0.0, 0.0, 0.0, 0.0]",1.4891589879989624,1.5847560167312622,0.0,0.5464134216308594,0.522150456905365,0.0,38596495,3,369992568,-1220636298,0,65535,65535,72,7673,255,0,0,0,0,0,0,10,0,192,0,3,3
RAW_RPM,2,0.559394896030426,38621,0.9288069009780884,0.0038464840035885572,0.059916697442531586,0.3656678795814514,0.21332570910453796,0.016778426244854927,0.042611874639987946,"[0.0, 0.0, 0.0, 0.0]",1.4891589879989624,1.5847560167312622,0.0,0.5464134216308594,0.522150456905365,0.0,38596495,3,369992568,-1220636298,0,65535,65535,72,7673,255,0,0,0,0,0,0,10,0,192,0,3,3
ATTITUDE_QUATERNION,2,0.559394896030426,38672,0.9296547770500183,0.003531825263053179,0.04971614107489586,0.3650450110435486,0.06418414413928986,0.13422740995883942,-0.013848859816789627,"[0.0, 0.0, 0.0, 0.0]",1.4891589879989624,1.5847560167312622,0.0,0.5464134216308594,0.522150456905365,0.0,38596495,3,369992568,-1220636298,0,65535,65535,72,7673,255,0,0,0,0,0,0,10,0,192,0,3,3
LOCAL_POSITION_NED,2,0.559394896030426,38672,0.9296547770500183,0.003531825263053179,0.04971614107489586,0.3650450110435486,0.06418414413928986,0.13422740995883942,-0.013848859816789627,"[0.0, 0.0, 0.0, 0.0]",1.5171146392822266,1.6115434169769287,0.0,0.5680983662605286,0.5427116751670837,0.0,38596495,3,369992568,-1220636298,0,65535,65535,72,7673,255,0,0,0,0,0,0,10,0,192,0,3,3
GPS_RAW_INT,2,0.559394896030426,38672,0.9296547770500183,0.003531825263053179,0.04971614107489586,0.3650450110435486,0.06418414413928986,0.13422740995883942,-0.013848859816789627,"[0.0, 0.0, 0.0, 0.0]",1.5171146392822266,1.6115434169769287,0.0,0.5680983662605286,0.5427116751670837,0.0,38697003,3,369992570,-1220636291,0,65535,65535,64,7626,255,0,0,0,0,0,0,10,0,192,0,3,3
RAW_RPM,0,0.18062624335289001,38672,0.9296547770500183,0.003531825263053179,0.04971614107489586,0.3650450110435486,0.06418414413928986,0.13422740995883942,-0.013848859816789627,"[0.0, 0.0, 0.0, 0.0]",1.5171146392822266,1.6115434169769287,0.0,0.5680983662605286,0.5427116751670837,0.0,38697003,3,369992570,-1220636291,0,65535,65535,64,7626,255,0,0,0,0,0,0,10,0,192,0,3,3
RAW_RPM,1,0.19750003516674042,38672,0.9296547770500183,0.003531825263053179,0.04971614107489586,0.3650450110435486,0.06418414413928986,0.13422740995883942,-0.013848859816789627,"[0.0, 0.0, 0.0, 0.0]",1.5171146392822266,1.6115434169769287,0.0,0.5680983662605286,0.5427116751670837,0.0,38697003,3,369992570,-1220636291,0,65535,65535,64,7626,255,0,0,0,0,0,0,10,0,192,0,3,3
RAW_RPM,2,0.5637955069541931,38672,0.9296547770500183,0.003531825263053179,0.04971614107489586,0.3650450110435486,0.06418414413928986,0.13422740995883942,-0.013848859816789627,"[0.0, 0.0, 0.0, 0.0]",1.5171146392822266,1.6115434169769287,0.0,0.5680983662605286,0.5427116751670837,0.0,38697003,3,369992570,-1220636291,0,65535,65535,64,7626,255,0,0,0,0,0,0,10,0,192,0,3,3
ATTITUDE_QUATERNION,2,0.5637955069541931,38723,0.9293873906135559,0.005388679448515177,0.05184348300099373,0.3654070496559143,0.30707183480262756,0.21758690476417542,0.08016359806060791,"[0.0, 0.0, 0.0, 0.0]",1.5171146392822266,1.6115434169769287,0.0,0.5680983662605286,0.5427116751670837,0.0,38697003,3,369992570,-1220636291,0,65535,65535,64,7626,255,0,0,0,0,0,0,10,0,192,0,3,3
LOCAL_POSITION_NED,2,0.5637955069541931,38723,0.9293873906135559,0.005388679448515177,0.05184348300099373,0.3654070496559143,0.30707183480262756,0.21758690476417542,0.08016359806060791,"[0.0, 0.0, 0.0, 0.0]",1.5459449291229248,1.6390788555145264,0.0,0.5798294544219971,0.5548757314682007,0.0,38697003,3,369992570,-1220636291,0,65535,65535,64,7626,255,0,0,0,0,0,0,10,0,192,0,3,3
RAW_RPM,0,0.15378157794475555,38723,0.9293873906135559,0.005388679448515177,0.05184348300099373,0.3654070496559143,0.30707183480262756,0.21758690476417542,0.08016359806060791,"[0.0, 0.0, 0.0, 0.0]",1.5459449291229248,1.6390788555145264,0.0,0.5798294544219971,0.5548757314682007,0.0,38697003,3,369992570,-1220636291,0,65535,65535,64,7626,255,0,0,0,0,0,0,10,0,192,0,3,3
RAW_RPM,1,0.20171847939491272,38723,0.9293873906135559,0.005388679448515177,0.05184348300099373,0.3654070496559143,0.30707183480262756,0.21758690476417542,0.08016359806060791,"[0.0, 0.0, 0.0, 0.0]",1.5459449291229248,1.6390788555145264,0.0,0.5798294544219971,0.5548757314682007,0.0,38697003,3,369992570,-1220636291,0,65535,65535,64,7626,255,0,0,0,0,0,0,10,0,192,0,3,3
RAW_RPM,2,0.5676783919334412,38723,0.9293873906135559,0.005388679448515177,0.05184348300099373,0.3654070496559143,0.30707183480262756,0.21758690476417542,0.08016359806060791,"[0.0, 0.0, 0.0, 0.0]",1.5459449291229248,1.6390788555145264,0.0,0.5798294544219971,0.5548757314682007,0.0,38697003,3,369992570,-1220636291,0,65535,65535,64,7626,255,0,0,0,0,0,0,10,0,192,0,3,3
ATTITUDE_QUATERNION,2,0.5676783919334412,38774,0.9288981556892395,0.010944643057882786,0.055667005479335785,0.36596396565437317,0.054596465080976486,-0.024768153205513954,0.07377181947231293,"[0.0, 0.0, 0.0, 0.0]",1.5459449291229248,1.6390788555145264,0.0,0.5798294544219971,0.5548757314682007,0.0,38697003,3,369992570,-1220636291,0,65535,65535,64,7626,255,0,0,0,0,0,0,10,0,192,0,3,3
LOCAL_POSITION_NED,2,0.5676783919334412,38774,0.9288981556892395,0.010944643057882786,0.055667005479335785,0.36596396565437317,0.054596465080976486,-0.024768153205513954,0.07377181947231293,"[0.0, 0.0, 0.0, 0.0]",1.5745288133621216,1.666528582572937,0.0,0.5615226626396179,0.539440393447876,0.0,38697003,3,369992570,-1220636291,0,65535,65535,64,7626,255,0,0,0,0,0,0,10,0,192,0,3,3
GPS_RAW_INT,2,0.5676783919334412,38774,0.9288981556892395,0.010944643057882786,0.055667005479335785,0.36596396565437317,0.054596465080976486,-0.024768153205513954,0.07377181947231293,"[0.0, 0.0, 0.0, 0.0]",1.5745288133621216,1.666528582572937,0.0,0.5615226626396179,0.539440393447876,0.0,38798002,3,369992570,-1220636285,0,65535,65535,63,7929,255,0,0,0,0,0,0,10,0,192,0,3,3
RAW_RPM,0,0.157616525888443,38774,0.9288981556892395,0.010944643057882786,0.055667005479335785,0.36596396565437317,0.054596465080976486,-0.024768153205513954,0.07377181947231293,"[0.0, 0.0, 0.0, 0.0]",1.5745288133621216,1.666528582572937,0.0,0.5615226626396179,0.539440393447876,0.0,38798002,3,369992570,-1220636285,0,65535,65535,63,7929,255,0,0,0,0,0,0,10,0,192,0,3,3
RAW_RPM,1,0.15071362257003784,38774,0.9288981556892395,0.010944643057882786,0.055667005479335785,0.36596396565437317,0.054596465080976486,-0.024768153205513954,0.07377181947231293,"[0.0, 0.0, 0.0, 0.0]",1.5745288133621216,1.666528582572937,0.0,0.5615226626396179,0.539440393447876,0.0,38798002,3,369992570,-1220636285,0,65535,65535,63,7929,255,0,0,0,0,0,0,10,0,192,0,3,3
RAW_RPM,2,0.569490373134613,38774,0.9288981556892395,0.010944643057882786,0.055667005479335785,0.36596396565437317,0.054596465080976486,-0.024768153205513954,0.07377181947231293,"[0.0, 0.0, 0.0, 0.0]",1.5745288133621216,1.666528582572937,0.0,0.5615226626396179,0.539440393447876,0.0,38798002,3,369992570,-1220636285,0,65535,65535,63,7929,255,0,0,0,0,0,0,10,0,192,0,3,3
ATTITUDE_QUATERNION,2,0.569490373134613,38825,0.9286003112792969,0.01165194995701313,0.05268128961324692,0.3671380877494812,0.0066581061109900475,0.160060852766037,0.08256051689386368,"[0.0, 0.0, 0.0, 0.0]",1.5745288133621216,1.666528582572937,0.0,0.5615226626396179,0.539440393447876,0.0,38798002,3,369992570,-1220636285,0,65535,65535,63,7929,255,0,0,0,0,0,0,10,0,192,0,3,3
LOCAL_POSITION_NED,2,0.569490373134613,38825,0.9286003112792969,0.01165194995701313,0.05268128961324692,0.3671380877494812,0.0066581061109900475,0.160060852766037,0.08256051689386368,"[0.0, 0.0, 0.0, 0.0]",1.6022326946258545,1.6932430267333984,0.0,0.5469554662704468,0.5283469557762146,0.0,38798002,3,369992570,-1220636285,0,65535,65535,63,7929,255,0,0,0,0,0,0,10,0,192,0,3,3
RAW_RPM,0,0.02377670258283615,38825,0.9286003112792969,0.01165194995701313,0.05268128961324692,0.3671380877494812,0.0066581061109900475,0.160060852766037,0.08256051689386368,"[0.0, 0.0, 0.0, 0.0]",1.6022326946258545,1.6932430267333984,0.0,0.5469554662704468,0.5283469557762146,0.0,38798002,3,369992570,-1220636285,0,65535,65535,63,7929,255,0,0,0,0,0,0,10,0,192,0,3,3
RAW_RPM,1,0.1859951764345169,38825,0.9286003112792969,0.01165194995701313,0.05268128961324692,0.3671380877494812,0.0066581061109900475,0.160060852766037,0.08256051689386368,"[0.0, 0.0, 0.0, 0.0]",1.6022326946258545,1.6932430267333984,0.0,0.5469554662704468,0.5283469557762146,0.0,38798002,3,369992570,-1220636285,0,65535,65535,63,7929,255,0,0,0,0,0,0,10,0,192,0,3,3
RAW_RPM,2,0.5653486847877502,38825,0.9286003112792969,0.01165194995701313,0.05268128961324692,0.3671380877494812,0.0066581061109900475,0.160060852766037,0.08256051689386368,"[0.0, 0.0, 0.0, 0.0]",1.6022326946258545,1.6932430267333984,0.0,0.5469554662704468,0.5283469557762146,0.0,38798002,3,369992570,-1220636285,0,65535,65535,63,7929,255,0,0,0,0,0,0,10,0,192,0,3,3
ATTITUDE_QUATERNION,2,0.5653486847877502,38876,0.9289523363113403,0.010219496674835682,0.042461708188056946,0.36761412024497986,-0.200542151927948,0.11212249845266342,-0.02317020855844021,"[0.0, 0.0, 0.0, 0.0]",1.6022326946258545,1.6932430267333984,0.0,0.5469554662704468,0.5283469557762146,0.0,38798002,3,369992570,-1220636285,0,65535,65535,63,7929,255,0,0,0,0,0,0,10,0,192,0,3,3
LOCAL_POSITION_NED,2,0.5653486847877502,38877,0.9289523363113403,0.010219496674835682,0.042461708188056946,0.36761412024497986,-0.200542151927948,0.11212249845266342,-0.02317020855844021,"[0.0, 0.0, 0.0, 0.0]",1.634908676147461,1.7248241901397705,0.0,0.5403020977973938,0.5210495591163635,0.0,38798002,3,369992570,-1220636285,0,65535,65535,63,7929,255,0,0,0,0,0,0,10,0,192,0,3,3
GPS_RAW_INT,2,0.5653486847877502,38877,0.9289523363113403,0.010219496674835682,0.042461708188056946,0.36761412024497986,-0.200542151927948,0.11212249845266342,-0.02317020855844021,"[0.0, 0.0, 0.0, 0.0]",1.634908676147461,1.7248241901397705,0.0,0.5403020977973938,0.5210495591163635,0.0,38899004,3,369992571,-1220636278,0,65535,65535,63,8163,255,0,0,0,0,0,0,10,0,192,0,3,3
RAW_RPM,0,0.24658742547035217,38877,0.9289523363113403,0.010219496674835682,0.042461708188056946,0.36761412024497986,-0.200542151927948,0.11212249845266342,-0.02317020855844021,"[0.0, 0.0, 0.0, 0.0]",1.634908676147461,1.7248241901397705,0.0,0.5403020977973938,0.5210495591163635,0.0,38899004,3,369992571,-1220636278,0,65535,65535,63,8163,255,0,0,0,0,0,0,10,0,192,0,3,3
RAW_RPM,1,0.25425732135772705,38877,0.9289523363113403,0.010219496674835682,0.042461708188056946,0.36761412024497986,-0.200542151927948,0.11212249845266342,-0.02317020855844021,"[0.0, 0.0, 0.0, 0.0]",1.634908676147461,1.7248241901397705,0.0,0.5403020977973938,0.5210495591163635,0.0,38899004,3,369992571,-1220636278,0,65535,65535,63,8163,255,0,0,0,0,0,0,10,0,192,0,3,3
RAW_RPM,2,0.568972647190094,38877,0.9289523363113403,0.010219496674835682,0.042461708188056946,0.36761412024497986,-0.200542151927948,0.11212249845266342,-0.02317020855844021,"[0.0, 0.0, 0.0, 0.0]",1.634908676147461,1.7248241901397705,0.0,0.5403020977973938,0.5210495591163635,0.0,38899004,3,369992571,-1220636278,0,65535,65535,63,8163,255,0,0,0,0,0,0,10,0,192,0,3,3
ATTITUDE_QUATERNION,2,0.568972647190094,38927,0.9288956522941589,0.007473089266568422,0.04643644392490387,0.3673427402973175,-0.02396918274462223,-0.0007989727309904993,-0.11238882690668106,"[0.0, 0.0, 0.0, 0.0]",1.634908676147461,1.7248241901397705,0.0,0.5403020977973938,0.5210495591163635,0.0,38899004,3,369992571,-1220636278,0,65535,65535,63,8163,255,0,0,0,0,0,0,10,0,192,0,3,3
LOCAL_POSITION_NED,2,0.568972647190094,38927,0.9288956522941589,0.007473089266568422,0.04643644392490387,0.3673427402973175,-0.02396918274462223,-0.0007989727309904993,-0.11238882690668106,"[0.0, 0.0, 0.0, 0.0]",1.6616182327270508,1.750575304031372,0.0,0.5358839631080627,0.516931414604187,0.0,38899004,3,369992571,-1220636278,0,65535,65535,63,8163,255,0,0,0,0,0,0,10,0,192,0,3,3
RAW_RPM,0,0.1764077991247177,38927,0.9288956522941589,0.007473089266568422,0.04643644392490387,0.3673427402973175,-0.02396918274462223,-0.0007989727309904993,-0.11238882690668106,"[0.0, 0.0, 0.0, 0.0]",1.6616182327270508,1.750575304031372,0.0,0.5358839631080627,0.516931414604187,0.0,38899004,3,369992571,-1220636278,0,65535,65535,63,8163,255,0,0,0,0,0,0,10,0,192,0,3,3
RAW_RPM,1,0.1859951764345169,38927,0.9288956522941589,0.007473089266568422,0.04643644392490387,0.3673427402973175,-0.02396918274462223,-0.0007989727309904993,-0.11238882690668106,"[0.0, 0.0, 0.0, 0.0]",1.6616182327270508,1.750575304031372,0.0,0.5358839631080627,0.516931414604187,0.0,38899004,3,369992571,-1220636278,0,65535,65535,63,8163,255,0,0,0,0,0,0,10,0,192,0,3,3
RAW_RPM,2,0.569490373134613,38927,0.9288956522941589,0.007473089266568422,0.04643644392490387,0.3673427402973175,-0.02396918274462223,-0.0007989727309904993,-0.11238882690668106,"[0.0, 0.0, 0.0, 0.0]",1.6616182327270508,1.750575304031372,0.0,0.5358839631080627,0.516931414604187,0.0,38899004,3,369992571,-1220636278,0,65535,65535,63,8163,255,0,0,0,0,0,0,10,0,192,0,3,3
ATTITUDE_QUATERNION,2,0.569490373134613,38978,0.92936110496521,0.01870480179786682,0.03571057692170143,0.36696454882621765,0.014381508342921734,-0.20240642130374908,-0.10360012948513031,"[0.0, 0.0, 0.0, 0.0]",1.6616182327270508,1.750575304031372,0.0,0.5358839631080627,0.516931414604187,0.0,38899004,3,369992571,-1220636278,0,65535,65535,63,8163,255,0,0,0,0,0,0,10,0,192,0,3,3
LOCAL_POSITION_NED,2,0.569490373134613,38978,0.92936110496521,0.01870480179786682,0.03571057692170143,0.36696454882621765,0.014381508342921734,-0.20240642130374908,-0.10360012948513031,"[0.0, 0.0, 0.0, 0.0]",1.6894989013671875,1.7774301767349243,0.0,0.5658054947853088,0.5456394553184509,0.0,38899004,3,369992571,-1220636278,0,65535,65535,63,8163,255,0,0,0,0,0,0,10,0,192,0,3,3
GPS_RAW_INT,2,0.569490373134613,38978,0.92936110496521,0.01870480179786682,0.03571057692170143,0.36696454882621765,0.014381508342921734,-0.20240642130374908,-0.10360012948513031,"[0.0, 0.0, 0.0, 0.0]",1.6894989013671875,1.7774301767349243,0.0,0.5658054947853088,0.5456394553184509,0.0,39000003,3,369992571,-1220636271,0,65535,65535,57,8101,255,0,0,0,0,0,0,10,0,192,0,3,3
HEARTBEAT,2,0.569490373134613,38978,0.92936110496521,0.01870480179786682,0.03571057692170143,0.36696454882621765,0.014381508342921734,-0.20240642130374908,-0.10360012948513031,"[0.0, 0.0, 0.0, 0.0]",1.6894989013671875,1.7774301767349243,0.0,0.5658054947853088,0.5456394553184509,0.0,39000003,3,369992571,-1220636271,0,65535,65535,57,8101,255,0,0,0,0,0,0,10,0,192,0,3,3
RAW_RPM,0,0.16221846640110016,38978,0.92936110496521,0.01870480179786682,0.03571057692170143,0.36696454882621765,0.014381508342921734,-0.20240642130374908,-0.10360012948513031,"[0.0, 0.0, 0.0, 0.0]",1.6894989013671875,1.7774301767349243,0.0,0.5658054947853088,0.5456394553184509,0.0,39000003,3,369992571,-1220636271,0,65535,65535,57,8101,255,0,0,0,0,0,0,10,0,192,0,3,3
RAW_RPM,1,0.17410682141780853,38978,0.92936110496521,0.01870480179786682,0.03571057692170143,0.36696454882621765,0.014381508342921734,-0.20240642130374908,-0.10360012948513031,"[0.0, 0.0, 0.0, 0.0]",1.6894989013671875,1.7774301767349243,0.0,0.5658054947853088,0.5456394553184509,0.0,39000003,3,369992571,-1220636271,0,65535,65535,57,8101,255,0,0,0,0,0,0,10,0,192,0,3,3
RAW_RPM,2,0.5718201398849487,38978,0.92936110496521,0.01870480179786682,0.03571057692170143,0.36696454882621765,0.014381508342921734,-0.20240642130374908,-0.10360012948513031,"[0.0, 0.0, 0.0, 0.0]",1.6894989013671875,1.7774301767349243,0.0,0.5658054947853088,0.5456394553184509,0.0,39000003,3,369992571,-1220636271,0,65535,65535,57,8101,255,0,0,0,0,0,0,10,0,192,0,3,3
ATTITUDE_QUATERNION,2,0.5718201398849487,39029,0.9296970963478088,0.022147925570607185,0.03605380654335022,0.3658864498138428,0.17177912592887878,-0.12410709261894226,-0.006391781847923994,"[0.0, 0.0, 0.0, 0.0]",1.6894989013671875,1.7774301767349243,0.0,0.5658054947853088,0.5456394553184509,0.0,39000003,3,369992571,-1220636271,0,65535,65535,57,8101,255,0,0,0,0,0,0,10,0,192,0,3,3
LOCAL_POSITION_NED,2,0.5718201398849487,39029,0.9296970963478088,0.022147925570607185,0.03605380654335022,0.3658864498138428,0.17177912592887878,-0.12410709261894226,-0.006391781847923994,"[0.0, 0.0, 0.0, 0.0]",1.7178205251693726,1.8046058416366577,0.0,0.5643372535705566,0.5406876802444458,0.0,39000003,3,369992571,-1220636271,0,65535,65535,57,8101,255,0,0,0,0,0,0,10,0,192,0,3,3
RAW_RPM,0,0.040650490671396255,39029,0.9296970963478088,0.022147925570607185,0.03605380654335022,0.3658864498138428,0.17177912592887878,-0.12410709261894226,-0.006391781847923994,"[0.0, 0.0, 0.0, 0.0]",1.7178205251693726,1.8046058416366577,0.0,0.5643372535705566,0.5406876802444458,0.0,39000003,3,369992571,-1220636271,0,65535,65535,57,8101,255,0,0,0,0,0,0,10,0,192,0,3,3
RAW_RPM,1,0.2136068344116211,39029,0.9296970963478088,0.022147925570607185,0.03605380654335022,0.3658864498138428,0.17177912592887878,-0.12410709261894226,-0.006391781847923994,"[0.0, 0.0, 0.0, 0.0]",1.7178205251693726,1.8046058416366577,0.0,0.5643372535705566,0.5406876802444458,0.0,39000003,3,369992571,-1220636271,0,65535,65535,57,8101,255,0,0,0,0,0,0,10,0,192,0,3,3
RAW_RPM,2,0.5700080990791321,39029,0.9296970963478088,0.022147925570607185,0.03605380654335022,0.3658864498138428,0.17177912592887878,-0.12410709261894226,-0.006391781847923994,"[0.0, 0.0, 0.0, 0.0]",1.7178205251693726,1.8046058416366577,0.0,0.5643372535705566,0.5406876802444458,0.0,39000003,3,369992571,-1220636271,0,65535,65535,57,8101,255,0,0,0,0,0,0,10,0,192,0,3,3
ATTITUDE_QUATERNION,2,0.5700080990791321,39080,0.929807186126709,0.03310897946357727,0.03291619196534157,0.3650738596916199,-0.18722593784332275,0.018376372754573822,-0.12996622920036316,"[0.0, 0.0, 0.0, 0.0]",1.7178205251693726,1.8046058416366577,0.0,0.5643372535705566,0.5406876802444458,0.0,39000003,3,369992571,-1220636271,0,65535,65535,57,8101,255,0,0,0,0,0,0,10,0,192,0,3,3
LOCAL_POSITION_NED,2,0.5700080990791321,39080,0.929807186126709,0.03310897946357727,0.03291619196534157,0.3650738596916199,-0.18722593784332275,0.018376372754573822,-0.12996622920036316,"[0.0, 0.0, 0.0, 0.0]",1.7456181049346924,1.8311711549758911,0.0,0.5471306443214417,0.521450936794281,0.0,39000003,3,369992571,-1220636271,0,65535,65535,57,8101,255,0,0,0,0,0,0,10,0,192,0,3,3
GPS_RAW_INT,2,0.5700080990791321,39080,0.929807186126709,0.03310897946357727,0.03291619196534157,0.3650738596916199,-0.18722593784332275,0.018376372754573822,-0.12996622920036316,"[0.0, 0.0, 0.0, 0.0]",1.7456181049346924,1.8311711549758911,0.0,0.5471306443214417,0.521450936794281,0.0,39101002,3,369992575,-1220636265,0,65535,65535,65,7875,255,0,0,0,0,0,0,10,0,192,0,3,3
RAW_RPM,0,0.12540292739868164,39080,0.929807186126709,0.03310897946357727,0.03291619196534157,0.3650738596916199,-0.18722593784332275,0.018376372754573822,-0.12996622920036316,"[0.0, 0.0, 0.0, 0.0]",1.7456181049346924,1.8311711549758911,0.0,0.5471306443214417,0.521450936794281,0.0,39101002,3,369992575,-1220636265,0,65535,65535,65,7875,255,0,0,0,0,0,0,10,0,192,0,3,3
RAW_RPM,1,0.15876701474189758,39080,0.929807186126709,0.03310897946357727,0.03291619196534157,0.3650738596916199,-0.18722593784332275,0.018376372754573822,-0.12996622920036316,"[0.0, 0.0, 0.0, 0.0]",1.7456181049346924,1.8311711549758911,0.0,0.5471306443214417,0.521450936794281,0.0,39101002,3,369992575,-1220636265,0,65535,65535,65,7875,255,0,0,0,0,0,0,10,0,192,0,3,3
RAW_RPM,2,0.5692315101623535,39080,0.929807186126709,0.03310897946357727,0.03291619196534157,0.3650738596916199,-0.18722593784332275,0.018376372754573822,-0.12996622920036316,"[0.0, 0.0, 0.0, 0.0]",1.7456181049346924,1.8311711549758911,0.0,0.5471306443214417,0.521450936794281,0.0,39101002,3,369992575,-1220636265,0,65535,65535,65,7875,255,0,0,0,0,0,0,10,0,192,0,3,3
ATTITUDE_QUATERNION,2,0.5692315101623535,39131,0.9306239485740662,0.03876333683729172,0.018032945692539215,0.36347123980522156,-0.17071382701396942,0.2878965139389038,-0.18509534001350403,"[0.0, 0.0, 0.0, 0.0]",1.7456181049346924,1.8311711549758911,0.0,0.5471306443214417,0.521450936794281,0.0,39101002,3,369992575,-1220636265,0,65535,65535,65,7875,255,0,0,0,0,0,0,10,0,192,0,3,3
LOCAL_POSITION_NED,2,0.5692315101623535,39131,0.9306239485740662,0.03876333683729172,0.018032945692539215,0.36347123980522156,-0.17071382701396942,0.2878965139389038,-0.18509534001350403,"[0.0, 0.0, 0.0, 0.0]",1.7724262475967407,1.8565940856933594,0.0,0.52815181016922,0.49892306327819824,0.0,39101002,3,369992575,-1220636265,0,65535,65535,65,7875,255,0,0,0,0,0,0,10,0,192,0,3,3
RAW_RPM,0,0.031446605920791626,39131,0.9306239485740662,0.03876333683729172,0.018032945692539215,0.36347123980522156,-0.17071382701396942,0.2878965139389038,-0.18509534001350403,"[0.0, 0.0, 0.0, 0.0]",1.7724262475967407,1.8565940856933594,0.0,0.52815181016922,0.49892306327819824,0.0,39101002,3,369992575,-1220636265,0,65535,65535,65,7875,255,0,0,0,0,0,0,10,0,192,0,3,3
RAW_RPM,1,0.17602430284023285,39131,0.9306239485740662,0.03876333683729172,0.018032945692539215,0.36347123980522156,-0.17071382701396942,0.2878965139389038,-0.18509534001350403,"[0.0, 0.0, 0.0, 0.0]",1.7724262475967407,1.8565940856933594,0.0,0.52815181016922,0.49892306327819824,0.0,39101002,3,369992575,-1220636265,0,65535,65535,65,7875,255,0,0,0,0,0,0,10,0,192,0,3,3
RAW_RPM,2,0.5705258250236511,39131,0.9306239485740662,0.03876333683729172,0.018032945692539215,0.36347123980522156,-0.17071382701396942,0.2878965139389038,-0.18509534001350403,"[0.0, 0.0, 0.0, 0.0]",1.7724262475967407,1.8565940856933594,0.0,0.52815181016922,0.49892306327819824,0.0,39101002,3,369992575,-1220636265,0,65535,65535,65,7875,255,0,0,0,0,0,0,10,0,192,0,3,3
ATTITUDE_QUATERNION,2,0.5705258250236511,39182,0.9311418533325195,0.04022196680307388,0.007949413731694221,0.36234480142593384,0.25886717438697815,0.20560230314731598,-0.1621914505958557,"[0.0, 0.0, 0.0, 0.0]",1.7724262475967407,1.8565940856933594,0.0,0.52815181016922,0.49892306327819824,0.0,39101002,3,369992575,-1220636265,0,65535,65535,65,7875,255,0,0,0,0,0,0,10,0,192,0,3,3
LOCAL_POSITION_NED,2,0.5705258250236511,39182,0.9311418533325195,0.04022196680307388,0.007949413731694221,0.36234480142593384,0.25886717438697815,0.20560230314731598,-0.1621914505958557,"[0.0, 0.0, 0.0, 0.0]",1.7988849878311157,1.8814635276794434,0.0,0.526931881904602,0.49314963817596436,0.0,39101002,3,369992575,-1220636265,0,65535,65535,65,7875,255,0,0,0,0,0,0,10,0,192,0,3,3
GPS_RAW_INT,2,0.5705258250236511,39182,0.9311418533325195,0.04022196680307388,0.007949413731694221,0.36234480142593384,0.25886717438697815,0.20560230314731598,-0.1621914505958557,"[0.0, 0.0, 0.0, 0.0]",1.7988849878311157,1.8814635276794434,0.0,0.526931881904602,0.49314963817596436,0.0,39202007,3,369992576,-1220636258,0,65535,65535,62,7972,255,0,0,0,0,0,0,10,0,192,0,3,3
RAW_RPM,0,0.14649516344070435,39182,0.9311418533325195,0.04022196680307388,0.007949413731694221,0.36234480142593384,0.25886717438697815,0.20560230314731598,-0.1621914505958557,"[0.0, 0.0, 0.0, 0.0]",1.7988849878311157,1.8814635276794434,0.0,0.526931881904602,0.49314963817596436,0.0,39202007,3,369992576,-1220636258,0,65535,65535,62,7972,255,0,0,0,0,0,0,10,0,192,0,3,3
RAW_RPM,1,0.24582043290138245,39182,0.9311418533325195,0.04022196680307388,0.007949413731694221,0.36234480142593384,0.25886717438697815,0.20560230314731598,-0.1621914505958557,"[0.0, 0.0, 0.0, 0.0]",1.7988849878311157,1.8814635276794434,0.0,0.526931881904602,0.49314963817596436,0.0,39202007,3,369992576,-1220636258,0,65535,65535,62,7972,255,0,0,0,0,0,0,10,0,192,0,3,3
RAW_RPM,2,0.5669018030166626,39182,0.9311418533325195,0.04022196680307388,0.007949413731694221,0.36234480142593384,0.25886717438697815,0.20560230314731598,-0.1621914505958557,"[0.0, 0.0, 0.0, 0.0]",1.7988849878311157,1.8814635276794434,0.0,0.526931881904602,0.49314963817596436,0.0,39202007,3,369992576,-1220636258,0,65535,65535,62,7972,255,0,0,0,0,0,0,10,0,192,0,3,3
ATTITUDE_QUATERNION,2,0.5669018030166626,39233,0.9315730929374695,0.04996383562684059,-0.00019980587239842862,0.3601042926311493,0.008256050758063793,0.054596465080976486,-0.1315641701221466,"[0.0, 0.0, 0.0, 0.0]",1.7988849878311157,1.8814635276794434,0.0,0.526931881904602,0.49314963817596436,0.0,39202007,3,369992576,-1220636258,0,65535,65535,62,7972,255,0,0,0,0,0,0,10,0,192,0,3,3
LOCAL_POSITION_NED,2,0.5669018030166626,39233,0.9315730929374695,0.04996383562684059,-0.00019980587239842862,0.3601042926311493,0.008256050758063793,0.054596465080976486,-0.1315641701221466,"[0.0, 0.0, 0.0, 0.0]",1.824873924255371,1.9056321382522583,0.0,0.5174950957298279,0.4782409369945526,0.0,39202007,3,369992576,-1220636258,0,65535,65535,62,7972,255,0,0,0,0,0,0,10,0,192,0,3,3
RAW_RPM,0,0.17832526564598083,39233,0.9315730929374695,0.04996383562684059,-0.00019980587239842862,0.3601042926311493,0.008256050758063793,0.054596465080976486,-0.1315641701221466,"[0.0, 0.0, 0.0, 0.0]",1.824873924255371,1.9056321382522583,0.0,0.5174950957298279,0.4782409369945526,0.0,39202007,3,369992576,-1220636258,0,65535,65535,62,7972,255,0,0,0,0,0,0,10,0,192,0,3,3
RAW_RPM,1,0.2178252786397934,39233,0.9315730929374695,0.04996383562684059,-0.00019980587239842862,0.3601042926311493,0.008256050758063793,0.054596465080976486,-0.1315641701221466,"[0.0, 0.0, 0.0, 0.0]",1.824873924255371,1.9056321382522583,0.0,0.5174950957298279,0.4782409369945526,0.0,39202007,3,369992576,-1220636258,0,65535,65535,62,7972,255,0,0,0,0,0,0,10,0,192,0,3,3
RAW_RPM,2,0.5679371953010559,39233,0.9315730929374695,0.04996383562684059,-0.00019980587239842862,0.3601042926311493,0.008256050758063793,0.054596465080976486,-0.1315641701221466,"[0.0, 0.0, 0.0, 0.0]",1.824873924255371,1.9056321382522583,0.0,0.5174950957298279,0.4782409369945526,0.0,39202007,3,369992576,-1220636258,0,65535,65535,62,7972,255,0,0,0,0,0,0,10,0,192,0,3,3
ATTITUDE_QUATERNION,2,0.5679371953010559,39284,0.9323660731315613,0.06049593538045883,-0.008297491818666458,0.35632145404815674,0.1387549340724945,-0.04474247246980667,-0.05299852415919304,"[0.0, 0.0, 0.0, 0.0]",1.824873924255371,1.9056321382522583,0.0,0.5174950957298279,0.4782409369945526,0.0,39202007,3,369992576,-1220636258,0,65535,65535,62,7972,255,0,0,0,0,0,0,10,0,192,0,3,3
LOCAL_POSITION_NED,2,0.5679371953010559,39284,0.9323660731315613,0.06049593538045883,-0.008297491818666458,0.35632145404815674,0.1387549340724945,-0.04474247246980667,-0.05299852415919304,"[0.0, 0.0, 0.0, 0.0]",1.8518073558807373,1.930421233177185,0.0,0.5538394451141357,0.5073571801185608,0.0,39202007,3,369992576,-1220636258,0,65535,65535,62,7972,255,0,0,0,0,0,0,10,0,192,0,3,3
GPS_RAW_INT,2,0.5679371953010559,39284,0.9323660731315613,0.06049593538045883,-0.008297491818666458,0.35632145404815674,0.1387549340724945,-0.04474247246980667,-0.05299852415919304,"[0.0, 0.0, 0.0, 0.0]",1.8518073558807373,1.930421233177185,0.0,0.5538394451141357,0.5073571801185608,0.0,39303004,3,369992576,-1220636250,0,65535,65535,69,8208,255,0,0,0,0,0,0,10,0,192,0,3,3
RAW_RPM,0,0.1913641095161438,39284,0.9323660731315613,0.06049593538045883,-0.008297491818666458,0.35632145404815674,0.1387549340724945,-0.04474247246980667,-0.05299852415919304,"[0.0, 0.0, 0.0, 0.0]",1.8518073558807373,1.930421233177185,0.0,0.5538394451141357,0.5073571801185608,0.0,39303004,3,369992576,-1220636250,0,65535,65535,69,8208,255,0,0,0,0,0,0,10,0,192,0,3,3
RAW_RPM,1,0.1672039031982422,39284,0.9323660731315613,0.06049593538045883,-0.008297491818666458,0.35632145404815674,0.1387549340724945,-0.04474247246980667,-0.05299852415919304,"[0.0, 0.0, 0.0, 0.0]",1.8518073558807373,1.930421233177185,0.0,0.5538394451141357,0.5073571801185608,0.0,39303004,3,369992576,-1220636250,0,65535,65535,69,8208,255,0,0,0,0,0,0,10,0,192,0,3,3
RAW_RPM,2,0.5679371953010559,39284,0.9323660731315613,0.06049593538045883,-0.008297491818666458,0.35632145404815674,0.1387549340724945,-0.04474247246980667,-0.05299852415919304,"[0.0, 0.0, 0.0, 0.0]",1.8518073558807373,1.930421233177185,0.0,0.5538394451141357,0.5073571801185608,0.0,39303004,3,369992576,-1220636250,0,65535,65535,69,8208,255,0,0,0,0,0,0,10,0,192,0,3,3
ATTITUDE_QUATERNION,2,0.5679371953010559,39335,0.933535099029541,0.06007736548781395,-0.01582241989672184,0.3530619740486145,0.02396918274462223,0.18536166846752167,-0.06711370497941971,"[0.0, 0.0, 0.0, 0.0]",1.8518073558807373,1.930421233177185,0.0,0.5538394451141357,0.5073571801185608,0.0,39303004,3,369992576,-1220636250,0,65535,65535,69,8208,255,0,0,0,0,0,0,10,0,192,0,3,3
LOCAL_POSITION_NED,2,0.5679371953010559,39335,0.933535099029541,0.06007736548781395,-0.01582241989672184,0.3530619740486145,0.02396918274462223,0.18536166846752167,-0.06711370497941971,"[0.0, 0.0, 0.0, 0.0]",1.8799933195114136,1.9559491872787476,0.0,0.5670884251594543,0.5112539529800415,0.0,39303004,3,369992576,-1220636250,0,65535,65535,69,8208,255,0,0,0,0,0,0,10,0,192,0,3,3
RAW_RPM,0,0.10316020995378494,39335,0.933535099029541,0.06007736548781395,-0.01582241989672184,0.3530619740486145,0.02396918274462223,0.18536166846752167,-0.06711370497941971,"[0.0, 0.0, 0.0, 0.0]",1.8799933195114136,1.9559491872787476,0.0,0.5670884251594543,0.5112539529800415,0.0,39303004,3,369992576,-1220636250,0,65535,65535,69,8208,255,0,0,0,0,0,0,10,0,192,0,3,3
RAW_RPM,1,0.22702915966510773,39335,0.933535099029541,0.06007736548781395,-0.01582241989672184,0.3530619740486145,0.02396918274462223,0.18536166846752167,-0.06711370497941971,"[0.0, 0.0, 0.0, 0.0]",1.8799933195114136,1.9559491872787476,0.0,0.5670884251594543,0.5112539529800415,0.0,39303004,3,369992576,-1220636250,0,65535,65535,69,8208,255,0,0,0,0,0,0,10,0,192,0,3,3
RAW_RPM,2,0.5705258250236511,39335,0.933535099029541,0.06007736548781395,-0.01582241989672184,0.3530619740486145,0.02396918274462223,0.18536166846752167,-0.06711370497941971,"[0.0, 0.0, 0.0, 0.0]",1.8799933195114136,1.9559491872787476,0.0,0.5670884251594543,0.5112539529800415,0.0,39303004,3,369992576,-1220636250,0,65535,65535,69,8208,255,0,0,0,0,0,0,10,0,192,0,3,3
ATTITUDE_QUATERNION,2,0.5705258250236511,39386,0.9344810843467712,0.06702766567468643,-0.011587169952690601,0.3494541049003601,0.2162552773952484,-0.2415560781955719,-0.03542112559080124,"[0.0, 0.0, 0.0, 0.0]",1.8799933195114136,1.9559491872787476,0.0,0.5670884251594543,0.5112539529800415,0.0,39303004,3,369992576,-1220636250,0,65535,65535,69,8208,255,0,0,0,0,0,0,10,0,192,0,3,3
LOCAL_POSITION_NED,2,0.5705258250236511,39387,0.9344810843467712,0.06702766567468643,-0.011587169952690601,0.3494541049003601,0.2162552773952484,-0.2415560781955719,-0.03542112559080124,"[0.0, 0.0, 0.0, 0.0]",1.914254069328308,1.9865514039993286,0.0,0.5693646669387817,0.5048959255218506,0.0,39303004,3,369992576,-1220636250,0,65535,65535,69,8208,255,0,0,0,0,0,0,10,0,192,0,3,3
GPS_RAW_INT,2,0.5705258250236511,39387,0.9344810843467712,0.06702766567468643,-0.011587169952690601,0.3494541049003601,0.2162552773952484,-0.2415560781955719,-0.03542112559080124,"[0.0, 0.0, 0.0, 0.0]",1.914254069328308,1.9865514039993286,0.0,0.5693646669387817,0.5048959255218506,0.0,39404006,3,369992576,-1220636250,0,65535,65535,69,8208,255,0,0,0,0,0,0,10,0,192,0,3,3
RAW_RPM,0,0.21859227120876312,39387,0.9344810843467712,0.06702766567468643,-0.011587169952690601,0.3494541049003601,0.2162552773952484,-0.2415560781955719,-0.03542112559080124,"[0.0, 0.0, 0.0, 0.0]",1.914254069328308,1.9865514039993286,0.0,0.5693646669387817,0.5048959255218506,0.0,39404006,3,369992576,-1220636250,0,65535,65535,69,8208,255,0,0,0,0,0,0,10,0,192,0,3,3
RAW_RPM,1,0.16221846640110016,39387,0.9344810843467712,0.06702766567468643,-0.011587169952690601,0.3494541049003601,0.2162552773952484,-0.2415560781955719,-0.03542112559080124,"[0.0, 0.0, 0.0, 0.0]",1.914254069328308,1.9865514039993286,0.0,0.5693646669387817,0.5048959255218506,0.0,39404006,3,369992576,-1220636250,0,65535,65535,69,8208,255,0,0,0,0,0,0,10,0,192,0,3,3
RAW_RPM,2,0.568972647190094,39387,0.9344810843467712,0.06702766567468643,-0.011587169952690601,0.3494541049003601,0.2162552773952484,-0.2415560781955719,-0.03542112559080124,"[0.0, 0.0, 0.0, 0.0]",1.914254069328308,1.9865514039993286,0.0,0.5693646669387817,0.5048959255218506,0.0,39404006,3,369992576,-1220636250,0,65535,65535,69,8208,255,0,0,0,0,0,0,10,0,192,0,3,3
ATTITUDE_QUATERNION,2,0.568972647190094,39437,0.9351534843444824,0.07254264503717422,-0.020589584484696388,0.3461236357688904,-0.046074092388153076,-0.01784372515976429,-0.04713939130306244,"[0.0, 0.0, 0.0, 0.0]",1.914254069328308,1.9865514039993286,0.0,0.5693646669387817,0.5048959255218506,0.0,39404006,3,369992576,-1220636250,0,65535,65535,69,8208,255,0,0,0,0,0,0,10,0,192,0,3,3
LOCAL_POSITION_NED,2,0.568972647190094,39437,0.9351534843444824,0.07254264503717422,-0.020589584484696388,0.3461236357688904,-0.046074092388153076,-0.01784372515976429,-0.04713939130306244,"[0.0, 0.0, 0.0, 0.0]",1.9430875778198242,2.0118727684020996,0.0,0.5808431506156921,0.5070714354515076,0.0,39404006,3,369992576,-1220636250,0,65535,65535,69,8208,255,0,0,0,0,0,0,10,0,192,0,3,3
RAW_RPM,0,0.15071362257003784,39437,0.9351534843444824,0.07254264503717422,-0.020589584484696388,0.3461236357688904,-0.046074092388153076,-0.01784372515976429,-0.04713939130306244,"[0.0, 0.0, 0.0, 0.0]",1.9430875778198242,2.0118727684020996,0.0,0.5808431506156921,0.5070714354515076,0.0,39404006,3,369992576,-1220636250,0,65535,65535,69,8208,255,0,0,0,0,0,0,10,0,192,0,3,3
RAW_RPM,1,0.17180585861206055,39437,0.9351534843444824,0.07254264503717422,-0.020589584484696388,0.3461236357688904,-0.046074092388153076,-0.01784372515976429,-0.04713939130306244,"[0.0, 0.0, 0.0, 0.0]",1.9430875778198242,2.0118727684020996,0.0,0.5808431506156921,0.5070714354515076,0.0,39404006,3,369992576,-1220636250,0,65535,65535,69,8208,255,0,0,0,0,0,0,10,0,192,0,3,3
RAW_RPM,2,0.5697492361068726,39437,0.9351534843444824,0.07254264503717422,-0.020589584484696388,0.3461236357688904,-0.046074092388153076,-0.01784372515976429,-0.04713939130306244,"[0.0, 0.0, 0.0, 0.0]",1.9430875778198242,2.0118727684020996,0.0,0.5808431506156921,0.5070714354515076,0.0,39404006,3,369992576,-1220636250,0,65535,65535,69,8208,255,0,0,0,0,0,0,10,0,192,0,3,3
ATTITUDE_QUATERNION,2,0.5697492361068726,39488,0.9359593391418457,0.06978576630353928,-0.03162144869565964,0.34367191791534424,0.07963094860315323,0.10519807785749435,0.0540638193488121,"[0.0, 0.0, 0.0, 0.0]",1.9430875778198242,2.0118727684020996,0.0,0.5808431506156921,0.5070714354515076,0.0,39404006,3,369992576,-1220636250,0,65535,65535,69,8208,255,0,0,0,0,0,0,10,0,192,0,3,3
LOCAL_POSITION_NED,2,0.5697492361068726,39488,0.9359593391418457,0.06978576630353928,-0.03162144869565964,0.34367191791534424,0.07963094860315323,0.10519807785749435,0.0540638193488121,"[0.0, 0.0, 0.0, 0.0]",1.9720407724380493,2.0369064807891846,0.0,0.5697793364524841,0.48974305391311646,0.0,39404006,3,369992576,-1220636250,0,65535,65535,69,8208,255,0,0,0,0,0,0,10,0,192,0,3,3
GPS_RAW_INT,2,0.5697492361068726,39488,0.9359593391418457,0.06978576630353928,-0.03162144869565964,0.34367191791534424,0.07963094860315323,0.10519807785749435,0.0540638193488121,"[0.0, 0.0, 0.0, 0.0]",1.9720407724380493,2.0369064807891846,0.0,0.5697793364524841,0.48974305391311646,0.0,39505005,3,369992580,-1220636238,0,65535,65535,63,8112,255,0,0,0,0,0,0,10,0,192,0,3,3
RAW_RPM,0,0.155315563082695,39488,0.9359593391418457,0.06978576630353928,-0.03162144869565964,0.34367191791534424,0.07963094860315323,0.10519807785749435,0.0540638193488121,"[0.0, 0.0, 0.0, 0.0]",1.9720407724380493,2.0369064807891846,0.0,0.5697793364524841,0.48974305391311646,0.0,39505005,3,369992580,-1220636238,0,65535,65535,63,8112,255,0,0,0,0,0,0,10,0,192,0,3,3
RAW_RPM,1,0.23278158903121948,39488,0.9359593391418457,0.06978576630353928,-0.03162144869565964,0.34367191791534424,0.07963094860315323,0.10519807785749435,0.0540638193488121,"[0.0, 0.0, 0.0, 0.0]",1.9720407724380493,2.0369064807891846,0.0,0.5697793364524841,0.48974305391311646,0.0,39505005,3,369992580,-1220636238,0,65535,65535,63,8112,255,0,0,0,0,0,0,10,0,192,0,3,3
RAW_RPM,2,0.5692315101623535,39488,0.9359593391418457,0.06978576630353928,-0.03162144869565964,0.34367191791534424,0.07963094860315323,0.10519807785749435,0.0540638193488121,"[0.0, 0.0, 0.0, 0.0]",1.9720407724380493,2.0369064807891846,0.0,0.5697793364524841,0.48974305391311646,0.0,39505005,3,369992580,-1220636238,0,65535,65535,63,8112,255,0,0,0,0,0,0,10,0,192,0,3,3
ATTITUDE_QUATERNION,2,0.5692315101623535,39539,0.9365044832229614,0.07869820296764374,-0.03739355877041817,0.33965829014778137,0.07057592272758484,0.11531839519739151,0.033556852489709854,"[0.0, 0.0, 0.0, 0.0]",1.9720407724380493,2.0369064807891846,0.0,0.5697793364524841,0.48974305391311646,0.0,39505005,3,369992580,-1220636238,0,65535,65535,63,8112,255,0,0,0,0,0,0,10,0,192,0,3,3
LOCAL_POSITION_NED,2,0.5692315101623535,39539,0.9365044832229614,0.07869820296764374,-0.03739355877041817,0.33965829014778137,0.07057592272758484,0.11531839519739151,0.033556852489709854,"[0.0, 0.0, 0.0, 0.0]",2.000368118286133,2.061035633087158,0.0,0.5628406405448914,0.4755895733833313,0.0,39505005,3,369992580,-1220636238,0,65535,65535,63,8112,255,0,0,0,0,0,0,10,0,192,0,3,3
RAW_RPM,0,0.2105388641357422,39539,0.9365044832229614,0.07869820296764374,-0.03739355877041817,0.33965829014778137,0.07057592272758484,0.11531839519739151,0.033556852489709854,"[0.0, 0.0, 0.0, 0.0]",2.000368118286133,2.061035633087158,0.0,0.5628406405448914,0.4755895733833313,0.0,39505005,3,369992580,-1220636238,0,65535,65535,63,8112,255,0,0,0,0,0,0,10,0,192,0,3,3
RAW_RPM,1,0.19788353145122528,39539,0.9365044832229614,0.07869820296764374,-0.03739355877041817,0.33965829014778137,0.07057592272758484,0.11531839519739151,0.033556852489709854,"[0.0, 0.0, 0.0, 0.0]",2.000368118286133,2.061035633087158,0.0,0.5628406405448914,0.4755895733833313,0.0,39505005,3,369992580,-1220636238,0,65535,65535,63,8112,255,0,0,0,0,0,0,10,0,192,0,3,3
RAW_RPM,2,0.5679371953010559,39539,0.9365044832229614,0.07869820296764374,-0.03739355877041817,0.33965829014778137,0.07057592272758484,0.11531839519739151,0.033556852489709854,"[0.0, 0.0, 0.0, 0.0]",2.000368118286133,2.061035633087158,0.0,0.5628406405448914,0.4755895733833313,0.0,39505005,3,369992580,-1220636238,0,65535,65535,63,8112,255,0,0,0,0,0,0,10,0,192,0,3,3
ATTITUDE_QUATERNION,2,0.5679371953010559,39590,0.9374328255653381,0.08113483339548111,-0.040134403854608536,0.3361935615539551,-0.1451467126607895,-0.07403813302516937,-0.17923621833324432,"[0.0, 0.0, 0.0, 0.0]",2.000368118286133,2.061035633087158,0.0,0.5628406405448914,0.4755895733833313,0.0,39505005,3,369992580,-1220636238,0,65535,65535,63,8112,255,0,0,0,0,0,0,10,0,192,0,3,3
LOCAL_POSITION_NED,2,0.5679371953010559,39590,0.9374328255653381,0.08113483339548111,-0.040134403854608536,0.3361935615539551,-0.1451467126607895,-0.07403813302516937,-0.17923621833324432,"[0.0, 0.0, 0.0, 0.0]",2.029268980026245,2.0852913856506348,0.0,0.5895484089851379,0.4922189712524414,0.0,39505005,3,369992580,-1220636238,0,65535,65535,63,8112,255,0,0,0,0,0,0,10,0,192,0,3,3
