mavpackettype,time_boot_ms,port,chan1_raw,chan2_raw,chan3_raw,chan4_raw,chan5_raw,chan6_raw,chan7_raw,chan8_raw,rssi,time_usec,xacc,yacc,zacc,xgyro,ygyro,zgyro,xmag,ymag,zmag,id,temperature,chan1_scaled,chan2_scaled,chan3_scaled,chan4_scaled,chan5_scaled,chan6_scaled,chan7_scaled,chan8_scaled,fix_type,lat,lon,alt,eph,epv,vel,cog,satellites_visible,alt_ellipsoid,h_acc,v_acc,vel_acc,hdg_acc,yaw,type,autopilot,base_mode,custom_mode,system_status,mavlink_version
RAW_IMU,266571,0,172,992,934,950,172,172,172,1811,255,266571145,666,-391,16662,-34,70,-22,-61,-83,-310,0,-48,2,0,-1,1654,-1,-1,-1,-1,3,369603621,-1220327806,0,65535,65535,2,0,255,0,0,0,0,0,0,10,0,192,0,3,3
RC_CHANNELS_SCALED,266571,1,172,992,934,950,172,172,172,1811,255,266571145,666,-391,16662,-34,70,-22,-61,-83,-310,0,-48,0,4,0,1654,-1,-1,-1,-1,3,369603621,-1220327806,0,65535,65535,2,0,255,0,0,0,0,0,0,10,0,192,0,3,3
GPS_RAW_INT,266571,1,172,992,934,950,172,172,172,1811,255,266588007,666,-391,16662,-34,70,-22,-61,-83,-310,0,-48,0,4,0,1654,-1,-1,-1,-1,3,369603623,-1220327808,0,65535,65535,4,0,255,0,0,0,0,0,0,10,0,192,0,3,3
RC_CHANNELS_RAW,266591,0,172,992,933,950,172,172,172,1811,255,266588007,666,-391,16662,-34,70,-22,-61,-83,-310,0,-48,0,4,0,1654,-1,-1,-1,-1,3,369603623,-1220327808,0,65535,65535,4,0,255,0,0,0,0,0,0,10,0,192,0,3,3
RAW_IMU,266591,0,172,992,933,950,172,172,172,1811,255,266591144,638,-348,16641,-24,83,-7,-65,-75,-314,0,-48,0,4,0,1654,-1,-1,-1,-1,3,369603623,-1220327808,0,65535,65535,4,0,255,0,0,0,0,0,0,10,0,192,0,3,3
RC_CHANNELS_SCALED,266591,1,172,992,933,950,172,172,172,1811,255,266591144,638,-348,16641,-24,83,-7,-65,-75,-314,0,-48,-1,3,0,1655,-1,-1,-1,-1,3,369603623,-1220327808,0,65535,65535,4,0,255,0,0,0,0,0,0,10,0,192,0,3,3
RC_CHANNELS_RAW,266611,0,172,992,933,950,172,172,172,1811,255,266591144,638,-348,16641,-24,83,-7,-65,-75,-314,0,-48,-1,3,0,1655,-1,-1,-1,-1,3,369603623,-1220327808,0,65535,65535,4,0,255,0,0,0,0,0,0,10,0,192,0,3,3
RAW_IMU,266611,0,172,992,933,950,172,172,172,1811,255,266611144,670,-366,16623,-19,70,-27,-74,-81,-315,0,-32,-1,3,0,1655,-1,-1,-1,-1,3,369603623,-1220327808,0,65535,65535,4,0,255,0,0,0,0,0,0,10,0,192,0,3,3
RC_CHANNELS_SCALED,266611,1,172,992,933,950,172,172,172,1811,255,266611144,670,-366,16623,-19,70,-27,-74,-81,-315,0,-32,0,-3,0,1654,-1,-1,-1,-1,3,369603623,-1220327808,0,65535,65535,4,0,255,0,0,0,0,0,0,10,0,192,0,3,3
RC_CHANNELS_RAW,266631,0,172,992,933,950,172,172,172,1811,255,266611144,670,-366,16623,-19,70,-27,-74,-81,-315,0,-32,0,-3,0,1654,-1,-1,-1,-1,3,369603623,-1220327808,0,65535,65535,4,0,255,0,0,0,0,0,0,10,0,192,0,3,3
RAW_IMU,266631,0,172,992,933,950,172,172,172,1811,255,266631146,711,-333,16649,-29,61,-16,-67,-77,-304,0,-48,0,-3,0,1654,-1,-1,-1,-1,3,369603623,-1220327808,0,65535,65535,4,0,255,0,0,0,0,0,0,10,0,192,0,3,3
RC_CHANNELS_SCALED,266631,1,172,992,933,950,172,172,172,1811,255,266631146,711,-333,16649,-29,61,-16,-67,-77,-304,0,-48,-1,-1,5,1656,-1,-1,-1,-1,3,369603623,-1220327808,0,65535,65535,4,0,255,0,0,0,0,0,0,10,0,192,0,3,3
RC_CHANNELS_RAW,266651,0,172,992,933,950,172,172,172,1811,255,266631146,711,-333,16649,-29,61,-16,-67,-77,-304,0,-48,-1,-1,5,1656,-1,-1,-1,-1,3,369603623,-1220327808,0,65535,65535,4,0,255,0,0,0,0,0,0,10,0,192,0,3,3
RAW_IMU,266651,0,172,992,933,950,172,172,172,1811,255,266651140,649,-385,16690,-42,62,-26,-61,-78,-315,0,-48,-1,-1,5,1656,-1,-1,-1,-1,3,369603623,-1220327808,0,65535,65535,4,0,255,0,0,0,0,0,0,10,0,192,0,3,3
RC_CHANNELS_SCALED,266651,1,172,992,933,950,172,172,172,1811,255,266651140,649,-385,16690,-42,62,-26,-61,-78,-315,0,-48,3,-3,4,1656,-1,-1,-1,-1,3,369603623,-1220327808,0,65535,65535,4,0,255,0,0,0,0,0,0,10,0,192,0,3,3
RC_CHANNELS_RAW,266671,0,172,992,933,950,172,172,172,1811,255,266651140,649,-385,16690,-42,62,-26,-61,-78,-315,0,-48,3,-3,4,1656,-1,-1,-1,-1,3,369603623,-1220327808,0,65535,65535,4,0,255,0,0,0,0,0,0,10,0,192,0,3,3
RAW_IMU,266671,0,172,992,933,950,172,172,172,1811,255,266671147,683,-325,16744,-36,73,-27,-70,-77,-309,0,-48,3,-3,4,1656,-1,-1,-1,-1,3,369603623,-1220327808,0,65535,65535,4,0,255,0,0,0,0,0,0,10,0,192,0,3,3
RC_CHANNELS_SCALED,266671,1,172,992,933,950,172,172,172,1811,255,266671147,683,-325,16744,-36,73,-27,-70,-77,-309,0,-48,3,1,-2,1653,-1,-1,-1,-1,3,369603623,-1220327808,0,65535,65535,4,0,255,0,0,0,0,0,0,10,0,192,0,3,3
GPS_RAW_INT,266671,1,172,992,933,950,172,172,172,1811,255,266689009,683,-325,16744,-36,73,-27,-70,-77,-309,0,-48,3,1,-2,1653,-1,-1,-1,-1,3,369603621,-1220327810,0,65535,65535,5,0,255,0,0,0,0,0,0,10,0,192,0,3,3
RC_CHANNELS_RAW,266691,0,172,992,933,950,172,172,172,1811,255,266689009,683,-325,16744,-36,73,-27,-70,-77,-309,0,-48,3,1,-2,1653,-1,-1,-1,-1,3,369603621,-1220327810,0,65535,65535,5,0,255,0,0,0,0,0,0,10,0,192,0,3,3
RAW_IMU,266691,0,172,992,933,950,172,172,172,1811,255,266691144,661,-395,16623,-43,75,-24,-58,-85,-307,0,-144,3,1,-2,1653,-1,-1,-1,-1,3,369603621,-1220327810,0,65535,65535,5,0,255,0,0,0,0,0,0,10,0,192,0,3,3
RC_CHANNELS_SCALED,266691,1,172,992,933,950,172,172,172,1811,255,266691144,661,-395,16623,-43,75,-24,-58,-85,-307,0,-144,-1,1,0,1655,-1,-1,-1,-1,3,369603621,-1220327810,0,65535,65535,5,0,255,0,0,0,0,0,0,10,0,192,0,3,3
RC_CHANNELS_RAW,266711,0,172,992,934,950,172,172,172,1811,255,266691144,661,-395,16623,-43,75,-24,-58,-85,-307,0,-144,-1,1,0,1655,-1,-1,-1,-1,3,369603621,-1220327810,0,65535,65535,5,0,255,0,0,0,0,0,0,10,0,192,0,3,3
RAW_IMU,266711,0,172,992,934,950,172,172,172,1811,255,266711143,639,-329,16584,-23,73,-19,-71,-78,-305,0,-32,-1,1,0,1655,-1,-1,-1,-1,3,369603621,-1220327810,0,65535,65535,5,0,255,0,0,0,0,0,0,10,0,192,0,3,3
RC_CHANNELS_SCALED,266711,1,172,992,934,950,172,172,172,1811,255,266711143,639,-329,16584,-23,73,-19,-71,-78,-305,0,-32,1,0,-3,1652,-1,-1,-1,-1,3,369603621,-1220327810,0,65535,65535,5,0,255,0,0,0,0,0,0,10,0,192,0,3,3
RC_CHANNELS_RAW,266731,0,172,992,934,950,172,172,172,1811,255,266711143,639,-329,16584,-23,73,-19,-71,-78,-305,0,-32,1,0,-3,1652,-1,-1,-1,-1,3,369603621,-1220327810,0,65535,65535,5,0,255,0,0,0,0,0,0,10,0,192,0,3,3
RAW_IMU,266731,0,172,992,934,950,172,172,172,1811,255,266731145,703,-357,16639,-33,75,-32,-75,-79,-318,0,-160,1,0,-3,1652,-1,-1,-1,-1,3,369603621,-1220327810,0,65535,65535,5,0,255,0,0,0,0,0,0,10,0,192,0,3,3
RC_CHANNELS_SCALED,266731,1,172,992,934,950,172,172,172,1811,255,266731145,703,-357,16639,-33,75,-32,-75,-79,-318,0,-160,1,-1,2,1654,-1,-1,-1,-1,3,369603621,-1220327810,0,65535,65535,5,0,255,0,0,0,0,0,0,10,0,192,0,3,3
RC_CHANNELS_RAW,266751,0,172,992,934,950,172,172,172,1811,255,266731145,703,-357,16639,-33,75,-32,-75,-79,-318,0,-160,1,-1,2,1654,-1,-1,-1,-1,3,369603621,-1220327810,0,65535,65535,5,0,255,0,0,0,0,0,0,10,0,192,0,3,3
RAW_IMU,266751,0,172,992,934,950,172,172,172,1811,255,266751148,646,-361,16640,-27,69,-14,-66,-88,-315,0,-144,1,-1,2,1654,-1,-1,-1,-1,3,369603621,-1220327810,0,65535,65535,5,0,255,0,0,0,0,0,0,10,0,192,0,3,3
RC_CHANNELS_SCALED,266751,1,172,992,934,950,172,172,172,1811,255,266751148,646,-361,16640,-27,69,-14,-66,-88,-315,0,-144,-2,3,-2,1653,-1,-1,-1,-1,3,369603621,-1220327810,0,65535,65535,5,0,255,0,0,0,0,0,0,10,0,192,0,3,3
RC_CHANNELS_RAW,266771,0,172,992,934,950,172,172,172,1811,255,266751148,646,-361,16640,-27,69,-14,-66,-88,-315,0,-144,-2,3,-2,1653,-1,-1,-1,-1,3,369603621,-1220327810,0,65535,65535,5,0,255,0,0,0,0,0,0,10,0,192,0,3,3
RAW_IMU,266771,0,172,992,934,950,172,172,172,1811,255,266771145,697,-385,16624,-23,78,-7,-65,-77,-314,0,16,-2,3,-2,1653,-1,-1,-1,-1,3,369603621,-1220327810,0,65535,65535,5,0,255,0,0,0,0,0,0,10,0,192,0,3,3
RC_CHANNELS_SCALED,266771,1,172,992,934,950,172,172,172,1811,255,266771145,697,-385,16624,-23,78,-7,-65,-77,-314,0,16,4,0,-1,1655,-1,-1,-1,-1,3,369603621,-1220327810,0,65535,65535,5,0,255,0,0,0,0,0,0,10,0,192,0,3,3
GPS_RAW_INT,266771,1,172,992,934,950,172,172,172,1811,255,266790006,697,-385,16624,-23,78,-7,-65,-77,-314,0,16,4,0,-1,1655,-1,-1,-1,-1,3,369603621,-1220327810,0,65535,65535,5,0,255,0,0,0,0,0,0,10,0,192,0,3,3
RC_CHANNELS_RAW,266791,0,172,992,934,950,172,172,172,1811,255,266790006,697,-385,16624,-23,78,-7,-65,-77,-314,0,16,4,0,-1,1655,-1,-1,-1,-1,3,369603621,-1220327810,0,65535,65535,5,0,255,0,0,0,0,0,0,10,0,192,0,3,3
RAW_IMU,266791,0,172,992,934,950,172,172,172,1811,255,266791147,644,-359,16595,-30,65,-17,-70,-82,-311,0,-48,4,0,-1,1655,-1,-1,-1,-1,3,369603621,-1220327810,0,65535,65535,5,0,255,0,0,0,0,0,0,10,0,192,0,3,3
RC_CHANNELS_SCALED,266791,1,172,992,934,950,172,172,172,1811,255,266791147,644,-359,16595,-30,65,-17,-70,-82,-311,0,-48,-1,0,1,1653,-1,-1,-1,-1,3,369603621,-1220327810,0,65535,65535,5,0,255,0,0,0,0,0,0,10,0,192,0,3,3
RC_CHANNELS_RAW,266811,0,172,992,934,950,172,172,172,1811,255,266791147,644,-359,16595,-30,65,-17,-70,-82,-311,0,-48,-1,0,1,1653,-1,-1,-1,-1,3,369603621,-1220327810,0,65535,65535,5,0,255,0,0,0,0,0,0,10,0,192,0,3,3
RAW_IMU,266811,0,172,992,934,950,172,172,172,1811,255,266811149,637,-432,16522,-33,61,-25,-60,-79,-316,0,0,-1,0,1,1653,-1,-1,-1,-1,3,369603621,-1220327810,0,65535,65535,5,0,255,0,0,0,0,0,0,10,0,192,0,3,3
RC_CHANNELS_SCALED,266811,1,172,992,934,950,172,172,172,1811,255,266811149,637,-432,16522,-33,61,-25,-60,-79,-316,0,0,0,-2,0,1654,-1,-1,-1,-1,3,369603621,-1220327810,0,65535,65535,5,0,255,0,0,0,0,0,0,10,0,192,0,3,3
RC_CHANNELS_RAW,266831,0,172,992,934,950,172,172,172,1811,255,266811149,637,-432,16522,-33,61,-25,-60,-79,-316,0,0,0,-2,0,1654,-1,-1,-1,-1,3,369603621,-1220327810,0,65535,65535,5,0,255,0,0,0,0,0,0,10,0,192,0,3,3
RAW_IMU,266831,0,172,992,934,950,172,172,172,1811,255,266831143,622,-407,16649,-26,73,-13,-56,-85,-305,0,-112,0,-2,0,1654,-1,-1,-1,-1,3,369603621,-1220327810,0,65535,65535,5,0,255,0,0,0,0,0,0,10,0,192,0,3,3
RC_CHANNELS_SCALED,266831,1,172,992,934,950,172,172,172,1811,255,266831143,622,-407,16649,-26,73,-13,-56,-85,-305,0,-112,-1,-2,-1,1654,-1,-1,-1,-1,3,369603621,-1220327810,0,65535,65535,5,0,255,0,0,0,0,0,0,10,0,192,0,3,3
RC_CHANNELS_RAW,266851,0,172,992,934,950,172,172,172,1811,255,266831143,622,-407,16649,-26,73,-13,-56,-85,-305,0,-112,-1,-2,-1,1654,-1,-1,-1,-1,3,369603621,-1220327810,0,65535,65535,5,0,255,0,0,0,0,0,0,10,0,192,0,3,3
RAW_IMU,266851,0,172,992,934,950,172,172,172,1811,255,266851145,715,-370,16667,-26,67,-14,-57,-84,-314,0,-80,-1,-2,-1,1654,-1,-1,-1,-1,3,369603621,-1220327810,0,65535,65535,5,0,255,0,0,0,0,0,0,10,0,192,0,3,3
RC_CHANNELS_SCALED,266851,1,172,992,934,950,172,172,172,1811,255,266851145,715,-370,16667,-26,67,-14,-57,-84,-314,0,-80,-2,1,-1,1654,-1,-1,-1,-1,3,369603621,-1220327810,0,65535,65535,5,0,255,0,0,0,0,0,0,10,0,192,0,3,3
RC_CHANNELS_RAW,266871,0,172,992,933,950,172,172,172,1811,255,266851145,715,-370,16667,-26,67,-14,-57,-84,-314,0,-80,-2,1,-1,1654,-1,-1,-1,-1,3,369603621,-1220327810,0,65535,65535,5,0,255,0,0,0,0,0,0,10,0,192,0,3,3
RAW_IMU,266871,0,172,992,933,950,172,172,172,1811,255,266871170,683,-367,16619,-55,74,-26,-52,-72,-314,0,-112,-2,1,-1,1654,-1,-1,-1,-1,3,369603621,-1220327810,0,65535,65535,5,0,255,0,0,0,0,0,0,10,0,192,0,3,3
RC_CHANNELS_SCALED,266871,1,172,992,933,950,172,172,172,1811,255,266871170,683,-367,16619,-55,74,-26,-52,-72,-314,0,-112,-1,-7,-2,1652,-1,-1,-1,-1,3,369603621,-1220327810,0,65535,65535,5,0,255,0,0,0,0,0,0,10,0,192,0,3,3
RC_CHANNELS_RAW,266891,0,172,992,933,950,172,172,172,1811,255,266871170,683,-367,16619,-55,74,-26,-52,-72,-314,0,-112,-1,-7,-2,1652,-1,-1,-1,-1,3,369603621,-1220327810,0,65535,65535,5,0,255,0,0,0,0,0,0,10,0,192,0,3,3
RAW_IMU,266891,0,172,992,933,950,172,172,172,1811,255,266891144,643,-335,16678,-28,78,-30,-69,-73,-298,0,-112,-1,-7,-2,1652,-1,-1,-1,-1,3,369603621,-1220327810,0,65535,65535,5,0,255,0,0,0,0,0,0,10,0,192,0,3,3
RC_CHANNELS_SCALED,266891,1,172,992,933,950,172,172,172,1811,255,266891144,643,-335,16678,-28,78,-30,-69,-73,-298,0,-112,3,1,-2,1652,-1,-1,-1,-1,3,369603621,-1220327810,0,65535,65535,5,0,255,0,0,0,0,0,0,10,0,192,0,3,3
GPS_RAW_INT,266891,1,172,992,933,950,172,172,172,1811,255,266891431,643,-335,16678,-28,78,-30,-69,-73,-298,0,-112,3,1,-2,1652,-1,-1,-1,-1,3,369603623,-1220327813,0,65535,65535,4,0,255,0,0,0,0,0,0,10,0,192,0,3,3
RC_CHANNELS_RAW,266911,0,172,992,934,950,172,172,172,1811,255,266891431,643,-335,16678,-28,78,-30,-69,-73,-298,0,-112,3,1,-2,1652,-1,-1,-1,-1,3,369603623,-1220327813,0,65535,65535,4,0,255,0,0,0,0,0,0,10,0,192,0,3,3
RAW_IMU,266911,0,172,992,934,950,172,172,172,1811,255,266911145,693,-359,16650,-24,72,-20,-73,-79,-306,0,-80,3,1,-2,1652,-1,-1,-1,-1,3,369603623,-1220327813,0,65535,65535,4,0,255,0,0,0,0,0,0,10,0,192,0,3,3
RC_CHANNELS_SCALED,266911,1,172,992,934,950,172,172,172,1811,255,266911145,693,-359,16650,-24,72,-20,-73,-79,-306,0,-80,-2,1,1,1655,-1,-1,-1,-1,3,369603623,-1220327813,0,65535,65535,4,0,255,0,0,0,0,0,0,10,0,192,0,3,3
RC_CHANNELS_RAW,266931,0,172,992,933,950,172,172,172,1811,255,266911145,693,-359,16650,-24,72,-20,-73,-79,-306,0,-80,-2,1,1,1655,-1,-1,-1,-1,3,369603623,-1220327813,0,65535,65535,4,0,255,0,0,0,0,0,0,10,0,192,0,3,3
RAW_IMU,266931,0,172,992,933,950,172,172,172,1811,255,266931144,621,-323,16590,-31,73,-20,-53,-76,-312,0,-32,-2,1,1,1655,-1,-1,-1,-1,3,369603623,-1220327813,0,65535,65535,4,0,255,0,0,0,0,0,0,10,0,192,0,3,3
RC_CHANNELS_SCALED,266931,1,172,992,933,950,172,172,172,1811,255,266931144,621,-323,16590,-31,73,-20,-53,-76,-312,0,-32,1,-1,-1,1651,-1,-1,-1,-1,3,369603623,-1220327813,0,65535,65535,4,0,255,0,0,0,0,0,0,10,0,192,0,3,3
RC_CHANNELS_RAW,266951,0,172,992,933,950,172,172,172,1811,255,266931144,621,-323,16590,-31,73,-20,-53,-76,-312,0,-32,1,-1,-1,1651,-1,-1,-1,-1,3,369603623,-1220327813,0,65535,65535,4,0,255,0,0,0,0,0,0,10,0,192,0,3,3
RAW_IMU,266951,0,172,992,933,950,172,172,172,1811,255,266951144,609,-360,16622,-37,65,-22,-65,-77,-306,0,0,1,-1,-1,1651,-1,-1,-1,-1,3,369603623,-1220327813,0,65535,65535,4,0,255,0,0,0,0,0,0,10,0,192,0,3,3
RC_CHANNELS_SCALED,266951,1,172,992,933,950,172,172,172,1811,255,266951144,609,-360,16622,-37,65,-22,-65,-77,-306,0,0,4,-4,1,1654,-1,-1,-1,-1,3,369603623,-1220327813,0,65535,65535,4,0,255,0,0,0,0,0,0,10,0,192,0,3,3
RC_CHANNELS_RAW,266971,0,172,992,933,950,172,172,172,1811,255,266951144,609,-360,16622,-37,65,-22,-65,-77,-306,0,0,4,-4,1,1654,-1,-1,-1,-1,3,369603623,-1220327813,0,65535,65535,4,0,255,0,0,0,0,0,0,10,0,192,0,3,3
RAW_IMU,266971,0,172,992,933,950,172,172,172,1811,255,266971147,670,-363,16665,-34,64,-23,-56,-73,-317,0,-32,4,-4,1,1654,-1,-1,-1,-1,3,369603623,-1220327813,0,65535,65535,4,0,255,0,0,0,0,0,0,10,0,192,0,3,3
RC_CHANNELS_SCALED,266971,1,172,992,933,950,172,172,172,1811,255,266971147,670,-363,16665,-34,64,-23,-56,-73,-317,0,-32,0,-3,1,1655,-1,-1,-1,-1,3,369603623,-1220327813,0,65535,65535,4,0,255,0,0,0,0,0,0,10,0,192,0,3,3
RC_CHANNELS_RAW,266991,0,172,992,934,950,172,172,172,1811,255,266971147,670,-363,16665,-34,64,-23,-56,-73,-317,0,-32,0,-3,1,1655,-1,-1,-1,-1,3,369603623,-1220327813,0,65535,65535,4,0,255,0,0,0,0,0,0,10,0,192,0,3,3
RAW_IMU,266991,0,172,992,934,950,172,172,172,1811,255,266991145,670,-366,16632,-41,71,-19,-56,-88,-305,0,-48,0,-3,1,1655,-1,-1,-1,-1,3,369603623,-1220327813,0,65535,65535,4,0,255,0,0,0,0,0,0,10,0,192,0,3,3
RC_CHANNELS_SCALED,266991,1,172,992,934,950,172,172,172,1811,255,266991145,670,-366,16632,-41,71,-19,-56,-88,-305,0,-48,0,0,0,1654,-1,-1,-1,-1,3,369603623,-1220327813,0,65535,65535,4,0,255,0,0,0,0,0,0,10,0,192,0,3,3
GPS_RAW_INT,266991,1,172,992,934,950,172,172,172,1811,255,266992006,670,-366,16632,-41,71,-19,-56,-88,-305,0,-48,0,0,0,1654,-1,-1,-1,-1,3,369603623,-1220327815,0,65535,65535,1,0,255,0,0,0,0,0,0,10,0,192,0,3,3
HEARTBEAT,266991,1,172,992,934,950,172,172,172,1811,255,266992006,670,-366,16632,-41,71,-19,-56,-88,-305,0,-48,0,0,0,1654,-1,-1,-1,-1,3,369603623,-1220327815,0,65535,65535,1,0,255,0,0,0,0,0,0,10,0,192,0,3,3
RC_CHANNELS_RAW,267011,0,172,992,933,950,172,172,172,1811,255,266992006,670,-366,16632,-41,71,-19,-56,-88,-305,0,-48,0,0,0,1654,-1,-1,-1,-1,3,369603623,-1220327815,0,65535,65535,1,0,255,0,0,0,0,0,0,10,0,192,0,3,3
RAW_IMU,267011,0,172,992,933,950,172,172,172,1811,255,267011148,681,-353,16637,-39,62,-10,-58,-81,-315,0,-112,0,0,0,1654,-1,-1,-1,-1,3,369603623,-1220327815,0,65535,65535,1,0,255,0,0,0,0,0,0,10,0,192,0,3,3
RC_CHANNELS_SCALED,267011,1,172,992,933,950,172,172,172,1811,255,267011148,681,-353,16637,-39,62,-10,-58,-81,-315,0,-112,0,-1,0,1655,-1,-1,-1,-1,3,369603623,-1220327815,0,65535,65535,1,0,255,0,0,0,0,0,0,10,0,192,0,3,3
RC_CHANNELS_RAW,267031,0,172,992,934,950,172,172,172,1811,255,267011148,681,-353,16637,-39,62,-10,-58,-81,-315,0,-112,0,-1,0,1655,-1,-1,-1,-1,3,369603623,-1220327815,0,65535,65535,1,0,255,0,0,0,0,0,0,10,0,192,0,3,3
RAW_IMU,267031,0,172,992,934,950,172,172,172,1811,255,267031142,673,-357,16604,-35,67,-16,-58,-76,-312,0,-96,0,-1,0,1655,-1,-1,-1,-1,3,369603623,-1220327815,0,65535,65535,1,0,255,0,0,0,0,0,0,10,0,192,0,3,3
RC_CHANNELS_SCALED,267031,1,172,992,934,950,172,172,172,1811,255,267031142,673,-357,16604,-35,67,-16,-58,-76,-312,0,-96,1,5,-2,1653,-1,-1,-1,-1,3,369603623,-1220327815,0,65535,65535,1,0,255,0,0,0,0,0,0,10,0,192,0,3,3
RC_CHANNELS_RAW,267051,0,172,992,934,950,172,172,172,1811,255,267031142,673,-357,16604,-35,67,-16,-58,-76,-312,0,-96,1,5,-2,1653,-1,-1,-1,-1,3,369603623,-1220327815,0,65535,65535,1,0,255,0,0,0,0,0,0,10,0,192,0,3,3
RAW_IMU,267051,0,172,992,934,950,172,172,172,1811,255,267051143,615,-329,16666,-47,60,-15,-67,-79,-306,0,0,1,5,-2,1653,-1,-1,-1,-1,3,369603623,-1220327815,0,65535,65535,1,0,255,0,0,0,0,0,0,10,0,192,0,3,3
RC_CHANNELS_SCALED,267051,1,172,992,934,950,172,172,172,1811,255,267051143,615,-329,16666,-47,60,-15,-67,-79,-306,0,0,-3,-3,-1,1652,-1,-1,-1,-1,3,369603623,-1220327815,0,65535,65535,1,0,255,0,0,0,0,0,0,10,0,192,0,3,3
RC_CHANNELS_RAW,267071,0,172,992,934,950,172,172,172,1811,255,267051143,615,-329,16666,-47,60,-15,-67,-79,-306,0,0,-3,-3,-1,1652,-1,-1,-1,-1,3,369603623,-1220327815,0,65535,65535,1,0,255,0,0,0,0,0,0,10,0,192,0,3,3
RAW_IMU,267071,0,172,992,934,950,172,172,172,1811,255,267071146,652,-392,16621,-23,64,-32,-65,-77,-311,0,-80,-3,-3,-1,1652,-1,-1,-1,-1,3,369603623,-1220327815,0,65535,65535,1,0,255,0,0,0,0,0,0,10,0,192,0,3,3
RC_CHANNELS_SCALED,267071,1,172,992,934,950,172,172,172,1811,255,267071146,652,-392,16621,-23,64,-32,-65,-77,-311,0,-80,0,-6,0,1654,-1,-1,-1,-1,3,369603623,-1220327815,0,65535,65535,1,0,255,0,0,0,0,0,0,10,0,192,0,3,3
RC_CHANNELS_RAW,267091,0,172,992,933,950,172,172,172,1811,255,267071146,652,-392,16621,-23,64,-32,-65,-77,-311,0,-80,0,-6,0,1654,-1,-1,-1,-1,3,369603623,-1220327815,0,65535,65535,1,0,255,0,0,0,0,0,0,10,0,192,0,3,3
RAW_IMU,267091,0,172,992,933,950,172,172,172,1811,255,267091144,707,-396,16587,-27,63,-12,-52,-72,-311,0,-80,0,-6,0,1654,-1,-1,-1,-1,3,369603623,-1220327815,0,65535,65535,1,0,255,0,0,0,0,0,0,10,0,192,0,3,3
RC_CHANNELS_SCALED,267091,1,172,992,933,950,172,172,172,1811,255,267091144,707,-396,16587,-27,63,-12,-52,-72,-311,0,-80,1,-1,0,1655,-1,-1,-1,-1,3,369603623,-1220327815,0,65535,65535,1,0,255,0,0,0,0,0,0,10,0,192,0,3,3
GPS_RAW_INT,267091,1,172,992,933,950,172,172,172,1811,255,267093008,707,-396,16587,-27,63,-12,-52,-72,-311,0,-80,1,-1,0,1655,-1,-1,-1,-1,3,369603623,-1220327813,0,65535,65535,3,0,255,0,0,0,0,0,0,10,0,192,0,3,3
RC_CHANNELS_RAW,267111,0,172,992,933,950,172,172,172,1811,255,267093008,707,-396,16587,-27,63,-12,-52,-72,-311,0,-80,1,-1,0,1655,-1,-1,-1,-1,3,369603623,-1220327813,0,65535,65535,3,0,255,0,0,0,0,0,0,10,0,192,0,3,3
RAW_IMU,267111,0,172,992,933,950,172,172,172,1811,255,267111146,711,-357,16666,-25,86,-18,-69,-78,-300,0,-48,1,-1,0,1655,-1,-1,-1,-1,3,369603623,-1220327813,0,65535,65535,3,0,255,0,0,0,0,0,0,10,0,192,0,3,3
RC_CHANNELS_SCALED,267111,1,172,992,933,950,172,172,172,1811,255,267111146,711,-357,16666,-25,86,-18,-69,-78,-300,0,-48,-1,-1,-1,1653,-1,-1,-1,-1,3,369603623,-1220327813,0,65535,65535,3,0,255,0,0,0,0,0,0,10,0,192,0,3,3
RC_CHANNELS_RAW,267131,0,172,992,934,950,172,172,172,1811,255,267111146,711,-357,16666,-25,86,-18,-69,-78,-300,0,-48,-1,-1,-1,1653,-1,-1,-1,-1,3,369603623,-1220327813,0,65535,65535,3,0,255,0,0,0,0,0,0,10,0,192,0,3,3
RAW_IMU,267131,0,172,992,934,950,172,172,172,1811,255,267131147,710,-359,16702,-36,75,-29,-63,-78,-317,0,0,-1,-1,-1,1653,-1,-1,-1,-1,3,369603623,-1220327813,0,65535,65535,3,0,255,0,0,0,0,0,0,10,0,192,0,3,3
RC_CHANNELS_SCALED,267131,1,172,992,934,950,172,172,172,1811,255,267131147,710,-359,16702,-36,75,-29,-63,-78,-317,0,0,-4,-2,2,1655,-1,-1,-1,-1,3,369603623,-1220327813,0,65535,65535,3,0,255,0,0,0,0,0,0,10,0,192,0,3,3
RC_CHANNELS_RAW,267151,0,172,992,934,948,172,172,172,1811,255,267131147,710,-359,16702,-36,75,-29,-63,-78,-317,0,0,-4,-2,2,1655,-1,-1,-1,-1,3,369603623,-1220327813,0,65535,65535,3,0,255,0,0,0,0,0,0,10,0,192,0,3,3
RAW_IMU,267151,0,172,992,934,948,172,172,172,1811,255,267151145,657,-308,16601,-30,65,-14,-57,-72,-311,0,-96,-4,-2,2,1655,-1,-1,-1,-1,3,369603623,-1220327813,0,65535,65535,3,0,255,0,0,0,0,0,0,10,0,192,0,3,3
RC_CHANNELS_SCALED,267151,1,172,992,934,948,172,172,172,1811,255,267151145,657,-308,16601,-30,65,-14,-57,-72,-311,0,-96,-1,-4,1,1655,-1,-1,-1,-1,3,369603623,-1220327813,0,65535,65535,3,0,255,0,0,0,0,0,0,10,0,192,0,3,3
RC_CHANNELS_RAW,267171,0,172,992,933,950,172,172,172,1811,255,267151145,657,-308,16601,-30,65,-14,-57,-72,-311,0,-96,-1,-4,1,1655,-1,-1,-1,-1,3,369603623,-1220327813,0,65535,65535,3,0,255,0,0,0,0,0,0,10,0,192,0,3,3
RAW_IMU,267171,0,172,992,933,950,172,172,172,1811,255,267171150,669,-403,16700,-36,80,-26,-69,-81,-320,0,-96,-1,-4,1,1655,-1,-1,-1,-1,3,369603623,-1220327813,0,65535,65535,3,0,255,0,0,0,0,0,0,10,0,192,0,3,3
RC_CHANNELS_SCALED,267171,1,172,992,933,950,172,172,172,1811,255,267171150,669,-403,16700,-36,80,-26,-69,-81,-320,0,-96,1,-2,1,1655,-1,-1,-1,-1,3,369603623,-1220327813,0,65535,65535,3,0,255,0,0,0,0,0,0,10,0,192,0,3,3
RC_CHANNELS_RAW,267191,0,172,992,934,948,172,172,172,1811,255,267171150,669,-403,16700,-36,80,-26,-69,-81,-320,0,-96,1,-2,1,1655,-1,-1,-1,-1,3,369603623,-1220327813,0,65535,65535,3,0,255,0,0,0,0,0,0,10,0,192,0,3,3
RAW_IMU,267191,0,172,992,934,948,172,172,172,1811,255,267191144,687,-363,16601,-27,69,-9,-62,-82,-311,0,-160,1,-2,1,1655,-1,-1,-1,-1,3,369603623,-1220327813,0,65535,65535,3,0,255,0,0,0,0,0,0,10,0,192,0,3,3
RC_CHANNELS_SCALED,267191,1,172,992,934,948,172,172,172,1811,255,267191144,687,-363,16601,-27,69,-9,-62,-82,-311,0,-160,1,3,2,1656,-1,-1,-1,-1,3,369603623,-1220327813,0,65535,65535,3,0,255,0,0,0,0,0,0,10,0,192,0,3,3
GPS_RAW_INT,267191,1,172,992,934,948,172,172,172,1811,255,267194006,687,-363,16601,-27,69,-9,-62,-82,-311,0,-160,1,3,2,1656,-1,-1,-1,-1,3,369603623,-1220327815,0,65535,65535,2,0,255,0,0,0,0,0,0,10,0,192,0,3,3
RC_CHANNELS_RAW,267211,0,172,992,933,1645,1142,1045,1045,789,255,267194006,687,-363,16601,-27,69,-9,-62,-82,-311,0,-160,1,3,2,1656,-1,-1,-1,-1,3,369603623,-1220327815,0,65535,65535,2,0,255,0,0,0,0,0,0,10,0,192,0,3,3
RAW_IMU,267211,0,172,992,933,1645,1142,1045,1045,789,255,267211141,690,-416,16581,-24,86,-10,-52,-84,-321,0,-96,1,3,2,1656,-1,-1,-1,-1,3,369603623,-1220327815,0,65535,65535,2,0,255,0,0,0,0,0,0,10,0,192,0,3,3
RC_CHANNELS_SCALED,267211,1,172,992,933,1645,1142,1045,1045,789,255,267211141,690,-416,16581,-24,86,-10,-52,-84,-321,0,-96,1,-3,2,1654,-1,-1,-1,-1,3,369603623,-1220327815,0,65535,65535,2,0,255,0,0,0,0,0,0,10,0,192,0,3,3
RC_CHANNELS_RAW,267231,0,172,992,933,950,172,172,172,1811,255,267211141,690,-416,16581,-24,86,-10,-52,-84,-321,0,-96,1,-3,2,1654,-1,-1,-1,-1,3,369603623,-1220327815,0,65535,65535,2,0,255,0,0,0,0,0,0,10,0,192,0,3,3
RAW_IMU,267231,0,172,992,933,950,172,172,172,1811,255,267231148,687,-400,16614,-24,73,-28,-66,-73,-305,0,-80,1,-3,2,1654,-1,-1,-1,-1,3,369603623,-1220327815,0,65535,65535,2,0,255,0,0,0,0,0,0,10,0,192,0,3,3
RC_CHANNELS_SCALED,267231,1,172,992,933,950,172,172,172,1811,255,267231148,687,-400,16614,-24,73,-28,-66,-73,-305,0,-80,-2,-3,2,1655,-1,-1,-1,-1,3,369603623,-1220327815,0,65535,65535,2,0,255,0,0,0,0,0,0,10,0,192,0,3,3
RC_CHANNELS_RAW,267251,0,172,992,933,950,172,172,172,1811,255,267231148,687,-400,16614,-24,73,-28,-66,-73,-305,0,-80,-2,-3,2,1655,-1,-1,-1,-1,3,369603623,-1220327815,0,65535,65535,2,0,255,0,0,0,0,0,0,10,0,192,0,3,3
RAW_IMU,267251,0,172,992,933,950,172,172,172,1811,255,267251144,745,-374,16653,-23,67,-15,-61,-78,-307,0,0,-2,-3,2,1655,-1,-1,-1,-1,3,369603623,-1220327815,0,65535,65535,2,0,255,0,0,0,0,0,0,10,0,192,0,3,3
RC_CHANNELS_SCALED,267251,1,172,992,933,950,172,172,172,1811,255,267251144,745,-374,16653,-23,67,-15,-61,-78,-307,0,0,2,2,1,1655,-1,-1,-1,-1,3,369603623,-1220327815,0,65535,65535,2,0,255,0,0,0,0,0,0,10,0,192,0,3,3
RC_CHANNELS_RAW,267271,0,172,992,934,950,172,172,172,1811,255,267251144,745,-374,16653,-23,67,-15,-61,-78,-307,0,0,2,2,1,1655,-1,-1,-1,-1,3,369603623,-1220327815,0,65535,65535,2,0,255,0,0,0,0,0,0,10,0,192,0,3,3
RAW_IMU,267271,0,172,992,934,950,172,172,172,1811,255,267271148,675,-367,16628,-40,70,-23,-71,-73,-305,0,-80,2,2,1,1655,-1,-1,-1,-1,3,369603623,-1220327815,0,65535,65535,2,0,255,0,0,0,0,0,0,10,0,192,0,3,3
RC_CHANNELS_SCALED,267271,1,172,992,934,950,172,172,172,1811,255,267271148,675,-367,16628,-40,70,-23,-71,-73,-305,0,-80,-2,-1,2,1655,-1,-1,-1,-1,3,369603623,-1220327815,0,65535,65535,2,0,255,0,0,0,0,0,0,10,0,192,0,3,3
RC_CHANNELS_RAW,267291,0,172,992,934,950,172,172,172,1811,255,267271148,675,-367,16628,-40,70,-23,-71,-73,-305,0,-80,-2,-1,2,1655,-1,-1,-1,-1,3,369603623,-1220327815,0,65535,65535,2,0,255,0,0,0,0,0,0,10,0,192,0,3,3
RAW_IMU,267291,0,172,992,934,950,172,172,172,1811,255,267291140,721,-380,16641,-33,69,-29,-69,-78,-310,0,-176,-2,-1,2,1655,-1,-1,-1,-1,3,369603623,-1220327815,0,65535,65535,2,0,255,0,0,0,0,0,0,10,0,192,0,3,3
RC_CHANNELS_SCALED,267291,1,172,992,934,950,172,172,172,1811,255,267291140,721,-380,16641,-33,69,-29,-69,-78,-310,0,-176,2,1,0,1656,-1,-1,-1,-1,3,369603623,-1220327815,0,65535,65535,2,0,255,0,0,0,0,0,0,10,0,192,0,3,3
GPS_RAW_INT,267291,1,172,992,934,950,172,172,172,1811,255,267295007,721,-380,16641,-33,69,-29,-69,-78,-310,0,-176,2,1,0,1656,-1,-1,-1,-1,3,369603623,-1220327818,0,65535,65535,7,0,255,0,0,0,0,0,0,10,0,192,0,3,3
RC_CHANNELS_RAW,267311,0,172,992,934,950,172,172,172,1811,255,267295007,721,-380,16641,-33,69,-29,-69,-78,-310,0,-176,2,1,0,1656,-1,-1,-1,-1,3,369603623,-1220327818,0,65535,65535,7,0,255,0,0,0,0,0,0,10,0,192,0,3,3
RAW_IMU,267311,0,172,992,934,950,172,172,172,1811,255,267311143,687,-372,16623,-32,61,-21,-67,-79,-314,0,-112,2,1,0,1656,-1,-1,-1,-1,3,369603623,-1220327818,0,65535,65535,7,0,255,0,0,0,0,0,0,10,0,192,0,3,3
RC_CHANNELS_SCALED,267311,1,172,992,934,950,172,172,172,1811,255,267311143,687,-372,16623,-32,61,-21,-67,-79,-314,0,-112,-2,0,-4,1651,-1,-1,-1,-1,3,369603623,-1220327818,0,65535,65535,7,0,255,0,0,0,0,0,0,10,0,192,0,3,3
RC_CHANNELS_RAW,267331,0,172,992,933,950,172,172,172,1811,255,267311143,687,-372,16623,-32,61,-21,-67,-79,-314,0,-112,-2,0,-4,1651,-1,-1,-1,-1,3,369603623,-1220327818,0,65535,65535,7,0,255,0,0,0,0,0,0,10,0,192,0,3,3
RAW_IMU,267331,0,172,992,933,950,172,172,172,1811,255,267331142,620,-464,16572,-26,62,-15,-70,-72,-314,0,-112,-2,0,-4,1651,-1,-1,-1,-1,3,369603623,-1220327818,0,65535,65535,7,0,255,0,0,0,0,0,0,10,0,192,0,3,3
RC_CHANNELS_SCALED,267331,1,172,992,933,950,172,172,172,1811,255,267331142,620,-464,16572,-26,62,-15,-70,-72,-314,0,-112,-1,-1,3,1656,-1,-1,-1,-1,3,369603623,-1220327818,0,65535,65535,7,0,255,0,0,0,0,0,0,10,0,192,0,3,3
RC_CHANNELS_RAW,267351,0,172,992,933,950,172,172,172,1811,255,267331142,620,-464,16572,-26,62,-15,-70,-72,-314,0,-112,-1,-1,3,1656,-1,-1,-1,-1,3,369603623,-1220327818,0,65535,65535,7,0,255,0,0,0,0,0,0,10,0,192,0,3,3
RAW_IMU,267351,0,172,992,933,950,172,172,172,1811,255,267351144,648,-333,16637,-38,73,-24,-60,-75,-316,0,-112,-1,-1,3,1656,-1,-1,-1,-1,3,369603623,-1220327818,0,65535,65535,7,0,255,0,0,0,0,0,0,10,0,192,0,3,3
RC_CHANNELS_SCALED,267351,1,172,992,933,950,172,172,172,1811,255,267351144,648,-333,16637,-38,73,-24,-60,-75,-316,0,-112,0,-4,-1,1654,-1,-1,-1,-1,3,369603623,-1220327818,0,65535,65535,7,0,255,0,0,0,0,0,0,10,0,192,0,3,3
RC_CHANNELS_RAW,267371,0,172,992,933,950,172,172,172,1811,255,267351144,648,-333,16637,-38,73,-24,-60,-75,-316,0,-112,0,-4,-1,1654,-1,-1,-1,-1,3,369603623,-1220327818,0,65535,65535,7,0,255,0,0,0,0,0,0,10,0,192,0,3,3
RAW_IMU,267371,0,172,992,933,950,172,172,172,1811,255,267371165,639,-393,16686,-28,63,-13,-58,-78,-317,0,-80,0,-4,-1,1654,-1,-1,-1,-1,3,369603623,-1220327818,0,65535,65535,7,0,255,0,0,0,0,0,0,10,0,192,0,3,3
RC_CHANNELS_SCALED,267371,1,172,992,933,950,172,172,172,1811,255,267371165,639,-393,16686,-28,63,-13,-58,-78,-317,0,-80,1,3,-1,1653,-1,-1,-1,-1,3,369603623,-1220327818,0,65535,65535,7,0,255,0,0,0,0,0,0,10,0,192,0,3,3
RC_CHANNELS_RAW,267391,0,172,992,933,950,172,172,172,1811,255,267371165,639,-393,16686,-28,63,-13,-58,-78,-317,0,-80,1,3,-1,1653,-1,-1,-1,-1,3,369603623,-1220327818,0,65535,65535,7,0,255,0,0,0,0,0,0,10,0,192,0,3,3
RAW_IMU,267391,0,172,992,933,950,172,172,172,1811,255,267391144,642,-352,16621,-31,62,-23,-62,-79,-314,0,-32,1,3,-1,1653,-1,-1,-1,-1,3,369603623,-1220327818,0,65535,65535,7,0,255,0,0,0,0,0,0,10,0,192,0,3,3
RC_CHANNELS_SCALED,267391,1,172,992,933,950,172,172,172,1811,255,267391144,642,-352,16621,-31,62,-23,-62,-79,-314,0,-32,-3,2,1,1654,-1,-1,-1,-1,3,369603623,-1220327818,0,65535,65535,7,0,255,0,0,0,0,0,0,10,0,192,0,3,3
GPS_RAW_INT,267391,1,172,992,933,950,172,172,172,1811,255,267396009,642,-352,16621,-31,62,-23,-62,-79,-314,0,-32,-3,2,1,1654,-1,-1,-1,-1,3,369603623,-1220327818,0,65535,65535,6,0,255,0,0,0,0,0,0,10,0,192,0,3,3
RC_CHANNELS_RAW,267411,0,172,992,934,950,172,172,172,1811,255,267396009,642,-352,16621,-31,62,-23,-62,-79,-314,0,-32,-3,2,1,1654,-1,-1,-1,-1,3,369603623,-1220327818,0,65535,65535,6,0,255,0,0,0,0,0,0,10,0,192,0,3,3
RAW_IMU,267411,0,172,992,934,950,172,172,172,1811,255,267411144,661,-410,16640,-34,73,-19,-65,-75,-316,0,0,-3,2,1,1654,-1,-1,-1,-1,3,369603623,-1220327818,0,65535,65535,6,0,255,0,0,0,0,0,0,10,0,192,0,3,3
RC_CHANNELS_SCALED,267411,1,172,992,934,950,172,172,172,1811,255,267411144,661,-410,16640,-34,73,-19,-65,-75,-316,0,0,-4,1,2,1655,-1,-1,-1,-1,3,369603623,-1220327818,0,65535,65535,6,0,255,0,0,0,0,0,0,10,0,192,0,3,3
RC_CHANNELS_RAW,267431,0,172,992,934,950,172,172,172,1811,255,267411144,661,-410,16640,-34,73,-19,-65,-75,-316,0,0,-4,1,2,1655,-1,-1,-1,-1,3,369603623,-1220327818,0,65535,65535,6,0,255,0,0,0,0,0,0,10,0,192,0,3,3
RAW_IMU,267431,0,172,992,934,950,172,172,172,1811,255,267431144,630,-346,16617,-30,85,-23,-70,-82,-318,0,-48,-4,1,2,1655,-1,-1,-1,-1,3,369603623,-1220327818,0,65535,65535,6,0,255,0,0,0,0,0,0,10,0,192,0,3,3
RC_CHANNELS_SCALED,267431,1,172,992,934,950,172,172,172,1811,255,267431144,630,-346,16617,-30,85,-23,-70,-82,-318,0,-48,2,2,0,1653,-1,-1,-1,-1,3,369603623,-1220327818,0,65535,65535,6,0,255,0,0,0,0,0,0,10,0,192,0,3,3
RC_CHANNELS_RAW,267451,0,172,992,933,950,172,172,172,1811,255,267431144,630,-346,16617,-30,85,-23,-70,-82,-318,0,-48,2,2,0,1653,-1,-1,-1,-1,3,369603623,-1220327818,0,65535,65535,6,0,255,0,0,0,0,0,0,10,0,192,0,3,3
RAW_IMU,267451,0,172,992,933,950,172,172,172,1811,255,267451143,659,-312,16629,-39,63,-14,-60,-79,-316,0,-96,2,2,0,1653,-1,-1,-1,-1,3,369603623,-1220327818,0,65535,65535,6,0,255,0,0,0,0,0,0,10,0,192,0,3,3
RC_CHANNELS_SCALED,267451,1,172,992,933,950,172,172,172,1811,255,267451143,659,-312,16629,-39,63,-14,-60,-79,-316,0,-96,-2,2,-3,1651,-1,-1,-1,-1,3,369603623,-1220327818,0,65535,65535,6,0,255,0,0,0,0,0,0,10,0,192,0,3,3
RC_CHANNELS_RAW,267471,0,172,992,933,950,172,172,172,1811,255,267451143,659,-312,16629,-39,63,-14,-60,-79,-316,0,-96,-2,2,-3,1651,-1,-1,-1,-1,3,369603623,-1220327818,0,65535,65535,6,0,255,0,0,0,0,0,0,10,0,192,0,3,3
RAW_IMU,267471,0,172,992,933,950,172,172,172,1811,255,267471147,704,-360,16651,-28,67,-15,-58,-81,-305,0,-160,-2,2,-3,1651,-1,-1,-1,-1,3,369603623,-1220327818,0,65535,65535,6,0,255,0,0,0,0,0,0,10,0,192,0,3,3
RC_CHANNELS_SCALED,267471,1,172,992,933,950,172,172,172,1811,255,267471147,704,-360,16651,-28,67,-15,-58,-81,-305,0,-160,1,-1,0,1654,-1,-1,-1,-1,3,369603623,-1220327818,0,65535,65535,6,0,255,0,0,0,0,0,0,10,0,192,0,3,3
RC_CHANNELS_RAW,267491,0,172,992,933,950,172,172,172,1811,255,267471147,704,-360,16651,-28,67,-15,-58,-81,-305,0,-160,1,-1,0,1654,-1,-1,-1,-1,3,369603623,-1220327818,0,65535,65535,6,0,255,0,0,0,0,0,0,10,0,192,0,3,3
RAW_IMU,267491,0,172,992,933,950,172,172,172,1811,255,267491146,659,-375,16597,-25,71,-24,-57,-79,-311,0,-32,1,-1,0,1654,-1,-1,-1,-1,3,369603623,-1220327818,0,65535,65535,6,0,255,0,0,0,0,0,0,10,0,192,0,3,3
RC_CHANNELS_SCALED,267491,1,172,992,933,950,172,172,172,1811,255,267491146,659,-375,16597,-25,71,-24,-57,-79,-311,0,-32,-4,-1,3,1656,-1,-1,-1,-1,3,369603623,-1220327818,0,65535,65535,6,0,255,0,0,0,0,0,0,10,0,192,0,3,3
GPS_RAW_INT,267491,1,172,992,933,950,172,172,172,1811,255,267497012,659,-375,16597,-25,71,-24,-57,-79,-311,0,-32,-4,-1,3,1656,-1,-1,-1,-1,3,369603623,-1220327818,0,65535,65535,6,0,255,0,0,0,0,0,0,10,0,192,0,3,3
RC_CHANNELS_RAW,267511,0,172,992,933,950,172,172,172,1811,255,267497012,659,-375,16597,-25,71,-24,-57,-79,-311,0,-32,-4,-1,3,1656,-1,-1,-1,-1,3,369603623,-1220327818,0,65535,65535,6,0,255,0,0,0,0,0,0,10,0,192,0,3,3
RAW_IMU,267511,0,172,992,933,950,172,172,172,1811,255,267511142,722,-310,16739,-45,74,-22,-63,-85,-305,0,-48,-4,-1,3,1656,-1,-1,-1,-1,3,369603623,-1220327818,0,65535,65535,6,0,255,0,0,0,0,0,0,10,0,192,0,3,3
RC_CHANNELS_SCALED,267511,1,172,992,933,950,172,172,172,1811,255,267511142,722,-310,16739,-45,74,-22,-63,-85,-305,0,-48,1,1,-3,1652,-1,-1,-1,-1,3,369603623,-1220327818,0,65535,65535,6,0,255,0,0,0,0,0,0,10,0,192,0,3,3
RC_CHANNELS_RAW,267531,0,172,992,934,950,172,172,172,1811,255,267511142,722,-310,16739,-45,74,-22,-63,-85,-305,0,-48,1,1,-3,1652,-1,-1,-1,-1,3,369603623,-1220327818,0,65535,65535,6,0,255,0,0,0,0,0,0,10,0,192,0,3,3
RAW_IMU,267531,0,172,992,934,950,172,172,172,1811,255,267531147,690,-344,16743,-22,64,-5,-62,-79,-316,0,-80,1,1,-3,1652,-1,-1,-1,-1,3,369603623,-1220327818,0,65535,65535,6,0,255,0,0,0,0,0,0,10,0,192,0,3,3
RC_CHANNELS_SCALED,267531,1,172,992,934,950,172,172,172,1811,255,267531147,690,-344,16743,-22,64,-5,-62,-79,-316,0,-80,-1,1,0,1655,-1,-1,-1,-1,3,369603623,-1220327818,0,65535,65535,6,0,255,0,0,0,0,0,0,10,0,192,0,3,3
RC_CHANNELS_RAW,267551,0,172,992,934,950,172,172,172,1811,255,267531147,690,-344,16743,-22,64,-5,-62,-79,-316,0,-80,-1,1,0,1655,-1,-1,-1,-1,3,369603623,-1220327818,0,65535,65535,6,0,255,0,0,0,0,0,0,10,0,192,0,3,3
RAW_IMU,267551,0,172,992,934,950,172,172,172,1811,255,267551141,694,-395,16672,-34,71,-13,-60,-79,-321,0,-48,-1,1,0,1655,-1,-1,-1,-1,3,369603623,-1220327818,0,65535,65535,6,0,255,0,0,0,0,0,0,10,0,192,0,3,3
RC_CHANNELS_SCALED,267551,1,172,992,934,950,172,172,172,1811,255,267551141,694,-395,16672,-34,71,-13,-60,-79,-321,0,-48,-2,4,1,1655,-1,-1,-1,-1,3,369603623,-1220327818,0,65535,65535,6,0,255,0,0,0,0,0,0,10,0,192,0,3,3
RC_CHANNELS_RAW,267571,0,172,992,933,950,172,172,172,1811,255,267551141,694,-395,16672,-34,71,-13,-60,-79,-321,0,-48,-2,4,1,1655,-1,-1,-1,-1,3,369603623,-1220327818,0,65535,65535,6,0,255,0,0,0,0,0,0,10,0,192,0,3,3
RAW_IMU,267571,0,172,992,933,950,172,172,172,1811,255,267571162,663,-360,16593,-38,62,-17,-62,-82,-301,0,-32,-2,4,1,1655,-1,-1,-1,-1,3,369603623,-1220327818,0,65535,65535,6,0,255,0,0,0,0,0,0,10,0,192,0,3,3
RC_CHANNELS_SCALED,267571,1,172,992,933,950,172,172,172,1811,255,267571162,663,-360,16593,-38,62,-17,-62,-82,-301,0,-32,-2,1,0,1655,-1,-1,-1,-1,3,369603623,-1220327818,0,65535,65535,6,0,255,0,0,0,0,0,0,10,0,192,0,3,3
RC_CHANNELS_RAW,267591,0,172,992,933,950,172,172,172,1811,255,267571162,663,-360,16593,-38,62,-17,-62,-82,-301,0,-32,-2,1,0,1655,-1,-1,-1,-1,3,369603623,-1220327818,0,65535,65535,6,0,255,0,0,0,0,0,0,10,0,192,0,3,3
RAW_IMU,267591,0,172,992,933,950,172,172,172,1811,255,267591144,671,-366,16671,-31,63,-27,-61,-76,-305,0,-32,-2,1,0,1655,-1,-1,-1,-1,3,369603623,-1220327818,0,65535,65535,6,0,255,0,0,0,0,0,0,10,0,192,0,3,3
RC_CHANNELS_SCALED,267591,1,172,992,933,950,172,172,172,1811,255,267591144,671,-366,16671,-31,63,-27,-61,-76,-305,0,-32,2,4,0,1653,-1,-1,-1,-1,3,369603623,-1220327818,0,65535,65535,6,0,255,0,0,0,0,0,0,10,0,192,0,3,3
GPS_RAW_INT,267591,1,172,992,933,950,172,172,172,1811,255,267598008,671,-366,16671,-31,63,-27,-61,-76,-305,0,-32,2,4,0,1653,-1,-1,-1,-1,3,369603625,-1220327820,0,65535,65535,5,0,255,0,0,0,0,0,0,10,0,192,0,3,3
RC_CHANNELS_RAW,267611,0,172,992,934,950,172,172,172,1811,255,267598008,671,-366,16671,-31,63,-27,-61,-76,-305,0,-32,2,4,0,1653,-1,-1,-1,-1,3,369603625,-1220327820,0,65535,65535,5,0,255,0,0,0,0,0,0,10,0,192,0,3,3
RAW_IMU,267611,0,172,992,934,950,172,172,172,1811,255,267611145,680,-365,16634,-37,72,3,-74,-85,-307,0,-160,2,4,0,1653,-1,-1,-1,-1,3,369603625,-1220327820,0,65535,65535,5,0,255,0,0,0,0,0,0,10,0,192,0,3,3
RC_CHANNELS_SCALED,267611,1,172,992,934,950,172,172,172,1811,255,267611145,680,-365,16634,-37,72,3,-74,-85,-307,0,-160,-2,-2,1,1656,-1,-1,-1,-1,3,369603625,-1220327820,0,65535,65535,5,0,255,0,0,0,0,0,0,10,0,192,0,3,3
RC_CHANNELS_RAW,267631,0,172,992,934,950,172,172,172,1811,255,267611145,680,-365,16634,-37,72,3,-74,-85,-307,0,-160,-2,-2,1,1656,-1,-1,-1,-1,3,369603625,-1220327820,0,65535,65535,5,0,255,0,0,0,0,0,0,10,0,192,0,3,3
RAW_IMU,267631,0,172,992,934,950,172,172,172,1811,255,267631148,605,-414,16646,-32,63,-18,-69,-76,-312,0,-96,-2,-2,1,1656,-1,-1,-1,-1,3,369603625,-1220327820,0,65535,65535,5,0,255,0,0,0,0,0,0,10,0,192,0,3,3
RC_CHANNELS_SCALED,267631,1,172,992,934,950,172,172,172,1811,255,267631148,605,-414,16646,-32,63,-18,-69,-76,-312,0,-96,2,-1,1,1655,-1,-1,-1,-1,3,369603625,-1220327820,0,65535,65535,5,0,255,0,0,0,0,0,0,10,0,192,0,3,3
RC_CHANNELS_RAW,267651,0,172,992,933,950,172,172,172,1811,255,267631148,605,-414,16646,-32,63,-18,-69,-76,-312,0,-96,2,-1,1,1655,-1,-1,-1,-1,3,369603625,-1220327820,0,65535,65535,5,0,255,0,0,0,0,0,0,10,0,192,0,3,3
RAW_IMU,267651,0,172,992,933,950,172,172,172,1811,255,267651148,633,-360,16669,-53,77,-23,-69,-73,-317,0,-96,2,-1,1,1655,-1,-1,-1,-1,3,369603625,-1220327820,0,65535,65535,5,0,255,0,0,0,0,0,0,10,0,192,0,3,3
RC_CHANNELS_SCALED,267651,1,172,992,933,950,172,172,172,1811,255,267651148,633,-360,16669,-53,77,-23,-69,-73,-317,0,-96,3,-1,-3,1652,-1,-1,-1,-1,3,369603625,-1220327820,0,65535,65535,5,0,255,0,0,0,0,0,0,10,0,192,0,3,3
RC_CHANNELS_RAW,267671,0,172,992,934,950,172,172,172,1811,255,267651148,633,-360,16669,-53,77,-23,-69,-73,-317,0,-96,3,-1,-3,1652,-1,-1,-1,-1,3,369603625,-1220327820,0,65535,65535,5,0,255,0,0,0,0,0,0,10,0,192,0,3,3
RAW_IMU,267671,0,172,992,934,950,172,172,172,1811,255,267671146,688,-375,16651,-34,62,-20,-65,-79,-316,0,-48,3,-1,-3,1652,-1,-1,-1,-1,3,369603625,-1220327820,0,65535,65535,5,0,255,0,0,0,0,0,0,10,0,192,0,3,3
RC_CHANNELS_SCALED,267671,1,172,992,934,950,172,172,172,1811,255,267671146,688,-375,16651,-34,62,-20,-65,-79,-316,0,-48,2,4,-4,1651,-1,-1,-1,-1,3,369603625,-1220327820,0,65535,65535,5,0,255,0,0,0,0,0,0,10,0,192,0,3,3
RC_CHANNELS_RAW,267691,0,172,992,934,950,172,172,172,1811,255,267671146,688,-375,16651,-34,62,-20,-65,-79,-316,0,-48,2,4,-4,1651,-1,-1,-1,-1,3,369603625,-1220327820,0,65535,65535,5,0,255,0,0,0,0,0,0,10,0,192,0,3,3
RAW_IMU,267691,0,172,992,934,950,172,172,172,1811,255,267691141,721,-276,16660,-44,80,-13,-62,-82,-309,0,64,2,4,-4,1651,-1,-1,-1,-1,3,369603625,-1220327820,0,65535,65535,5,0,255,0,0,0,0,0,0,10,0,192,0,3,3
RC_CHANNELS_SCALED,267691,1,172,992,934,950,172,172,172,1811,255,267691141,721,-276,16660,-44,80,-13,-62,-82,-309,0,64,0,0,-1,1653,-1,-1,-1,-1,3,369603625,-1220327820,0,65535,65535,5,0,255,0,0,0,0,0,0,10,0,192,0,3,3
GPS_RAW_INT,267691,1,172,992,934,950,172,172,172,1811,255,267699006,721,-276,16660,-44,80,-13,-62,-82,-309,0,64,0,0,-1,1653,-1,-1,-1,-1,3,369603623,-1220327820,0,65535,65535,2,0,255,0,0,0,0,0,0,10,0,192,0,3,3
RC_CHANNELS_RAW,267711,0,172,992,934,950,172,172,172,1811,255,267699006,721,-276,16660,-44,80,-13,-62,-82,-309,0,64,0,0,-1,1653,-1,-1,-1,-1,3,369603623,-1220327820,0,65535,65535,2,0,255,0,0,0,0,0,0,10,0,192,0,3,3
RAW_IMU,267711,0,172,992,934,950,172,172,172,1811,255,267711144,661,-287,16616,-37,80,-22,-57,-79,-314,0,-32,0,0,-1,1653,-1,-1,-1,-1,3,369603623,-1220327820,0,65535,65535,2,0,255,0,0,0,0,0,0,10,0,192,0,3,3
RC_CHANNELS_SCALED,267711,1,172,992,934,950,172,172,172,1811,255,267711144,661,-287,16616,-37,80,-22,-57,-79,-314,0,-32,2,0,-3,1653,-1,-1,-1,-1,3,369603623,-1220327820,0,65535,65535,2,0,255,0,0,0,0,0,0,10,0,192,0,3,3
RC_CHANNELS_RAW,267731,0,172,992,933,950,172,172,172,1811,255,267711144,661,-287,16616,-37,80,-22,-57,-79,-314,0,-32,2,0,-3,1653,-1,-1,-1,-1,3,369603623,-1220327820,0,65535,65535,2,0,255,0,0,0,0,0,0,10,0,192,0,3,3
RAW_IMU,267731,0,172,992,933,950,172,172,172,1811,255,267731145,643,-390,16601,-32,83,-19,-69,-78,-305,0,0,2,0,-3,1653,-1,-1,-1,-1,3,369603623,-1220327820,0,65535,65535,2,0,255,0,0,0,0,0,0,10,0,192,0,3,3
RC_CHANNELS_SCALED,267731,1,172,992,933,950,172,172,172,1811,255,267731145,643,-390,16601,-32,83,-19,-69,-78,-305,0,0,0,-1,1,1656,-1,-1,-1,-1,3,369603623,-1220327820,0,65535,65535,2,0,255,0,0,0,0,0,0,10,0,192,0,3,3
RC_CHANNELS_RAW,267751,0,172,992,933,950,172,172,172,1811,255,267731145,643,-390,16601,-32,83,-19,-69,-78,-305,0,0,0,-1,1,1656,-1,-1,-1,-1,3,369603623,-1220327820,0,65535,65535,2,0,255,0,0,0,0,0,0,10,0,192,0,3,3
RAW_IMU,267751,0,172,992,933,950,172,172,172,1811,255,267751143,679,-342,16680,-37,72,-20,-73,-87,-311,0,-96,0,-1,1,1656,-1,-1,-1,-1,3,369603623,-1220327820,0,65535,65535,2,0,255,0,0,0,0,0,0,10,0,192,0,3,3
RC_CHANNELS_SCALED,267751,1,172,992,933,950,172,172,172,1811,255,267751143,679,-342,16680,-37,72,-20,-73,-87,-311,0,-96,-1,-1,-2,1654,-1,-1,-1,-1,3,369603623,-1220327820,0,65535,65535,2,0,255,0,0,0,0,0,0,10,0,192,0,3,3
RC_CHANNELS_RAW,267771,0,172,992,933,950,172,172,172,1811,255,267751143,679,-342,16680,-37,72,-20,-73,-87,-311,0,-96,-1,-1,-2,1654,-1,-1,-1,-1,3,369603623,-1220327820,0,65535,65535,2,0,255,0,0,0,0,0,0,10,0,192,0,3,3
RAW_IMU,267771,0,172,992,933,950,172,172,172,1811,255,267771143,674,-356,16626,-40,70,-21,-63,-83,-312,0,-32,-1,-1,-2,1654,-1,-1,-1,-1,3,369603623,-1220327820,0,65535,65535,2,0,255,0,0,0,0,0,0,10,0,192,0,3,3
RC_CHANNELS_SCALED,267771,1,172,992,933,950,172,172,172,1811,255,267771143,674,-356,16626,-40,70,-21,-63,-83,-312,0,-32,-3,0,1,1655,-1,-1,-1,-1,3,369603623,-1220327820,0,65535,65535,2,0,255,0,0,0,0,0,0,10,0,192,0,3,3
RC_CHANNELS_RAW,267791,0,172,992,933,950,172,172,172,1811,255,267771143,674,-356,16626,-40,70,-21,-63,-83,-312,0,-32,-3,0,1,1655,-1,-1,-1,-1,3,369603623,-1220327820,0,65535,65535,2,0,255,0,0,0,0,0,0,10,0,192,0,3,3
RAW_IMU,267791,0,172,992,933,950,172,172,172,1811,255,267791145,620,-395,16568,-31,76,-20,-62,-84,-314,0,-80,-3,0,1,1655,-1,-1,-1,-1,3,369603623,-1220327820,0,65535,65535,2,0,255,0,0,0,0,0,0,10,0,192,0,3,3
RC_CHANNELS_SCALED,267791,1,172,992,933,950,172,172,172,1811,255,267791145,620,-395,16568,-31,76,-20,-62,-84,-314,0,-80,3,-3,-4,1652,-1,-1,-1,-1,3,369603623,-1220327820,0,65535,65535,2,0,255,0,0,0,0,0,0,10,0,192,0,3,3
GPS_RAW_INT,267791,1,172,992,933,950,172,172,172,1811,255,267800009,620,-395,16568,-31,76,-20,-62,-84,-314,0,-80,3,-3,-4,1652,-1,-1,-1,-1,3,369603623,-1220327826,0,65535,65535,8,0,255,0,0,0,0,0,0,10,0,192,0,3,3
RC_CHANNELS_RAW,267811,0,172,992,934,950,172,172,172,1811,255,267800009,620,-395,16568,-31,76,-20,-62,-84,-314,0,-80,3,-3,-4,1652,-1,-1,-1,-1,3,369603623,-1220327826,0,65535,65535,8,0,255,0,0,0,0,0,0,10,0,192,0,3,3
RAW_IMU,267811,0,172,992,934,950,172,172,172,1811,255,267811142,696,-429,16668,-39,69,-18,-62,-79,-309,0,-80,3,-3,-4,1652,-1,-1,-1,-1,3,369603623,-1220327826,0,65535,65535,8,0,255,0,0,0,0,0,0,10,0,192,0,3,3
RC_CHANNELS_SCALED,267811,1,172,992,934,950,172,172,172,1811,255,267811142,696,-429,16668,-39,69,-18,-62,-79,-309,0,-80,3,1,-2,1655,-1,-1,-1,-1,3,369603623,-1220327826,0,65535,65535,8,0,255,0,0,0,0,0,0,10,0,192,0,3,3
RC_CHANNELS_RAW,267831,0,172,992,933,950,172,172,172,1811,255,267811142,696,-429,16668,-39,69,-18,-62,-79,-309,0,-80,3,1,-2,1655,-1,-1,-1,-1,3,369603623,-1220327826,0,65535,65535,8,0,255,0,0,0,0,0,0,10,0,192,0,3,3
RAW_IMU,267831,0,172,992,933,950,172,172,172,1811,255,267831141,664,-371,16626,-30,55,-19,-65,-79,-314,0,-112,3,1,-2,1655,-1,-1,-1,-1,3,369603623,-1220327826,0,65535,65535,8,0,255,0,0,0,0,0,0,10,0,192,0,3,3
RC_CHANNELS_SCALED,267831,1,172,992,933,950,172,172,172,1811,255,267831141,664,-371,16626,-30,55,-19,-65,-79,-314,0,-112,1,2,4,1656,-1,-1,-1,-1,3,369603623,-1220327826,0,65535,65535,8,0,255,0,0,0,0,0,0,10,0,192,0,3,3
RC_CHANNELS_RAW,267851,0,172,992,934,950,172,172,172,1811,255,267831141,664,-371,16626,-30,55,-19,-65,-79,-314,0,-112,1,2,4,1656,-1,-1,-1,-1,3,369603623,-1220327826,0,65535,65535,8,0,255,0,0,0,0,0,0,10,0,192,0,3,3
RAW_IMU,267851,0,172,992,934,950,172,172,172,1811,255,267851144,640,-422,16660,-47,76,-11,-61,-83,-325,0,-80,1,2,4,1656,-1,-1,-1,-1,3,369603623,-1220327826,0,65535,65535,8,0,255,0,0,0,0,0,0,10,0,192,0,3,3
RC_CHANNELS_SCALED,267851,1,172,992,934,950,172,172,172,1811,255,267851144,640,-422,16660,-47,76,-11,-61,-83,-325,0,-80,2,1,-1,1654,-1,-1,-1,-1,3,369603623,-1220327826,0,65535,65535,8,0,255,0,0,0,0,0,0,10,0,192,0,3,3
RC_CHANNELS_RAW,267871,0,172,992,934,950,172,172,172,1811,255,267851144,640,-422,16660,-47,76,-11,-61,-83,-325,0,-80,2,1,-1,1654,-1,-1,-1,-1,3,369603623,-1220327826,0,65535,65535,8,0,255,0,0,0,0,0,0,10,0,192,0,3,3
RAW_IMU,267871,0,172,992,934,950,172,172,172,1811,255,267871148,579,-372,16628,-35,47,-25,-62,-75,-314,0,-32,2,1,-1,1654,-1,-1,-1,-1,3,369603623,-1220327826,0,65535,65535,8,0,255,0,0,0,0,0,0,10,0,192,0,3,3
RC_CHANNELS_SCALED,267871,1,172,992,934,950,172,172,172,1811,255,267871148,579,-372,16628,-35,47,-25,-62,-75,-314,0,-32,6,-2,0,1654,-1,-1,-1,-1,3,369603623,-1220327826,0,65535,65535,8,0,255,0,0,0,0,0,0,10,0,192,0,3,3
RC_CHANNELS_RAW,267891,0,172,992,933,950,172,172,172,1811,255,267871148,579,-372,16628,-35,47,-25,-62,-75,-314,0,-32,6,-2,0,1654,-1,-1,-1,-1,3,369603623,-1220327826,0,65535,65535,8,0,255,0,0,0,0,0,0,10,0,192,0,3,3
RAW_IMU,267891,0,172,992,933,950,172,172,172,1811,255,267891146,753,-395,16665,-15,67,-26,-73,-75,-306,0,0,6,-2,0,1654,-1,-1,-1,-1,3,369603623,-1220327826,0,65535,65535,8,0,255,0,0,0,0,0,0,10,0,192,0,3,3
RC_CHANNELS_SCALED,267891,1,172,992,933,950,172,172,172,1811,255,267891146,753,-395,16665,-15,67,-26,-73,-75,-306,0,0,2,-1,1,1654,-1,-1,-1,-1,3,369603623,-1220327826,0,65535,65535,8,0,255,0,0,0,0,0,0,10,0,192,0,3,3
GPS_RAW_INT,267891,1,172,992,933,950,172,172,172,1811,255,267901008,753,-395,16665,-15,67,-26,-73,-75,-306,0,0,2,-1,1,1654,-1,-1,-1,-1,3,369603625,-1220327826,0,65535,65535,7,0,255,0,0,0,0,0,0,10,0,192,0,3,3
RC_CHANNELS_RAW,267911,0,172,992,933,950,172,172,172,1811,255,267901008,753,-395,16665,-15,67,-26,-73,-75,-306,0,0,2,-1,1,1654,-1,-1,-1,-1,3,369603625,-1220327826,0,65535,65535,7,0,255,0,0,0,0,0,0,10,0,192,0,3,3
RAW_IMU,267911,0,172,992,933,950,172,172,172,1811,255,267911143,684,-323,16640,-43,55,-23,-63,-78,-307,0,-80,2,-1,1,1654,-1,-1,-1,-1,3,369603625,-1220327826,0,65535,65535,7,0,255,0,0,0,0,0,0,10,0,192,0,3,3
RC_CHANNELS_SCALED,267911,1,172,992,933,950,172,172,172,1811,255,267911143,684,-323,16640,-43,55,-23,-63,-78,-307,0,-80,1,-2,-2,1652,-1,-1,-1,-1,3,369603625,-1220327826,0,65535,65535,7,0,255,0,0,0,0,0,0,10,0,192,0,3,3
RC_CHANNELS_RAW,267931,0,172,992,933,950,172,172,172,1811,255,267911143,684,-323,16640,-43,55,-23,-63,-78,-307,0,-80,1,-2,-2,1652,-1,-1,-1,-1,3,369603625,-1220327826,0,65535,65535,7,0,255,0,0,0,0,0,0,10,0,192,0,3,3
RAW_IMU,267931,0,172,992,933,950,172,172,172,1811,255,267931140,711,-394,16608,-36,73,-17,-61,-78,-315,0,-144,1,-2,-2,1652,-1,-1,-1,-1,3,369603625,-1220327826,0,65535,65535,7,0,255,0,0,0,0,0,0,10,0,192,0,3,3
RC_CHANNELS_SCALED,267931,1,172,992,933,950,172,172,172,1811,255,267931140,711,-394,16608,-36,73,-17,-61,-78,-315,0,-144,2,1,-5,1651,-1,-1,-1,-1,3,369603625,-1220327826,0,65535,65535,7,0,255,0,0,0,0,0,0,10,0,192,0,3,3
RC_CHANNELS_RAW,267951,0,172,992,933,950,172,172,172,1811,255,267931140,711,-394,16608,-36,73,-17,-61,-78,-315,0,-144,2,1,-5,1651,-1,-1,-1,-1,3,369603625,-1220327826,0,65535,65535,7,0,255,0,0,0,0,0,0,10,0,192,0,3,3
RAW_IMU,267951,0,172,992,933,950,172,172,172,1811,255,267951142,695,-407,16624,-3,77,-28,-65,-79,-306,0,-80,2,1,-5,1651,-1,-1,-1,-1,3,369603625,-1220327826,0,65535,65535,7,0,255,0,0,0,0,0,0,10,0,192,0,3,3
RC_CHANNELS_SCALED,267951,1,172,992,933,950,172,172,172,1811,255,267951142,695,-407,16624,-3,77,-28,-65,-79,-306,0,-80,1,-1,-3,1653,-1,-1,-1,-1,3,369603625,-1220327826,0,65535,65535,7,0,255,0,0,0,0,0,0,10,0,192,0,3,3
RC_CHANNELS_RAW,267971,0,172,992,933,950,172,172,172,1811,255,267951142,695,-407,16624,-3,77,-28,-65,-79,-306,0,-80,1,-1,-3,1653,-1,-1,-1,-1,3,369603625,-1220327826,0,65535,65535,7,0,255,0,0,0,0,0,0,10,0,192,0,3,3
RAW_IMU,267971,0,172,992,933,950,172,172,172,1811,255,267971148,723,-376,16652,-41,73,-13,-62,-79,-314,0,-48,1,-1,-3,1653,-1,-1,-1,-1,3,369603625,-1220327826,0,65535,65535,7,0,255,0,0,0,0,0,0,10,0,192,0,3,3
RC_CHANNELS_SCALED,267971,1,172,992,933,950,172,172,172,1811,255,267971148,723,-376,16652,-41,73,-13,-62,-79,-314,0,-48,1,1,3,1656,-1,-1,-1,-1,3,369603625,-1220327826,0,65535,65535,7,0,255,0,0,0,0,0,0,10,0,192,0,3,3
RC_CHANNELS_RAW,267991,0,172,992,933,950,172,172,172,1811,255,267971148,723,-376,16652,-41,73,-13,-62,-79,-314,0,-48,1,1,3,1656,-1,-1,-1,-1,3,369603625,-1220327826,0,65535,65535,7,0,255,0,0,0,0,0,0,10,0,192,0,3,3
RAW_IMU,267991,0,172,992,933,950,172,172,172,1811,255,267991143,643,-301,16662,-36,65,-23,-65,-77,-309,0,-80,1,1,3,1656,-1,-1,-1,-1,3,369603625,-1220327826,0,65535,65535,7,0,255,0,0,0,0,0,0,10,0,192,0,3,3
RC_CHANNELS_SCALED,267991,1,172,992,933,950,172,172,172,1811,255,267991143,643,-301,16662,-36,65,-23,-65,-77,-309,0,-80,-2,-4,0,1655,-1,-1,-1,-1,3,369603625,-1220327826,0,65535,65535,7,0,255,0,0,0,0,0,0,10,0,192,0,3,3
HEARTBEAT,267991,1,172,992,933,950,172,172,172,1811,255,267991143,643,-301,16662,-36,65,-23,-65,-77,-309,0,-80,-2,-4,0,1655,-1,-1,-1,-1,3,369603625,-1220327826,0,65535,65535,7,0,255,0,0,0,0,0,0,10,0,192,0,3,3
GPS_RAW_INT,267991,1,172,992,933,950,172,172,172,1811,255,268002008,643,-301,16662,-36,65,-23,-65,-77,-309,0,-80,-2,-4,0,1655,-1,-1,-1,-1,3,369603623,-1220327821,0,65535,65535,2,0,255,0,0,0,0,0,0,10,0,192,0,3,3
RC_CHANNELS_RAW,268011,0,172,992,934,950,172,172,172,1811,255,268002008,643,-301,16662,-36,65,-23,-65,-77,-309,0,-80,-2,-4,0,1655,-1,-1,-1,-1,3,369603623,-1220327821,0,65535,65535,2,0,255,0,0,0,0,0,0,10,0,192,0,3,3
RAW_IMU,268011,0,172,992,934,950,172,172,172,1811,255,268011147,383,17,16254,-117,60,-41,-65,-77,-309,0,-48,-2,-4,0,1655,-1,-1,-1,-1,3,369603623,-1220327821,0,65535,65535,2,0,255,0,0,0,0,0,0,10,0,192,0,3,3
RC_CHANNELS_SCALED,268011,1,172,992,934,950,172,172,172,1811,255,268011147,383,17,16254,-117,60,-41,-65,-77,-309,0,-48,-4,0,0,1655,-1,-1,-1,-1,3,369603623,-1220327821,0,65535,65535,2,0,255,0,0,0,0,0,0,10,0,192,0,3,3
RC_CHANNELS_RAW,268031,0,172,992,933,950,172,172,172,1811,255,268011147,383,17,16254,-117,60,-41,-65,-77,-309,0,-48,-4,0,0,1655,-1,-1,-1,-1,3,369603623,-1220327821,0,65535,65535,2,0,255,0,0,0,0,0,0,10,0,192,0,3,3
RAW_IMU,268031,0,172,992,933,950,172,172,172,1811,255,268031148,1109,-402,16791,-120,95,-138,-62,-75,-311,0,-80,-4,0,0,1655,-1,-1,-1,-1,3,369603623,-1220327821,0,65535,65535,2,0,255,0,0,0,0,0,0,10,0,192,0,3,3
RC_CHANNELS_SCALED,268031,1,172,992,933,950,172,172,172,1811,255,268031148,1109,-402,16791,-120,95,-138,-62,-75,-311,0,-80,2,-3,1,1653,-1,-1,-1,-1,3,369603623,-1220327821,0,65535,65535,2,0,255,0,0,0,0,0,0,10,0,192,0,3,3
RC_CHANNELS_RAW,268051,0,172,992,933,950,172,172,172,1811,255,268031148,1109,-402,16791,-120,95,-138,-62,-75,-311,0,-80,2,-3,1,1653,-1,-1,-1,-1,3,369603623,-1220327821,0,65535,65535,2,0,255,0,0,0,0,0,0,10,0,192,0,3,3
RAW_IMU,268051,0,172,992,933,950,172,172,172,1811,255,268051142,-140,-134,16227,-90,-27,5,-67,-87,-318,0,-32,2,-3,1,1653,-1,-1,-1,-1,3,369603623,-1220327821,0,65535,65535,2,0,255,0,0,0,0,0,0,10,0,192,0,3,3
RC_CHANNELS_SCALED,268051,1,172,992,933,950,172,172,172,1811,255,268051142,-140,-134,16227,-90,-27,5,-67,-87,-318,0,-32,3,0,0,1655,-1,-1,-1,-1,3,369603623,-1220327821,0,65535,65535,2,0,255,0,0,0,0,0,0,10,0,192,0,3,3
RC_CHANNELS_RAW,268071,0,172,992,933,950,172,172,172,1811,255,268051142,-140,-134,16227,-90,-27,5,-67,-87,-318,0,-32,3,0,0,1655,-1,-1,-1,-1,3,369603623,-1220327821,0,65535,65535,2,0,255,0,0,0,0,0,0,10,0,192,0,3,3
RAW_IMU,268071,0,172,992,933,950,172,172,172,1811,255,268071148,701,-505,16769,-41,62,-36,-57,-84,-309,0,-112,3,0,0,1655,-1,-1,-1,-1,3,369603623,-1220327821,0,65535,65535,2,0,255,0,0,0,0,0,0,10,0,192,0,3,3
RC_CHANNELS_SCALED,268071,1,172,992,933,950,172,172,172,1811,255,268071148,701,-505,16769,-41,62,-36,-57,-84,-309,0,-112,-1,1,1,1653,-1,-1,-1,-1,3,369603623,-1220327821,0,65535,65535,2,0,255,0,0,0,0,0,0,10,0,192,0,3,3
RC_CHANNELS_RAW,268091,0,172,992,933,950,172,172,172,1811,255,268071148,701,-505,16769,-41,62,-36,-57,-84,-309,0,-112,-1,1,1,1653,-1,-1,-1,-1,3,369603623,-1220327821,0,65535,65535,2,0,255,0,0,0,0,0,0,10,0,192,0,3,3
RAW_IMU,268091,0,172,992,933,950,172,172,172,1811,255,268091141,902,-936,16689,-13,91,21,-62,-79,-311,0,-80,-1,1,1,1653,-1,-1,-1,-1,3,369603623,-1220327821,0,65535,65535,2,0,255,0,0,0,0,0,0,10,0,192,0,3,3
RC_CHANNELS_SCALED,268091,1,172,992,933,950,172,172,172,1811,255,268091141,902,-936,16689,-13,91,21,-62,-79,-311,0,-80,-3,2,-3,1650,-1,-1,-1,-1,3,369603623,-1220327821,0,65535,65535,2,0,255,0,0,0,0,0,0,10,0,192,0,3,3
GPS_RAW_INT,268091,1,172,992,933,950,172,172,172,1811,255,268103007,902,-936,16689,-13,91,21,-62,-79,-311,0,-80,-3,2,-3,1650,-1,-1,-1,-1,3,369603625,-1220327820,0,65535,65535,5,0,255,0,0,0,0,0,0,10,0,192,0,3,3
RC_CHANNELS_RAW,268111,0,172,992,933,950,172,172,172,1811,255,268103007,902,-936,16689,-13,91,21,-62,-79,-311,0,-80,-3,2,-3,1650,-1,-1,-1,-1,3,369603625,-1220327820,0,65535,65535,5,0,255,0,0,0,0,0,0,10,0,192,0,3,3
RAW_IMU,268111,0,172,992,933,950,172,172,172,1811,255,268111142,313,-171,16552,24,54,24,-58,-83,-310,0,-80,-3,2,-3,1650,-1,-1,-1,-1,3,369603625,-1220327820,0,65535,65535,5,0,255,0,0,0,0,0,0,10,0,192,0,3,3
RC_CHANNELS_SCALED,268111,1,172,992,933,950,172,172,172,1811,255,268111142,313,-171,16552,24,54,24,-58,-83,-310,0,-80,-1,0,0,1651,-1,-1,-1,-1,3,369603625,-1220327820,0,65535,65535,5,0,255,0,0,0,0,0,0,10,0,192,0,3,3
RC_CHANNELS_RAW,268131,0,172,992,934,950,172,172,172,1811,255,268111142,313,-171,16552,24,54,24,-58,-83,-310,0,-80,-1,0,0,1651,-1,-1,-1,-1,3,369603625,-1220327820,0,65535,65535,5,0,255,0,0,0,0,0,0,10,0,192,0,3,3
RAW_IMU,268131,0,172,992,934,950,172,172,172,1811,255,268131146,673,-471,17090,-8,26,-53,-67,-67,-316,0,-96,-1,0,0,1651,-1,-1,-1,-1,3,369603625,-1220327820,0,65535,65535,5,0,255,0,0,0,0,0,0,10,0,192,0,3,3
RC_CHANNELS_SCALED,268131,1,172,992,934,950,172,172,172,1811,255,268131146,673,-471,17090,-8,26,-53,-67,-67,-316,0,-96,2,1,-1,1649,-1,-1,-1,-1,3,369603625,-1220327820,0,65535,65535,5,0,255,0,0,0,0,0,0,10,0,192,0,3,3
RC_CHANNELS_RAW,268151,0,172,992,933,950,172,172,172,1811,255,268131146,673,-471,17090,-8,26,-53,-67,-67,-316,0,-96,2,1,-1,1649,-1,-1,-1,-1,3,369603625,-1220327820,0,65535,65535,5,0,255,0,0,0,0,0,0,10,0,192,0,3,3
RAW_IMU,268151,0,172,992,933,950,172,172,172,1811,255,268151144,854,-834,16387,-62,81,-32,-60,-82,-311,0,-80,2,1,-1,1649,-1,-1,-1,-1,3,369603625,-1220327820,0,65535,65535,5,0,255,0,0,0,0,0,0,10,0,192,0,3,3
RC_CHANNELS_SCALED,268151,1,172,992,933,950,172,172,172,1811,255,268151144,854,-834,16387,-62,81,-32,-60,-82,-311,0,-80,0,-2,3,1650,-1,-1,-1,-1,3,369603625,-1220327820,0,65535,65535,5,0,255,0,0,0,0,0,0,10,0,192,0,3,3
RC_CHANNELS_RAW,268171,0,172,992,933,950,172,172,172,1811,255,268151144,854,-834,16387,-62,81,-32,-60,-82,-311,0,-80,0,-2,3,1650,-1,-1,-1,-1,3,369603625,-1220327820,0,65535,65535,5,0,255,0,0,0,0,0,0,10,0,192,0,3,3
RAW_IMU,268171,0,172,992,933,950,172,172,172,1811,255,268171146,1011,179,17108,-27,58,-15,-61,-85,-310,0,-112,0,-2,3,1650,-1,-1,-1,-1,3,369603625,-1220327820,0,65535,65535,5,0,255,0,0,0,0,0,0,10,0,192,0,3,3
RC_CHANNELS_SCALED,268171,1,172,992,933,950,172,172,172,1811,255,268171146,1011,179,17108,-27,58,-15,-61,-85,-310,0,-112,-2,-3,0,1648,-1,-1,-1,-1,3,369603625,-1220327820,0,65535,65535,5,0,255,0,0,0,0,0,0,10,0,192,0,3,3
RC_CHANNELS_RAW,268191,0,172,992,934,950,172,172,172,1811,255,268171146,1011,179,17108,-27,58,-15,-61,-85,-310,0,-112,-2,-3,0,1648,-1,-1,-1,-1,3,369603625,-1220327820,0,65535,65535,5,0,255,0,0,0,0,0,0,10,0,192,0,3,3
RAW_IMU,268191,0,172,992,934,950,172,172,172,1811,255,268191141,869,577,16562,-129,138,-25,-65,-79,-321,0,-48,-2,-3,0,1648,-1,-1,-1,-1,3,369603625,-1220327820,0,65535,65535,5,0,255,0,0,0,0,0,0,10,0,192,0,3,3
RC_CHANNELS_SCALED,268191,1,172,992,934,950,172,172,172,1811,255,268191141,869,577,16562,-129,138,-25,-65,-79,-321,0,-48,1,-2,-1,1648,-1,-1,-1,-1,3,369603625,-1220327820,0,65535,65535,5,0,255,0,0,0,0,0,0,10,0,192,0,3,3
GPS_RAW_INT,268191,1,172,992,934,950,172,172,172,1811,255,268204008,869,577,16562,-129,138,-25,-65,-79,-321,0,-48,1,-2,-1,1648,-1,-1,-1,-1,3,369603625,-1220327823,0,65535,65535,5,0,255,0,0,0,0,0,0,10,0,192,0,3,3
RC_CHANNELS_RAW,268211,0,172,992,934,950,172,172,172,1811,255,268204008,869,577,16562,-129,138,-25,-65,-79,-321,0,-48,1,-2,-1,1648,-1,-1,-1,-1,3,369603625,-1220327823,0,65535,65535,5,0,255,0,0,0,0,0,0,10,0,192,0,3,3
RAW_IMU,268211,0,172,992,934,950,172,172,172,1811,255,268211142,281,452,17462,-166,101,-75,-56,-78,-317,0,-112,1,-2,-1,1648,-1,-1,-1,-1,3,369603625,-1220327823,0,65535,65535,5,0,255,0,0,0,0,0,0,10,0,192,0,3,3
RC_CHANNELS_SCALED,268211,1,172,992,934,950,172,172,172,1811,255,268211142,281,452,17462,-166,101,-75,-56,-78,-317,0,-112,-2,-2,0,1646,-1,-1,-1,-1,3,369603625,-1220327823,0,65535,65535,5,0,255,0,0,0,0,0,0,10,0,192,0,3,3
RC_CHANNELS_RAW,268231,0,172,992,934,950,172,172,172,1811,255,268211142,281,452,17462,-166,101,-75,-56,-78,-317,0,-112,-2,-2,0,1646,-1,-1,-1,-1,3,369603625,-1220327823,0,65535,65535,5,0,255,0,0,0,0,0,0,10,0,192,0,3,3
RAW_IMU,268231,0,172,992,934,950,172,172,172,1811,255,268231144,586,-361,16225,-58,33,28,-53,-73,-310,0,-112,-2,-2,0,1646,-1,-1,-1,-1,3,369603625,-1220327823,0,65535,65535,5,0,255,0,0,0,0,0,0,10,0,192,0,3,3
RC_CHANNELS_SCALED,268231,1,172,992,934,950,172,172,172,1811,255,268231144,586,-361,16225,-58,33,28,-53,-73,-310,0,-112,-4,0,1,1648,-1,-1,-1,-1,3,369603625,-1220327823,0,65535,65535,5,0,255,0,0,0,0,0,0,10,0,192,0,3,3
RC_CHANNELS_RAW,268251,0,172,992,933,950,172,172,172,1811,255,268231144,586,-361,16225,-58,33,28,-53,-73,-310,0,-112,-4,0,1,1648,-1,-1,-1,-1,3,369603625,-1220327823,0,65535,65535,5,0,255,0,0,0,0,0,0,10,0,192,0,3,3
RAW_IMU,268251,0,172,992,933,950,172,172,172,1811,255,268251146,576,-354,16849,-47,105,-61,-57,-79,-316,0,-112,-4,0,1,1648,-1,-1,-1,-1,3,369603625,-1220327823,0,65535,65535,5,0,255,0,0,0,0,0,0,10,0,192,0,3,3
RC_CHANNELS_SCALED,268251,1,172,992,933,950,172,172,172,1811,255,268251146,576,-354,16849,-47,105,-61,-57,-79,-316,0,-112,-1,4,-1,1647,-1,-1,-1,-1,3,369603625,-1220327823,0,65535,65535,5,0,255,0,0,0,0,0,0,10,0,192,0,3,3
RC_CHANNELS_RAW,268271,0,172,992,933,950,172,172,172,1811,255,268251146,576,-354,16849,-47,105,-61,-57,-79,-316,0,-112,-1,4,-1,1647,-1,-1,-1,-1,3,369603625,-1220327823,0,65535,65535,5,0,255,0,0,0,0,0,0,10,0,192,0,3,3
RAW_IMU,268271,0,172,992,933,950,172,172,172,1811,255,268271149,-212,394,16391,-55,42,0,-67,-79,-318,0,-96,-1,4,-1,1647,-1,-1,-1,-1,3,369603625,-1220327823,0,65535,65535,5,0,255,0,0,0,0,0,0,10,0,192,0,3,3
RC_CHANNELS_SCALED,268271,1,172,992,933,950,172,172,172,1811,255,268271149,-212,394,16391,-55,42,0,-67,-79,-318,0,-96,-3,2,-1,1647,-1,-1,-1,-1,3,369603625,-1220327823,0,65535,65535,5,0,255,0,0,0,0,0,0,10,0,192,0,3,3
RC_CHANNELS_RAW,268291,0,172,992,933,950,172,172,172,1811,255,268271149,-212,394,16391,-55,42,0,-67,-79,-318,0,-96,-3,2,-1,1647,-1,-1,-1,-1,3,369603625,-1220327823,0,65535,65535,5,0,255,0,0,0,0,0,0,10,0,192,0,3,3
RAW_IMU,268291,0,172,992,933,950,172,172,172,1811,255,268291146,200,1050,17031,-364,106,-256,-58,-78,-305,0,0,-3,2,-1,1647,-1,-1,-1,-1,3,369603625,-1220327823,0,65535,65535,5,0,255,0,0,0,0,0,0,10,0,192,0,3,3
RC_CHANNELS_SCALED,268291,1,172,992,933,950,172,172,172,1811,255,268291146,200,1050,17031,-364,106,-256,-58,-78,-305,0,0,-3,2,4,1650,-1,-1,-1,-1,3,369603625,-1220327823,0,65535,65535,5,0,255,0,0,0,0,0,0,10,0,192,0,3,3
GPS_RAW_INT,268291,1,172,992,933,950,172,172,172,1811,255,268305006,200,1050,17031,-364,106,-256,-58,-78,-305,0,0,-3,2,4,1650,-1,-1,-1,-1,3,369603623,-1220327831,0,65535,65535,17,0,255,0,0,0,0,0,0,10,0,192,0,3,3
